geoName,interest,date,lat,long
Oklahoma City OK USA,100,2019-01-07,35.4729886,-97.5170536
Atlanta GA USA,31,2019-01-14,33.7490987,-84.3901849
Miami FL USA,47,2019-01-14,25.7742658,-80.1936589
Philadelphia PA USA,29,2019-01-14,39.9527237,-75.1635262
San Antonio TX USA,100,2019-01-14,29.4246002,-98.4951405
Boston MA USA,22,2019-01-21,42.3602534,-71.0582912
Hartford CT USA,60,2019-01-21,43.648048,-70.241416
Jacksonville FL USA,100,2019-01-21,30.3321838,-81.655651
Washington DC USA,18,2019-01-21,38.8948932,-77.0365529
Atlanta GA USA,2,2019-01-28,33.7490987,-84.3901849
Chicago IL USA,1,2019-01-28,41.8755616,-87.6244212
Dallas TX USA,2,2019-01-28,32.7762719,-96.7968559
Detroit MI USA,3,2019-01-28,42.3315509,-83.0466403
Flint MI USA,18,2019-01-28,43.0161693,-83.6900211
Grand Rapids MI USA,9,2019-01-28,42.9142413,-85.533004
Jackson TN USA,100,2019-01-28,35.6144446,-88.8177418
Tampa FL USA,3,2019-01-28,27.9518491,-82.4563972
Albuquerque NM USA,100,2019-02-04,35.0841034,-106.6509851
Boston MA USA,20,2019-02-04,42.3602534,-71.0582912
Boston MA USA,100,2019-02-11,42.3602534,-71.0582912
Phoenix AZ USA,27,2019-02-18,33.4484367,-112.0741417
Richmond VA USA,100,2019-02-18,37.5385087,-77.43428
San Diego CA USA,39,2019-02-18,32.7174209,-117.1627714
West Palm Beach FL USA,77,2019-02-18,26.7153425,-80.0533746
Portland OR USA,100,2019-02-25,45.5202471,-122.6741949
San Francisco CA USA,35,2019-02-25,37.7790262,-122.4199061
Atlanta GA USA,100,2019-03-04,33.7490987,-84.3901849
Boston MA USA,2,2019-03-11,42.3602534,-71.0582912
Chicago IL USA,1,2019-03-11,41.8755616,-87.6244212
Detroit MI USA,3,2019-03-11,42.3315509,-83.0466403
Greenville NC USA,25,2019-03-11,35.612661,-77.3663538
Houston TX USA,2,2019-03-11,29.7589382,-95.3676974
Jacksonville FL USA,10,2019-03-11,30.3321838,-81.655651
Laredo TX USA,100,2019-03-11,27.5199841,-99.4953764
Miami FL USA,3,2019-03-11,25.7742658,-80.1936589
New York NY USA,1,2019-03-11,40.7127281,-74.0060152
Norfolk VA USA,8,2019-03-11,36.8889933,-76.2481624
Atlanta GA USA,3,2019-03-18,33.7490987,-84.3901849
Austin TX USA,5,2019-03-18,30.2711286,-97.7436995
Baltimore MD USA,5,2019-03-18,39.284749399999995,-76.62047463969989
Buffalo NY USA,9,2019-03-18,42.8867166,-78.8783922
Cleveland OH USA,3,2019-03-18,41.5051613,-81.6934446
Denver CO USA,3,2019-03-18,39.7348381,-104.9653271
El Paso TX USA,17,2019-03-18,31.7754152,-106.4646348
Ft. Myers FL USA,10,2019-03-18,26.640628,-81.8723084
Greenville NC USA,19,2019-03-18,35.612661,-77.3663538
Huntsville AL USA,18,2019-03-18,33.554113,-86.804219
Kansas City MO USA,5,2019-03-18,39.100105,-94.5781416
Los Angeles CA USA,2,2019-03-18,34.0536909,-118.2427666
Miami FL USA,5,2019-03-18,25.7742658,-80.1936589
Nashville TN USA,4,2019-03-18,36.1622296,-86.7743531
New York NY USA,1,2019-03-18,40.7127281,-74.0060152
Orlando FL USA,4,2019-03-18,28.5479786,-81.41278418563017
Raleigh NC USA,3,2019-03-18,35.7803977,-78.6390989
Sacramento CA USA,3,2019-03-18,38.5815719,-121.4943996
San Francisco CA USA,1,2019-03-18,37.7790262,-122.4199061
Tampa FL USA,3,2019-03-18,27.9518491,-82.4563972
Twin Falls ID USA,100,2019-03-18,42.5704219,-114.4603171
West Palm Beach FL USA,7,2019-03-18,26.7153425,-80.0533746
Albany NY USA,25,2019-03-25,42.6511674,-73.754968
Traverse City MI USA,100,2019-03-25,44.7606441,-85.6165301
Washington DC USA,4,2019-03-25,38.8948932,-77.0365529
West Palm Beach FL USA,19,2019-03-25,26.7153425,-80.0533746
Lincoln NE USA,100,2019-04-01,40.8088861,-96.7077751
Los Angeles CA USA,3,2019-04-01,34.0536909,-118.2427666
New York NY USA,2,2019-04-01,40.7127281,-74.0060152
Washington DC USA,6,2019-04-01,38.8948932,-77.0365529
New York NY USA,100,2019-04-08,40.7127281,-74.0060152
New York NY USA,7,2019-04-15,40.7127281,-74.0060152
West Palm Beach FL USA,100,2019-04-15,26.7153425,-80.0533746
West Palm Beach FL USA,100,2019-04-22,26.7153425,-80.0533746
Seattle WA USA,100,2019-04-29,47.6038321,-122.3300624
Denver CO USA,100,2019-05-13,39.7348381,-104.9653271
Charleston SC USA,26,2019-05-20,32.7876012,-79.9402728
Columbus MS USA,100,2019-05-20,43.336875649999996,-89.0196532340367
Dallas TX USA,2,2019-05-20,32.7762719,-96.7968559
Jacksonville FL USA,13,2019-05-20,30.3321838,-81.655651
Little Rock AR USA,21,2019-05-20,34.7464809,-92.2895948
Los Angeles CA USA,1,2019-05-20,34.0536909,-118.2427666
New York NY USA,1,2019-05-20,40.7127281,-74.0060152
Omaha NE USA,17,2019-05-20,41.2587459,-95.9383758
San Antonio TX USA,9,2019-05-20,29.4246002,-98.4951405
South Bend IN USA,33,2019-05-20,41.6833813,-86.2500066
Washington DC USA,2,2019-05-20,38.8948932,-77.0365529
Atlanta GA USA,12,2019-05-27,33.7490987,-84.3901849
Boston MA USA,12,2019-05-27,42.3602534,-71.0582912
Denver CO USA,19,2019-05-27,39.7348381,-104.9653271
Detroit MI USA,19,2019-05-27,42.3315509,-83.0466403
Greensboro NC USA,65,2019-05-27,36.0726355,-79.7919754
Milwaukee WI USA,37,2019-05-27,43.0349931,-87.922497
New York NY USA,4,2019-05-27,40.7127281,-74.0060152
Raleigh NC USA,24,2019-05-27,35.7803977,-78.6390989
Rochester NY USA,100,2019-05-27,43.157285,-77.615214
San Francisco CA USA,9,2019-05-27,37.7790262,-122.4199061
Washington DC USA,10,2019-05-27,38.8948932,-77.0365529
Boston MA USA,6,2019-06-03,42.3602534,-71.0582912
Dallas TX USA,5,2019-06-03,32.7762719,-96.7968559
Evansville IN USA,100,2019-06-03,37.9747645,-87.5558483
Raleigh NC USA,12,2019-06-03,35.7803977,-78.6390989
Washington DC USA,100,2019-06-10,38.8948932,-77.0365529
Albany NY USA,17,2019-06-24,42.6511674,-73.754968
Albuquerque NM USA,15,2019-06-24,35.0841034,-106.6509851
Atlanta GA USA,7,2019-06-24,33.7490987,-84.3901849
Austin TX USA,9,2019-06-24,30.2711286,-97.7436995
Baltimore MD USA,9,2019-06-24,39.284749399999995,-76.62047463969989
Boston MA USA,6,2019-06-24,42.3602534,-71.0582912
Charlotte NC USA,15,2019-06-24,35.2270869,-80.8431268
Chicago IL USA,3,2019-06-24,41.8755616,-87.6244212
Cincinnati OH USA,15,2019-06-24,39.1014537,-84.5124602
Dallas TX USA,5,2019-06-24,32.7762719,-96.7968559
Denver CO USA,5,2019-06-24,39.7348381,-104.9653271
Detroit MI USA,5,2019-06-24,42.3315509,-83.0466403
Eugene OR USA,45,2019-06-24,44.0505054,-123.0950506
Fresno CA USA,17,2019-06-24,36.7295295,-119.70886126075588
Ft. Myers FL USA,23,2019-06-24,26.640628,-81.8723084
Greensboro NC USA,17,2019-06-24,36.0726355,-79.7919754
Greenville NC USA,70,2019-06-24,35.612661,-77.3663538
Hartford CT USA,9,2019-06-24,43.648048,-70.241416
Honolulu HI USA,19,2019-06-24,21.304547,-157.8556764
Houston TX USA,3,2019-06-24,29.7589382,-95.3676974
Jacksonville FL USA,14,2019-06-24,30.3321838,-81.655651
Kansas City MO USA,15,2019-06-24,39.100105,-94.5781416
Las Vegas NV USA,11,2019-06-24,36.1672559,-115.1485163
Los Angeles CA USA,2,2019-06-24,34.0536909,-118.2427666
Louisville KY USA,15,2019-06-24,38.2542376,-85.759407
Miami FL USA,12,2019-06-24,25.7742658,-80.1936589
Minneapolis MN USA,5,2019-06-24,44.9772995,-93.2654692
Minot ND USA,79,2019-06-24,48.23251,-101.296273
Mobile AL USA,19,2019-06-24,39.092585,-84.853229
Monroe LA USA,100,2019-06-24,38.2722313,-90.1792484
Nashville TN USA,7,2019-06-24,36.1622296,-86.7743531
New Orleans LA USA,15,2019-06-24,29.9499323,-90.0701156
New York NY USA,5,2019-06-24,40.7127281,-74.0060152
Oklahoma City OK USA,16,2019-06-24,35.4729886,-97.5170536
Orlando FL USA,10,2019-06-24,28.5479786,-81.41278418563017
Panama City FL USA,68,2019-06-24,30.1600827,-85.6545729
Pittsburgh PA USA,9,2019-06-24,40.4416941,-79.9900861
Portland ME USA,24,2019-06-24,43.6610277,-70.2548596
Raleigh NC USA,10,2019-06-24,35.7803977,-78.6390989
Roanoke VA USA,26,2019-06-24,37.270973,-79.9414313
San Diego CA USA,12,2019-06-24,32.7174209,-117.1627714
San Francisco CA USA,5,2019-06-24,37.7790262,-122.4199061
Santa Barbara CA USA,39,2019-06-24,34.4221319,-119.7026673
Savannah GA USA,59,2019-06-24,32.0809263,-81.0911768
Seattle WA USA,4,2019-06-24,47.6038321,-122.3300624
Tampa FL USA,10,2019-06-24,27.9518491,-82.4563972
Waco TX USA,28,2019-06-24,31.549333,-97.1466695
Washington DC USA,5,2019-06-24,38.8948932,-77.0365529
West Palm Beach FL USA,20,2019-06-24,26.7153425,-80.0533746
Wichita Falls TX USA,88,2019-06-24,33.9137085,-98.4933873
Abilene TX USA,25,2019-07-01,32.44645,-99.7475905
Albany GA USA,22,2019-07-01,40.0555158,-82.8457691
Albany NY USA,24,2019-07-01,42.6511674,-73.754968
Albuquerque NM USA,18,2019-07-01,35.0841034,-106.6509851
Alexandria LA USA,50,2019-07-01,38.8147596,-77.09024765272724
Amarillo TX USA,12,2019-07-01,35.2072185,-101.8338246
Anchorage AK USA,12,2019-07-01,61.2163129,-149.8948523
Atlanta GA USA,63,2019-07-01,33.7490987,-84.3901849
Augusta GA USA,50,2019-07-01,33.4709714,-81.9748429
Austin TX USA,24,2019-07-01,30.2711286,-97.7436995
Bakersfield CA USA,16,2019-07-01,35.3738712,-119.0194639
Baltimore MD USA,36,2019-07-01,39.284749399999995,-76.62047463969989
Bangor ME USA,40,2019-07-01,44.8011821,-68.7778138
Baton Rouge LA USA,29,2019-07-01,30.4459596,-91.18738
Beaumont TX USA,39,2019-07-01,30.0860459,-94.1018461
Bend OR USA,38,2019-07-01,44.0581728,-121.3153096
"Billings, MT USA",26,2019-07-01,45.7874957,-108.49607
Biloxi MS USA,29,2019-07-01,30.374673,-88.84594333482862
Binghamton NY USA,33,2019-07-01,42.096968,-75.914341
Birmingham AL USA,29,2019-07-01,33.570499,-86.765783
Bluefield WV USA,28,2019-07-01,37.2698395,-81.2223195
Boise ID USA,22,2019-07-01,43.6166163,-116.200886
Boston MA USA,31,2019-07-01,42.3602534,-71.0582912
Bowling Green KY USA,29,2019-07-01,36.9903199,-86.4436018
Buffalo NY USA,19,2019-07-01,42.8867166,-78.8783922
Burlington VT USA,33,2019-07-01,44.4762975,-73.2135472
Butte MT USA,42,2019-07-01,46.0131505,-112.5365089
Casper WY USA,32,2019-07-01,39.4632037,-75.7079641
Cedar Rapids IA USA,18,2019-07-01,41.9758872,-91.6704053
Champaign IL USA,25,2019-07-01,40.1164205,-88.2433829
Charleston SC USA,34,2019-07-01,32.7876012,-79.9402728
Charleston WV USA,16,2019-07-01,38.3505995,-81.6332812
Charlotte NC USA,29,2019-07-01,35.2270869,-80.8431268
Charlottesville VA USA,31,2019-07-01,38.029306,-78.4766781
Chattanooga TN USA,27,2019-07-01,35.0457219,-85.3094883
Cheyenne WY USA,28,2019-07-01,40.640361,-74.367318
Chicago IL USA,26,2019-07-01,41.8755616,-87.6244212
Chico CA USA,13,2019-07-01,39.7284945,-121.8374777
Cincinnati OH USA,28,2019-07-01,39.1014537,-84.5124602
Clarksburg WV USA,20,2019-07-01,39.2806451,-80.3445341
Cleveland OH USA,22,2019-07-01,41.5051613,-81.6934446
Colorado Springs CO USA,11,2019-07-01,38.8339578,-104.8253485
Columbia SC USA,34,2019-07-01,34.0007493,-81.0343313
Columbia MO USA,13,2019-07-01,38.951883,-92.3337366
Columbus GA USA,57,2019-07-01,32.4609764,-84.9877094
Columbus OH USA,28,2019-07-01,39.9622601,-83.0007065
Columbus MS USA,19,2019-07-01,43.336875649999996,-89.0196532340367
Corpus Christi TX USA,16,2019-07-01,27.7477253,-97.4014129
Dallas TX USA,22,2019-07-01,32.7762719,-96.7968559
Davenport IA USA,15,2019-07-01,41.5236436,-90.5776368
Dayton OH USA,18,2019-07-01,39.7589478,-84.1916069
Denver CO USA,29,2019-07-01,39.7348381,-104.9653271
Des Moines IA USA,19,2019-07-01,41.5910641,-93.6037149
Detroit MI USA,27,2019-07-01,42.3315509,-83.0466403
Dothan AL USA,46,2019-07-01,31.2237434,-85.3933906
Duluth MN USA,28,2019-07-01,46.7729322,-92.1251218
El Paso TX USA,17,2019-07-01,31.7754152,-106.4646348
Elmira NY USA,37,2019-07-01,42.0897965,-76.8077338
Erie PA USA,18,2019-07-01,42.1294712,-80.0852695
Eugene OR USA,10,2019-07-01,44.0505054,-123.0950506
Eureka CA USA,25,2019-07-01,40.8020712,-124.1636729
Evansville IN USA,30,2019-07-01,37.9747645,-87.5558483
Fairbanks AK USA,32,2019-07-01,64.837845,-147.716675
Fargo ND USA,21,2019-07-01,46.877229,-96.789821
Flint MI USA,15,2019-07-01,43.0161693,-83.6900211
Florence SC USA,35,2019-07-01,34.1984435,-79.7671658
Fresno CA USA,9,2019-07-01,36.7295295,-119.70886126075588
Ft. Myers FL USA,21,2019-07-01,26.640628,-81.8723084
Ft. Smith AR USA,12,2019-07-01,35.3872218,-94.4248983
Ft. Wayne IN USA,19,2019-07-01,41.0799898,-85.1386015
Gainesville FL USA,22,2019-07-01,29.67357765,-82.32337460192167
Grand Junction CO USA,43,2019-07-01,39.063956,-108.5507317
Grand Rapids MI USA,23,2019-07-01,42.9142413,-85.533004
Green Bay WI USA,13,2019-07-01,44.5126379,-88.0125794
Greensboro NC USA,33,2019-07-01,36.0726355,-79.7919754
Greenville NC USA,18,2019-07-01,35.612661,-77.3663538
Greenville SC USA,22,2019-07-01,34.851354,-82.3984882
Greenwood MS USA,41,2019-07-01,39.59493885,-86.12237861696312
Harlingen TX USA,8,2019-07-01,26.1908241,-97.6959794
Harrisburg PA USA,19,2019-07-01,40.2663107,-76.8861122
Harrisonburg VA USA,52,2019-07-01,38.4493315,-78.8688833
Hartford CT USA,24,2019-07-01,43.648048,-70.241416
Hattiesburg MS USA,20,2019-07-01,31.3271189,-89.2903392
Helena MT USA,49,2019-07-01,46.5927425,-112.0362771
Honolulu HI USA,17,2019-07-01,21.304547,-157.8556764
Houston TX USA,25,2019-07-01,29.7589382,-95.3676974
Huntsville AL USA,30,2019-07-01,33.554113,-86.804219
Idaho Falls ID USA,24,2019-07-01,43.4935245,-112.0400919
Indianapolis IN USA,22,2019-07-01,39.7683331,-86.1583502
Jackson MS USA,35,2019-07-01,28.530801699999998,-81.30324431076107
Jackson TN USA,31,2019-07-01,35.6144446,-88.8177418
Jacksonville FL USA,38,2019-07-01,30.3321838,-81.655651
Johnstown PA USA,16,2019-07-01,40.3267407,-78.9219698
Jonesboro AR USA,24,2019-07-01,35.8428646,-90.7034522
Joplin MO USA,13,2019-07-01,37.08418,-94.51323
Juneau AK USA,46,2019-07-01,58.3019496,-134.419734
Kansas City MO USA,28,2019-07-01,39.100105,-94.5781416
Knoxville TN USA,19,2019-07-01,35.9603948,-83.9210261
La Crosse WI USA,8,2019-07-01,43.8014053,-91.2395429
Lafayette IN USA,31,2019-07-01,40.4167022,-86.8752869
Lafayette LA USA,27,2019-07-01,30.2240897,-92.0198427
Lansing MI USA,17,2019-07-01,42.7338147,-84.5207088
Laredo TX USA,16,2019-07-01,27.5199841,-99.4953764
Las Vegas NV USA,20,2019-07-01,36.1672559,-115.1485163
Lexington KY USA,17,2019-07-01,38.0464066,-84.4970393
Lima OH USA,32,2019-07-01,40.7399785,-84.105006
Lincoln NE USA,14,2019-07-01,40.8088861,-96.7077751
Little Rock AR USA,26,2019-07-01,34.7464809,-92.2895948
Los Angeles CA USA,21,2019-07-01,34.0536909,-118.2427666
Louisville KY USA,26,2019-07-01,38.2542376,-85.759407
Lubbock TX USA,15,2019-07-01,33.5635206,-101.879336
Macon GA USA,35,2019-07-01,32.8406946,-83.6324022
Madison WI USA,24,2019-07-01,43.074761,-89.3837613
Mankato MN USA,62,2019-07-01,44.1634663,-93.9993505
Marquette MI USA,41,2019-07-01,46.4481521,-87.6305899
Medford OR USA,13,2019-07-01,42.3264181,-122.8718605
Memphis TN USA,24,2019-07-01,35.1490215,-90.0516285
Meridian MS USA,100,2019-07-01,43.61732135,-116.40613112241579
Miami FL USA,36,2019-07-01,25.7742658,-80.1936589
Milwaukee WI USA,21,2019-07-01,43.0349931,-87.922497
Minneapolis MN USA,24,2019-07-01,44.9772995,-93.2654692
Minot ND USA,11,2019-07-01,48.23251,-101.296273
Missoula MT USA,24,2019-07-01,46.8701049,-113.9952672
Mobile AL USA,22,2019-07-01,39.092585,-84.853229
Monroe LA USA,13,2019-07-01,38.2722313,-90.1792484
Monterey CA USA,17,2019-07-01,36.2231079,-121.3877428
Montgomery AL USA,20,2019-07-01,40.85239,-78.266098
Nashville TN USA,17,2019-07-01,36.1622296,-86.7743531
New Orleans LA USA,46,2019-07-01,29.9499323,-90.0701156
New York NY USA,30,2019-07-01,40.7127281,-74.0060152
Norfolk VA USA,31,2019-07-01,36.8889933,-76.2481624
Odessa TX USA,26,2019-07-01,31.8457149,-102.367687
Oklahoma City OK USA,24,2019-07-01,35.4729886,-97.5170536
Omaha NE USA,16,2019-07-01,41.2587459,-95.9383758
Orlando FL USA,28,2019-07-01,28.5479786,-81.41278418563017
Ottumwa IA USA,45,2019-07-01,41.0200145,-92.4112963
Paducah KY USA,18,2019-07-01,37.0833893,-88.6000478
Palm Springs CA USA,21,2019-07-01,33.8246269,-116.540303
Panama City FL USA,22,2019-07-01,30.1600827,-85.6545729
Parkersburg WV USA,32,2019-07-01,39.2699565,-81.5506916
Peoria IL USA,16,2019-07-01,40.6938609,-89.5891008
Philadelphia PA USA,31,2019-07-01,39.9527237,-75.1635262
Phoenix AZ USA,17,2019-07-01,33.4484367,-112.0741417
Pittsburgh PA USA,24,2019-07-01,40.4416941,-79.9900861
Portland OR USA,16,2019-07-01,45.5202471,-122.6741949
Portland ME USA,22,2019-07-01,43.6610277,-70.2548596
Providence RI USA,24,2019-07-01,41.8239891,-71.4128343
Quincy IL USA,21,2019-07-01,42.2528772,-71.0022705
Raleigh NC USA,33,2019-07-01,35.7803977,-78.6390989
Rapid City SD USA,22,2019-07-01,44.081176,-103.228006
Reno NV USA,21,2019-07-01,39.5261206,-119.8126581
Richmond VA USA,37,2019-07-01,37.5385087,-77.43428
Roanoke VA USA,27,2019-07-01,37.270973,-79.9414313
Rochester MN USA,10,2019-07-01,44.0234387,-92.4630182
Rochester NY USA,28,2019-07-01,43.157285,-77.615214
Rockford IL USA,23,2019-07-01,42.2713945,-89.093966
Sacramento CA USA,21,2019-07-01,38.5815719,-121.4943996
Salisbury MD USA,39,2019-07-01,38.3662114,-75.6008881
Salt Lake City UT USA,18,2019-07-01,40.7596198,-111.8867975
San Angelo TX USA,48,2019-07-01,31.4648357,-100.4398442
San Antonio TX USA,15,2019-07-01,29.4246002,-98.4951405
San Diego CA USA,23,2019-07-01,32.7174209,-117.1627714
San Francisco CA USA,26,2019-07-01,37.7790262,-122.4199061
Santa Barbara CA USA,21,2019-07-01,34.4221319,-119.7026673
Savannah GA USA,29,2019-07-01,32.0809263,-81.0911768
Seattle WA USA,17,2019-07-01,47.6038321,-122.3300624
Sherman TX USA,14,2019-07-01,36.2452294,-101.8858689
Shreveport LA USA,30,2019-07-01,32.5221828,-93.7651944
Sioux City IA USA,28,2019-07-01,42.4966815,-96.4058782
Sioux Falls SD USA,9,2019-07-01,43.5499749,-96.700327
South Bend IN USA,12,2019-07-01,41.6833813,-86.2500066
Spokane WA USA,14,2019-07-01,47.6579425,-117.4212265
Springfield MO USA,23,2019-07-01,37.2166779,-93.2920373
Springfield MA USA,18,2019-07-01,42.1014831,-72.589811
St. Louis MO USA,20,2019-07-01,38.6268039,-90.1994097
Syracuse NY USA,25,2019-07-01,43.0481221,-76.1474244
Tallahassee FL USA,22,2019-07-01,30.4380832,-84.2809332
Tampa FL USA,30,2019-07-01,27.9518491,-82.4563972
Terre Haute IN USA,29,2019-07-01,39.4667025,-87.4139119
Toledo OH USA,20,2019-07-01,41.6786754,-83.5127283
Topeka KS USA,19,2019-07-01,39.049011,-95.677556
Traverse City MI USA,32,2019-07-01,44.7606441,-85.6165301
Tri VA USA,21,2019-07-01,38.5467876,-77.3366491
Tucson AZ USA,11,2019-07-01,32.2228765,-110.9748477
Tulsa OK USA,15,2019-07-01,36.1556805,-95.9929113
Twin Falls ID USA,35,2019-07-01,42.5704219,-114.4603171
Tyler TX USA,19,2019-07-01,32.3512601,-95.3010624
Utica NY USA,22,2019-07-01,43.1009031,-75.2326641
Victoria TX USA,52,2019-07-01,28.8026443,-96.9766308
Waco TX USA,19,2019-07-01,31.549333,-97.1466695
Washington DC USA,39,2019-07-01,38.8948932,-77.0365529
Watertown NY USA,52,2019-07-01,43.9747838,-75.9107565
Wausau WI USA,23,2019-07-01,44.9596017,-89.6298239
West Palm Beach FL USA,93,2019-07-01,26.7153425,-80.0533746
Wheeling WV USA,15,2019-07-01,40.0639616,-80.7209149
Wichita Falls TX USA,18,2019-07-01,33.9137085,-98.4933873
Wichita KS USA,20,2019-07-01,37.6922361,-97.3375448
Wilkes Barre PA USA,18,2019-07-01,41.2464824,-75.8817316
Wilmington NC USA,51,2019-07-01,34.2257282,-77.9447107
Yakima WA USA,8,2019-07-01,46.601557,-120.5108421
Youngstown OH USA,16,2019-07-01,41.1035786,-80.6520161
Yuma AZ USA,14,2019-07-01,32.6926588,-114.6276157
Abilene TX USA,32,2019-07-08,32.44645,-99.7475905
Albany GA USA,79,2019-07-08,40.0555158,-82.8457691
Albany NY USA,22,2019-07-08,42.6511674,-73.754968
Albuquerque NM USA,12,2019-07-08,35.0841034,-106.6509851
Alexandria LA USA,47,2019-07-08,38.8147596,-77.09024765272724
Amarillo TX USA,19,2019-07-08,35.2072185,-101.8338246
Anchorage AK USA,47,2019-07-08,61.2163129,-149.8948523
Atlanta GA USA,45,2019-07-08,33.7490987,-84.3901849
Augusta GA USA,36,2019-07-08,33.4709714,-81.9748429
Austin TX USA,19,2019-07-08,30.2711286,-97.7436995
Bakersfield CA USA,17,2019-07-08,35.3738712,-119.0194639
Baltimore MD USA,26,2019-07-08,39.284749399999995,-76.62047463969989
Bangor ME USA,33,2019-07-08,44.8011821,-68.7778138
Baton Rouge LA USA,22,2019-07-08,30.4459596,-91.18738
Beaumont TX USA,21,2019-07-08,30.0860459,-94.1018461
Bend OR USA,34,2019-07-08,44.0581728,-121.3153096
"Billings, MT USA",31,2019-07-08,45.7874957,-108.49607
Binghamton NY USA,46,2019-07-08,42.096968,-75.914341
Birmingham AL USA,28,2019-07-08,33.570499,-86.765783
Boise ID USA,18,2019-07-08,43.6166163,-116.200886
Boston MA USA,27,2019-07-08,42.3602534,-71.0582912
Bowling Green KY USA,41,2019-07-08,36.9903199,-86.4436018
Buffalo NY USA,22,2019-07-08,42.8867166,-78.8783922
Burlington VT USA,24,2019-07-08,44.4762975,-73.2135472
Butte MT USA,36,2019-07-08,46.0131505,-112.5365089
Cedar Rapids IA USA,31,2019-07-08,41.9758872,-91.6704053
Champaign IL USA,34,2019-07-08,40.1164205,-88.2433829
Charleston SC USA,15,2019-07-08,32.7876012,-79.9402728
Charleston WV USA,23,2019-07-08,38.3505995,-81.6332812
Charlotte NC USA,38,2019-07-08,35.2270869,-80.8431268
Charlottesville VA USA,31,2019-07-08,38.029306,-78.4766781
Chattanooga TN USA,25,2019-07-08,35.0457219,-85.3094883
Cheyenne WY USA,59,2019-07-08,40.640361,-74.367318
Chicago IL USA,19,2019-07-08,41.8755616,-87.6244212
Chico CA USA,18,2019-07-08,39.7284945,-121.8374777
Cincinnati OH USA,34,2019-07-08,39.1014537,-84.5124602
Clarksburg WV USA,43,2019-07-08,39.2806451,-80.3445341
Cleveland OH USA,21,2019-07-08,41.5051613,-81.6934446
Colorado Springs CO USA,29,2019-07-08,38.8339578,-104.8253485
Columbia SC USA,56,2019-07-08,34.0007493,-81.0343313
Columbia MO USA,38,2019-07-08,38.951883,-92.3337366
Columbus GA USA,35,2019-07-08,32.4609764,-84.9877094
Columbus OH USA,20,2019-07-08,39.9622601,-83.0007065
Columbus MS USA,27,2019-07-08,43.336875649999996,-89.0196532340367
Corpus Christi TX USA,21,2019-07-08,27.7477253,-97.4014129
Dallas TX USA,20,2019-07-08,32.7762719,-96.7968559
Davenport IA USA,12,2019-07-08,41.5236436,-90.5776368
Dayton OH USA,18,2019-07-08,39.7589478,-84.1916069
Denver CO USA,19,2019-07-08,39.7348381,-104.9653271
Des Moines IA USA,11,2019-07-08,41.5910641,-93.6037149
Detroit MI USA,30,2019-07-08,42.3315509,-83.0466403
Duluth MN USA,41,2019-07-08,46.7729322,-92.1251218
El Paso TX USA,8,2019-07-08,31.7754152,-106.4646348
Elmira NY USA,39,2019-07-08,42.0897965,-76.8077338
Erie PA USA,23,2019-07-08,42.1294712,-80.0852695
Eugene OR USA,25,2019-07-08,44.0505054,-123.0950506
Evansville IN USA,34,2019-07-08,37.9747645,-87.5558483
Fargo ND USA,26,2019-07-08,46.877229,-96.789821
Flint MI USA,21,2019-07-08,43.0161693,-83.6900211
Florence SC USA,28,2019-07-08,34.1984435,-79.7671658
Fresno CA USA,14,2019-07-08,36.7295295,-119.70886126075588
Ft. Myers FL USA,16,2019-07-08,26.640628,-81.8723084
Ft. Smith AR USA,17,2019-07-08,35.3872218,-94.4248983
Ft. Wayne IN USA,21,2019-07-08,41.0799898,-85.1386015
Gainesville FL USA,48,2019-07-08,29.67357765,-82.32337460192167
Grand Rapids MI USA,26,2019-07-08,42.9142413,-85.533004
Green Bay WI USA,22,2019-07-08,44.5126379,-88.0125794
Greensboro NC USA,32,2019-07-08,36.0726355,-79.7919754
Greenville NC USA,15,2019-07-08,35.612661,-77.3663538
Greenville SC USA,18,2019-07-08,34.851354,-82.3984882
Harlingen TX USA,13,2019-07-08,26.1908241,-97.6959794
Harrisburg PA USA,38,2019-07-08,40.2663107,-76.8861122
Harrisonburg VA USA,37,2019-07-08,38.4493315,-78.8688833
Hartford CT USA,27,2019-07-08,43.648048,-70.241416
Hattiesburg MS USA,38,2019-07-08,31.3271189,-89.2903392
Honolulu HI USA,23,2019-07-08,21.304547,-157.8556764
Houston TX USA,21,2019-07-08,29.7589382,-95.3676974
Huntsville AL USA,17,2019-07-08,33.554113,-86.804219
Idaho Falls ID USA,21,2019-07-08,43.4935245,-112.0400919
Indianapolis IN USA,22,2019-07-08,39.7683331,-86.1583502
Jackson MS USA,31,2019-07-08,28.530801699999998,-81.30324431076107
Jackson TN USA,42,2019-07-08,35.6144446,-88.8177418
Jacksonville FL USA,28,2019-07-08,30.3321838,-81.655651
Johnstown PA USA,18,2019-07-08,40.3267407,-78.9219698
Kansas City MO USA,21,2019-07-08,39.100105,-94.5781416
Knoxville TN USA,15,2019-07-08,35.9603948,-83.9210261
La Crosse WI USA,27,2019-07-08,43.8014053,-91.2395429
Lafayette LA USA,16,2019-07-08,30.2240897,-92.0198427
Lake Charles LA USA,33,2019-07-08,30.2265949,-93.2173759
Lansing MI USA,19,2019-07-08,42.7338147,-84.5207088
Laredo TX USA,100,2019-07-08,27.5199841,-99.4953764
Las Vegas NV USA,14,2019-07-08,36.1672559,-115.1485163
Lexington KY USA,18,2019-07-08,38.0464066,-84.4970393
Lima OH USA,64,2019-07-08,40.7399785,-84.105006
Lincoln NE USA,24,2019-07-08,40.8088861,-96.7077751
Little Rock AR USA,20,2019-07-08,34.7464809,-92.2895948
Los Angeles CA USA,17,2019-07-08,34.0536909,-118.2427666
Louisville KY USA,16,2019-07-08,38.2542376,-85.759407
Lubbock TX USA,20,2019-07-08,33.5635206,-101.879336
Macon GA USA,35,2019-07-08,32.8406946,-83.6324022
Madison WI USA,29,2019-07-08,43.074761,-89.3837613
Mankato MN USA,59,2019-07-08,44.1634663,-93.9993505
Marquette MI USA,44,2019-07-08,46.4481521,-87.6305899
Medford OR USA,27,2019-07-08,42.3264181,-122.8718605
Memphis TN USA,19,2019-07-08,35.1490215,-90.0516285
Miami FL USA,32,2019-07-08,25.7742658,-80.1936589
Milwaukee WI USA,18,2019-07-08,43.0349931,-87.922497
Minneapolis MN USA,21,2019-07-08,44.9772995,-93.2654692
Minot ND USA,21,2019-07-08,48.23251,-101.296273
Mobile AL USA,11,2019-07-08,39.092585,-84.853229
Monroe LA USA,26,2019-07-08,38.2722313,-90.1792484
Monterey CA USA,11,2019-07-08,36.2231079,-121.3877428
Montgomery AL USA,20,2019-07-08,40.85239,-78.266098
Nashville TN USA,15,2019-07-08,36.1622296,-86.7743531
New Orleans LA USA,28,2019-07-08,29.9499323,-90.0701156
New York NY USA,24,2019-07-08,40.7127281,-74.0060152
Norfolk VA USA,38,2019-07-08,36.8889933,-76.2481624
Odessa TX USA,22,2019-07-08,31.8457149,-102.367687
Oklahoma City OK USA,15,2019-07-08,35.4729886,-97.5170536
Omaha NE USA,14,2019-07-08,41.2587459,-95.9383758
Orlando FL USA,29,2019-07-08,28.5479786,-81.41278418563017
Ottumwa IA USA,93,2019-07-08,41.0200145,-92.4112963
Paducah KY USA,23,2019-07-08,37.0833893,-88.6000478
Palm Springs CA USA,30,2019-07-08,33.8246269,-116.540303
Panama City FL USA,36,2019-07-08,30.1600827,-85.6545729
Peoria IL USA,24,2019-07-08,40.6938609,-89.5891008
Philadelphia PA USA,28,2019-07-08,39.9527237,-75.1635262
Phoenix AZ USA,12,2019-07-08,33.4484367,-112.0741417
Pittsburgh PA USA,32,2019-07-08,40.4416941,-79.9900861
Portland OR USA,20,2019-07-08,45.5202471,-122.6741949
Portland ME USA,16,2019-07-08,43.6610277,-70.2548596
Providence RI USA,26,2019-07-08,41.8239891,-71.4128343
Quincy IL USA,43,2019-07-08,42.2528772,-71.0022705
Raleigh NC USA,29,2019-07-08,35.7803977,-78.6390989
Reno NV USA,10,2019-07-08,39.5261206,-119.8126581
Richmond VA USA,35,2019-07-08,37.5385087,-77.43428
Roanoke VA USA,32,2019-07-08,37.270973,-79.9414313
Rochester MN USA,41,2019-07-08,44.0234387,-92.4630182
Rochester NY USA,21,2019-07-08,43.157285,-77.615214
Rockford IL USA,18,2019-07-08,42.2713945,-89.093966
Sacramento CA USA,8,2019-07-08,38.5815719,-121.4943996
Salisbury MD USA,58,2019-07-08,38.3662114,-75.6008881
Salt Lake City UT USA,14,2019-07-08,40.7596198,-111.8867975
San Angelo TX USA,47,2019-07-08,31.4648357,-100.4398442
San Antonio TX USA,21,2019-07-08,29.4246002,-98.4951405
San Diego CA USA,18,2019-07-08,32.7174209,-117.1627714
San Francisco CA USA,22,2019-07-08,37.7790262,-122.4199061
Santa Barbara CA USA,10,2019-07-08,34.4221319,-119.7026673
Savannah GA USA,34,2019-07-08,32.0809263,-81.0911768
Seattle WA USA,16,2019-07-08,47.6038321,-122.3300624
Shreveport LA USA,21,2019-07-08,32.5221828,-93.7651944
Sioux City IA USA,49,2019-07-08,42.4966815,-96.4058782
Sioux Falls SD USA,22,2019-07-08,43.5499749,-96.700327
South Bend IN USA,40,2019-07-08,41.6833813,-86.2500066
Spokane WA USA,12,2019-07-08,47.6579425,-117.4212265
Springfield MO USA,16,2019-07-08,37.2166779,-93.2920373
Springfield MA USA,29,2019-07-08,42.1014831,-72.589811
St. Louis MO USA,22,2019-07-08,38.6268039,-90.1994097
Syracuse NY USA,19,2019-07-08,43.0481221,-76.1474244
Tallahassee FL USA,18,2019-07-08,30.4380832,-84.2809332
Tampa FL USA,22,2019-07-08,27.9518491,-82.4563972
Terre Haute IN USA,31,2019-07-08,39.4667025,-87.4139119
Toledo OH USA,16,2019-07-08,41.6786754,-83.5127283
Traverse City MI USA,21,2019-07-08,44.7606441,-85.6165301
Tri VA USA,12,2019-07-08,38.5467876,-77.3366491
Tucson AZ USA,14,2019-07-08,32.2228765,-110.9748477
Tulsa OK USA,17,2019-07-08,36.1556805,-95.9929113
Twin Falls ID USA,47,2019-07-08,42.5704219,-114.4603171
Tyler TX USA,13,2019-07-08,32.3512601,-95.3010624
Utica NY USA,34,2019-07-08,43.1009031,-75.2326641
Waco TX USA,18,2019-07-08,31.549333,-97.1466695
Washington DC USA,31,2019-07-08,38.8948932,-77.0365529
Watertown NY USA,36,2019-07-08,43.9747838,-75.9107565
Wausau WI USA,19,2019-07-08,44.9596017,-89.6298239
West Palm Beach FL USA,83,2019-07-08,26.7153425,-80.0533746
Wheeling WV USA,48,2019-07-08,40.0639616,-80.7209149
Wichita Falls TX USA,24,2019-07-08,33.9137085,-98.4933873
Wichita KS USA,7,2019-07-08,37.6922361,-97.3375448
Wilkes Barre PA USA,18,2019-07-08,41.2464824,-75.8817316
Wilmington NC USA,40,2019-07-08,34.2257282,-77.9447107
Yakima WA USA,37,2019-07-08,46.601557,-120.5108421
Youngstown OH USA,43,2019-07-08,41.1035786,-80.6520161
Yuma AZ USA,42,2019-07-08,32.6926588,-114.6276157
Alexandria LA USA,75,2019-07-15,38.8147596,-77.09024765272724
Atlanta GA USA,3,2019-07-15,33.7490987,-84.3901849
Augusta GA USA,19,2019-07-15,33.4709714,-81.9748429
Austin TX USA,7,2019-07-15,30.2711286,-97.7436995
Baltimore MD USA,4,2019-07-15,39.284749399999995,-76.62047463969989
Baton Rouge LA USA,15,2019-07-15,30.4459596,-91.18738
Binghamton NY USA,41,2019-07-15,42.096968,-75.914341
Buffalo NY USA,7,2019-07-15,42.8867166,-78.8783922
Charlotte NC USA,4,2019-07-15,35.2270869,-80.8431268
Chicago IL USA,1,2019-07-15,41.8755616,-87.6244212
Cincinnati OH USA,4,2019-07-15,39.1014537,-84.5124602
Colorado Springs CO USA,11,2019-07-15,38.8339578,-104.8253485
Columbia MO USA,29,2019-07-15,38.951883,-92.3337366
Columbus OH USA,4,2019-07-15,39.9622601,-83.0007065
Dallas TX USA,1,2019-07-15,32.7762719,-96.7968559
Des Moines IA USA,10,2019-07-15,41.5910641,-93.6037149
Ft. Myers FL USA,5,2019-07-15,26.640628,-81.8723084
Greensboro NC USA,7,2019-07-15,36.0726355,-79.7919754
Harrisburg PA USA,6,2019-07-15,40.2663107,-76.8861122
Hartford CT USA,4,2019-07-15,43.648048,-70.241416
Honolulu HI USA,8,2019-07-15,21.304547,-157.8556764
Houston TX USA,1,2019-07-15,29.7589382,-95.3676974
Los Angeles CA USA,2,2019-07-15,34.0536909,-118.2427666
Macon GA USA,21,2019-07-15,32.8406946,-83.6324022
Memphis TN USA,7,2019-07-15,35.1490215,-90.0516285
Miami FL USA,2,2019-07-15,25.7742658,-80.1936589
Minneapolis MN USA,4,2019-07-15,44.9772995,-93.2654692
Monterey CA USA,17,2019-07-15,36.2231079,-121.3877428
Montgomery AL USA,24,2019-07-15,40.85239,-78.266098
Nashville TN USA,3,2019-07-15,36.1622296,-86.7743531
New Orleans LA USA,6,2019-07-15,29.9499323,-90.0701156
New York NY USA,1,2019-07-15,40.7127281,-74.0060152
Norfolk VA USA,5,2019-07-15,36.8889933,-76.2481624
Oklahoma City OK USA,6,2019-07-15,35.4729886,-97.5170536
Omaha NE USA,8,2019-07-15,41.2587459,-95.9383758
Orlando FL USA,2,2019-07-15,28.5479786,-81.41278418563017
Parkersburg WV USA,100,2019-07-15,39.2699565,-81.5506916
Peoria IL USA,18,2019-07-15,40.6938609,-89.5891008
Philadelphia PA USA,1,2019-07-15,39.9527237,-75.1635262
Portland OR USA,3,2019-07-15,45.5202471,-122.6741949
Providence RI USA,6,2019-07-15,41.8239891,-71.4128343
Raleigh NC USA,3,2019-07-15,35.7803977,-78.6390989
Richmond VA USA,7,2019-07-15,37.5385087,-77.43428
Rochester NY USA,11,2019-07-15,43.157285,-77.615214
San Antonio TX USA,4,2019-07-15,29.4246002,-98.4951405
San Diego CA USA,3,2019-07-15,32.7174209,-117.1627714
San Francisco CA USA,1,2019-07-15,37.7790262,-122.4199061
Seattle WA USA,2,2019-07-15,47.6038321,-122.3300624
South Bend IN USA,15,2019-07-15,41.6833813,-86.2500066
Springfield MO USA,12,2019-07-15,37.2166779,-93.2920373
Tallahassee FL USA,17,2019-07-15,30.4380832,-84.2809332
Tampa FL USA,2,2019-07-15,27.9518491,-82.4563972
Toledo OH USA,12,2019-07-15,41.6786754,-83.5127283
Twin Falls ID USA,74,2019-07-15,42.5704219,-114.4603171
Washington DC USA,2,2019-07-15,38.8948932,-77.0365529
West Palm Beach FL USA,8,2019-07-15,26.7153425,-80.0533746
Albany NY USA,12,2019-07-22,42.6511674,-73.754968
Albuquerque NM USA,10,2019-07-22,35.0841034,-106.6509851
Atlanta GA USA,3,2019-07-22,33.7490987,-84.3901849
Austin TX USA,6,2019-07-22,30.2711286,-97.7436995
Baltimore MD USA,6,2019-07-22,39.284749399999995,-76.62047463969989
Boston MA USA,4,2019-07-22,42.3602534,-71.0582912
Buffalo NY USA,11,2019-07-22,42.8867166,-78.8783922
Champaign IL USA,50,2019-07-22,40.1164205,-88.2433829
Charlottesville VA USA,83,2019-07-22,38.029306,-78.4766781
Chicago IL USA,3,2019-07-22,41.8755616,-87.6244212
Cleveland OH USA,4,2019-07-22,41.5051613,-81.6934446
Columbia SC USA,19,2019-07-22,34.0007493,-81.0343313
Dallas TX USA,3,2019-07-22,32.7762719,-96.7968559
Dayton OH USA,19,2019-07-22,39.7589478,-84.1916069
Denver CO USA,6,2019-07-22,39.7348381,-104.9653271
Elmira NY USA,100,2019-07-22,42.0897965,-76.8077338
Eugene OR USA,32,2019-07-22,44.0505054,-123.0950506
Fresno CA USA,12,2019-07-22,36.7295295,-119.70886126075588
Greensboro NC USA,12,2019-07-22,36.0726355,-79.7919754
Greenville SC USA,9,2019-07-22,34.851354,-82.3984882
Harrisburg PA USA,11,2019-07-22,40.2663107,-76.8861122
Hartford CT USA,12,2019-07-22,43.648048,-70.241416
Houston TX USA,3,2019-07-22,29.7589382,-95.3676974
Huntsville AL USA,22,2019-07-22,33.554113,-86.804219
Kansas City MO USA,7,2019-07-22,39.100105,-94.5781416
Las Vegas NV USA,7,2019-07-22,36.1672559,-115.1485163
Los Angeles CA USA,1,2019-07-22,34.0536909,-118.2427666
Louisville KY USA,21,2019-07-22,38.2542376,-85.759407
Macon GA USA,37,2019-07-22,32.8406946,-83.6324022
Medford OR USA,45,2019-07-22,42.3264181,-122.8718605
Miami FL USA,3,2019-07-22,25.7742658,-80.1936589
Mobile AL USA,13,2019-07-22,39.092585,-84.853229
Nashville TN USA,5,2019-07-22,36.1622296,-86.7743531
New Orleans LA USA,11,2019-07-22,29.9499323,-90.0701156
New York NY USA,3,2019-07-22,40.7127281,-74.0060152
Orlando FL USA,3,2019-07-22,28.5479786,-81.41278418563017
Philadelphia PA USA,4,2019-07-22,39.9527237,-75.1635262
Pittsburgh PA USA,7,2019-07-22,40.4416941,-79.9900861
Portland OR USA,5,2019-07-22,45.5202471,-122.6741949
Raleigh NC USA,4,2019-07-22,35.7803977,-78.6390989
Roanoke VA USA,18,2019-07-22,37.270973,-79.9414313
San Diego CA USA,4,2019-07-22,32.7174209,-117.1627714
San Francisco CA USA,2,2019-07-22,37.7790262,-122.4199061
Seattle WA USA,3,2019-07-22,47.6038321,-122.3300624
Tallahassee FL USA,30,2019-07-22,30.4380832,-84.2809332
Tri VA USA,32,2019-07-22,38.5467876,-77.3366491
Washington DC USA,16,2019-07-22,38.8948932,-77.0365529
West Palm Beach FL USA,16,2019-07-22,26.7153425,-80.0533746
Wichita KS USA,20,2019-07-22,37.6922361,-97.3375448
Albany NY USA,12,2019-07-29,42.6511674,-73.754968
Atlanta GA USA,9,2019-07-29,33.7490987,-84.3901849
Augusta GA USA,33,2019-07-29,33.4709714,-81.9748429
Austin TX USA,13,2019-07-29,30.2711286,-97.7436995
Bakersfield CA USA,33,2019-07-29,35.3738712,-119.0194639
Baltimore MD USA,23,2019-07-29,39.284749399999995,-76.62047463969989
Biloxi MS USA,63,2019-07-29,30.374673,-88.84594333482862
Boston MA USA,5,2019-07-29,42.3602534,-71.0582912
Burlington VT USA,25,2019-07-29,44.4762975,-73.2135472
Butte MT USA,100,2019-07-29,46.0131505,-112.5365089
Charlotte NC USA,11,2019-07-29,35.2270869,-80.8431268
Charlottesville VA USA,88,2019-07-29,38.029306,-78.4766781
Chicago IL USA,4,2019-07-29,41.8755616,-87.6244212
Cincinnati OH USA,8,2019-07-29,39.1014537,-84.5124602
Cleveland OH USA,5,2019-07-29,41.5051613,-81.6934446
Colorado Springs CO USA,20,2019-07-29,38.8339578,-104.8253485
Columbus GA USA,42,2019-07-29,32.4609764,-84.9877094
Columbus OH USA,8,2019-07-29,39.9622601,-83.0007065
Corpus Christi TX USA,40,2019-07-29,27.7477253,-97.4014129
Dallas TX USA,5,2019-07-29,32.7762719,-96.7968559
Davenport IA USA,34,2019-07-29,41.5236436,-90.5776368
Denver CO USA,4,2019-07-29,39.7348381,-104.9653271
Detroit MI USA,11,2019-07-29,42.3315509,-83.0466403
Evansville IN USA,37,2019-07-29,37.9747645,-87.5558483
Florence SC USA,26,2019-07-29,34.1984435,-79.7671658
Fresno CA USA,13,2019-07-29,36.7295295,-119.70886126075588
Ft. Myers FL USA,17,2019-07-29,26.640628,-81.8723084
Ft. Smith AR USA,28,2019-07-29,35.3872218,-94.4248983
Gainesville FL USA,56,2019-07-29,29.67357765,-82.32337460192167
Grand Rapids MI USA,20,2019-07-29,42.9142413,-85.533004
Greensboro NC USA,19,2019-07-29,36.0726355,-79.7919754
Greenville NC USA,26,2019-07-29,35.612661,-77.3663538
Harlingen TX USA,18,2019-07-29,26.1908241,-97.6959794
Hartford CT USA,7,2019-07-29,43.648048,-70.241416
Houston TX USA,5,2019-07-29,29.7589382,-95.3676974
Indianapolis IN USA,10,2019-07-29,39.7683331,-86.1583502
Jacksonville FL USA,21,2019-07-29,30.3321838,-81.655651
Kansas City MO USA,8,2019-07-29,39.100105,-94.5781416
Las Vegas NV USA,16,2019-07-29,36.1672559,-115.1485163
Lexington KY USA,19,2019-07-29,38.0464066,-84.4970393
Lincoln NE USA,33,2019-07-29,40.8088861,-96.7077751
Los Angeles CA USA,4,2019-07-29,34.0536909,-118.2427666
Madison WI USA,19,2019-07-29,43.074761,-89.3837613
Medford OR USA,49,2019-07-29,42.3264181,-122.8718605
Memphis TN USA,13,2019-07-29,35.1490215,-90.0516285
Miami FL USA,16,2019-07-29,25.7742658,-80.1936589
Minot ND USA,59,2019-07-29,48.23251,-101.296273
Monterey CA USA,30,2019-07-29,36.2231079,-121.3877428
Nashville TN USA,5,2019-07-29,36.1622296,-86.7743531
New York NY USA,4,2019-07-29,40.7127281,-74.0060152
Norfolk VA USA,13,2019-07-29,36.8889933,-76.2481624
Oklahoma City OK USA,17,2019-07-29,35.4729886,-97.5170536
Orlando FL USA,3,2019-07-29,28.5479786,-81.41278418563017
Philadelphia PA USA,4,2019-07-29,39.9527237,-75.1635262
Phoenix AZ USA,5,2019-07-29,33.4484367,-112.0741417
Pittsburgh PA USA,7,2019-07-29,40.4416941,-79.9900861
Portland OR USA,5,2019-07-29,45.5202471,-122.6741949
Portland ME USA,18,2019-07-29,43.6610277,-70.2548596
Providence RI USA,12,2019-07-29,41.8239891,-71.4128343
Raleigh NC USA,12,2019-07-29,35.7803977,-78.6390989
Richmond VA USA,20,2019-07-29,37.5385087,-77.43428
Roanoke VA USA,19,2019-07-29,37.270973,-79.9414313
Sacramento CA USA,5,2019-07-29,38.5815719,-121.4943996
Salisbury MD USA,57,2019-07-29,38.3662114,-75.6008881
San Antonio TX USA,11,2019-07-29,29.4246002,-98.4951405
San Diego CA USA,5,2019-07-29,32.7174209,-117.1627714
San Francisco CA USA,5,2019-07-29,37.7790262,-122.4199061
Santa Barbara CA USA,57,2019-07-29,34.4221319,-119.7026673
Savannah GA USA,22,2019-07-29,32.0809263,-81.0911768
Seattle WA USA,3,2019-07-29,47.6038321,-122.3300624
Sioux City IA USA,69,2019-07-29,42.4966815,-96.4058782
St. Louis MO USA,6,2019-07-29,38.6268039,-90.1994097
Syracuse NY USA,23,2019-07-29,43.0481221,-76.1474244
Tallahassee FL USA,32,2019-07-29,30.4380832,-84.2809332
Tampa FL USA,4,2019-07-29,27.9518491,-82.4563972
Toledo OH USA,22,2019-07-29,41.6786754,-83.5127283
Traverse City MI USA,36,2019-07-29,44.7606441,-85.6165301
Tyler TX USA,38,2019-07-29,32.3512601,-95.3010624
Washington DC USA,29,2019-07-29,38.8948932,-77.0365529
West Palm Beach FL USA,20,2019-07-29,26.7153425,-80.0533746
Wilmington NC USA,38,2019-07-29,34.2257282,-77.9447107
Yakima WA USA,35,2019-07-29,46.601557,-120.5108421
Atlanta GA USA,9,2019-08-05,33.7490987,-84.3901849
Birmingham AL USA,28,2019-08-05,33.570499,-86.765783
Boston MA USA,6,2019-08-05,42.3602534,-71.0582912
Charlotte NC USA,15,2019-08-05,35.2270869,-80.8431268
Chicago IL USA,4,2019-08-05,41.8755616,-87.6244212
Cincinnati OH USA,30,2019-08-05,39.1014537,-84.5124602
Columbus OH USA,42,2019-08-05,39.9622601,-83.0007065
Dallas TX USA,7,2019-08-05,32.7762719,-96.7968559
Detroit MI USA,10,2019-08-05,42.3315509,-83.0466403
Eugene OR USA,88,2019-08-05,44.0505054,-123.0950506
Ft. Myers FL USA,88,2019-08-05,26.640628,-81.8723084
Greensboro NC USA,33,2019-08-05,36.0726355,-79.7919754
Hartford CT USA,17,2019-08-05,43.648048,-70.241416
Houston TX USA,6,2019-08-05,29.7589382,-95.3676974
Jackson MS USA,69,2019-08-05,28.530801699999998,-81.30324431076107
Las Vegas NV USA,20,2019-08-05,36.1672559,-115.1485163
Los Angeles CA USA,5,2019-08-05,34.0536909,-118.2427666
Macon GA USA,100,2019-08-05,32.8406946,-83.6324022
Milwaukee WI USA,20,2019-08-05,43.0349931,-87.922497
New Orleans LA USA,29,2019-08-05,29.9499323,-90.0701156
New York NY USA,5,2019-08-05,40.7127281,-74.0060152
Orlando FL USA,17,2019-08-05,28.5479786,-81.41278418563017
Philadelphia PA USA,5,2019-08-05,39.9527237,-75.1635262
Phoenix AZ USA,9,2019-08-05,33.4484367,-112.0741417
Pittsburgh PA USA,18,2019-08-05,40.4416941,-79.9900861
Raleigh NC USA,12,2019-08-05,35.7803977,-78.6390989
Reno NV USA,70,2019-08-05,39.5261206,-119.8126581
San Francisco CA USA,7,2019-08-05,37.7790262,-122.4199061
Springfield MA USA,79,2019-08-05,42.1014831,-72.589811
Tampa FL USA,20,2019-08-05,27.9518491,-82.4563972
Washington DC USA,16,2019-08-05,38.8948932,-77.0365529
West Palm Beach FL USA,26,2019-08-05,26.7153425,-80.0533746
Yakima WA USA,89,2019-08-05,46.601557,-120.5108421
Albany NY USA,12,2019-08-12,42.6511674,-73.754968
Atlanta GA USA,5,2019-08-12,33.7490987,-84.3901849
Bluefield WV USA,96,2019-08-12,37.2698395,-81.2223195
Boston MA USA,2,2019-08-12,42.3602534,-71.0582912
Charleston WV USA,26,2019-08-12,38.3505995,-81.6332812
Chicago IL USA,2,2019-08-12,41.8755616,-87.6244212
Cincinnati OH USA,11,2019-08-12,39.1014537,-84.5124602
Cleveland OH USA,4,2019-08-12,41.5051613,-81.6934446
Dallas TX USA,5,2019-08-12,32.7762719,-96.7968559
Dayton OH USA,19,2019-08-12,39.7589478,-84.1916069
Denver CO USA,3,2019-08-12,39.7348381,-104.9653271
Detroit MI USA,4,2019-08-12,42.3315509,-83.0466403
Grand Rapids MI USA,10,2019-08-12,42.9142413,-85.533004
Greensboro NC USA,12,2019-08-12,36.0726355,-79.7919754
Harrisburg PA USA,11,2019-08-12,40.2663107,-76.8861122
Hartford CT USA,6,2019-08-12,43.648048,-70.241416
Hattiesburg MS USA,100,2019-08-12,31.3271189,-89.2903392
Houston TX USA,2,2019-08-12,29.7589382,-95.3676974
Indianapolis IN USA,10,2019-08-12,39.7683331,-86.1583502
Las Vegas NV USA,7,2019-08-12,36.1672559,-115.1485163
Los Angeles CA USA,2,2019-08-12,34.0536909,-118.2427666
Memphis TN USA,13,2019-08-12,35.1490215,-90.0516285
Miami FL USA,3,2019-08-12,25.7742658,-80.1936589
Milwaukee WI USA,7,2019-08-12,43.0349931,-87.922497
Mobile AL USA,14,2019-08-12,39.092585,-84.853229
Monterey CA USA,28,2019-08-12,36.2231079,-121.3877428
Nashville TN USA,5,2019-08-12,36.1622296,-86.7743531
New York NY USA,2,2019-08-12,40.7127281,-74.0060152
Norfolk VA USA,8,2019-08-12,36.8889933,-76.2481624
Oklahoma City OK USA,11,2019-08-12,35.4729886,-97.5170536
Orlando FL USA,3,2019-08-12,28.5479786,-81.41278418563017
Philadelphia PA USA,4,2019-08-12,39.9527237,-75.1635262
Portland OR USA,5,2019-08-12,45.5202471,-122.6741949
Raleigh NC USA,9,2019-08-12,35.7803977,-78.6390989
Richmond VA USA,13,2019-08-12,37.5385087,-77.43428
Rochester NY USA,19,2019-08-12,43.157285,-77.615214
Salisbury MD USA,37,2019-08-12,38.3662114,-75.6008881
San Antonio TX USA,7,2019-08-12,29.4246002,-98.4951405
San Diego CA USA,5,2019-08-12,32.7174209,-117.1627714
San Francisco CA USA,2,2019-08-12,37.7790262,-122.4199061
St. Louis MO USA,12,2019-08-12,38.6268039,-90.1994097
Tallahassee FL USA,31,2019-08-12,30.4380832,-84.2809332
Tampa FL USA,4,2019-08-12,27.9518491,-82.4563972
Tucson AZ USA,18,2019-08-12,32.2228765,-110.9748477
Washington DC USA,7,2019-08-12,38.8948932,-77.0365529
West Palm Beach FL USA,10,2019-08-12,26.7153425,-80.0533746
Youngstown OH USA,37,2019-08-12,41.1035786,-80.6520161
Atlanta GA USA,3,2019-08-19,33.7490987,-84.3901849
Augusta GA USA,11,2019-08-19,33.4709714,-81.9748429
Austin TX USA,3,2019-08-19,30.2711286,-97.7436995
Baltimore MD USA,6,2019-08-19,39.284749399999995,-76.62047463969989
Baton Rouge LA USA,9,2019-08-19,30.4459596,-91.18738
"Billings, MT USA",30,2019-08-19,45.7874957,-108.49607
Birmingham AL USA,3,2019-08-19,33.570499,-86.765783
Boston MA USA,2,2019-08-19,42.3602534,-71.0582912
Buffalo NY USA,4,2019-08-19,42.8867166,-78.8783922
Burlington VT USA,9,2019-08-19,44.4762975,-73.2135472
Champaign IL USA,8,2019-08-19,40.1164205,-88.2433829
Charleston SC USA,7,2019-08-19,32.7876012,-79.9402728
Charlotte NC USA,2,2019-08-19,35.2270869,-80.8431268
Chicago IL USA,2,2019-08-19,41.8755616,-87.6244212
Cincinnati OH USA,3,2019-08-19,39.1014537,-84.5124602
Cleveland OH USA,2,2019-08-19,41.5051613,-81.6934446
Colorado Springs CO USA,7,2019-08-19,38.8339578,-104.8253485
Corpus Christi TX USA,14,2019-08-19,27.7477253,-97.4014129
Dallas TX USA,1,2019-08-19,32.7762719,-96.7968559
Denver CO USA,3,2019-08-19,39.7348381,-104.9653271
Detroit MI USA,2,2019-08-19,42.3315509,-83.0466403
Duluth MN USA,20,2019-08-19,46.7729322,-92.1251218
Florence SC USA,9,2019-08-19,34.1984435,-79.7671658
Fresno CA USA,4,2019-08-19,36.7295295,-119.70886126075588
Gainesville FL USA,24,2019-08-19,29.67357765,-82.32337460192167
Greensboro NC USA,21,2019-08-19,36.0726355,-79.7919754
Greenville NC USA,9,2019-08-19,35.612661,-77.3663538
Greenville SC USA,3,2019-08-19,34.851354,-82.3984882
Harrisburg PA USA,8,2019-08-19,40.2663107,-76.8861122
Hartford CT USA,3,2019-08-19,43.648048,-70.241416
Hattiesburg MS USA,35,2019-08-19,31.3271189,-89.2903392
Helena MT USA,100,2019-08-19,46.5927425,-112.0362771
Honolulu HI USA,10,2019-08-19,21.304547,-157.8556764
Houston TX USA,1,2019-08-19,29.7589382,-95.3676974
Indianapolis IN USA,3,2019-08-19,39.7683331,-86.1583502
Jackson MS USA,9,2019-08-19,28.530801699999998,-81.30324431076107
Jacksonville FL USA,4,2019-08-19,30.3321838,-81.655651
Johnstown PA USA,10,2019-08-19,40.3267407,-78.9219698
Jonesboro AR USA,42,2019-08-19,35.8428646,-90.7034522
Kansas City MO USA,2,2019-08-19,39.100105,-94.5781416
Knoxville TN USA,5,2019-08-19,35.9603948,-83.9210261
La Crosse WI USA,15,2019-08-19,43.8014053,-91.2395429
Lansing MI USA,12,2019-08-19,42.7338147,-84.5207088
Las Vegas NV USA,3,2019-08-19,36.1672559,-115.1485163
Lexington KY USA,6,2019-08-19,38.0464066,-84.4970393
Little Rock AR USA,11,2019-08-19,34.7464809,-92.2895948
Los Angeles CA USA,1,2019-08-19,34.0536909,-118.2427666
Louisville KY USA,4,2019-08-19,38.2542376,-85.759407
Memphis TN USA,5,2019-08-19,35.1490215,-90.0516285
Miami FL USA,2,2019-08-19,25.7742658,-80.1936589
Milwaukee WI USA,3,2019-08-19,43.0349931,-87.922497
Minneapolis MN USA,1,2019-08-19,44.9772995,-93.2654692
Mobile AL USA,5,2019-08-19,39.092585,-84.853229
Monroe LA USA,51,2019-08-19,38.2722313,-90.1792484
Monterey CA USA,10,2019-08-19,36.2231079,-121.3877428
Nashville TN USA,2,2019-08-19,36.1622296,-86.7743531
New Orleans LA USA,4,2019-08-19,29.9499323,-90.0701156
New York NY USA,3,2019-08-19,40.7127281,-74.0060152
Norfolk VA USA,3,2019-08-19,36.8889933,-76.2481624
Odessa TX USA,16,2019-08-19,31.8457149,-102.367687
Orlando FL USA,3,2019-08-19,28.5479786,-81.41278418563017
Panama City FL USA,21,2019-08-19,30.1600827,-85.6545729
Philadelphia PA USA,2,2019-08-19,39.9527237,-75.1635262
Phoenix AZ USA,1,2019-08-19,33.4484367,-112.0741417
Pittsburgh PA USA,2,2019-08-19,40.4416941,-79.9900861
Portland OR USA,5,2019-08-19,45.5202471,-122.6741949
Raleigh NC USA,3,2019-08-19,35.7803977,-78.6390989
Richmond VA USA,7,2019-08-19,37.5385087,-77.43428
Sacramento CA USA,5,2019-08-19,38.5815719,-121.4943996
Salt Lake City UT USA,3,2019-08-19,40.7596198,-111.8867975
San Diego CA USA,2,2019-08-19,32.7174209,-117.1627714
San Francisco CA USA,1,2019-08-19,37.7790262,-122.4199061
Savannah GA USA,7,2019-08-19,32.0809263,-81.0911768
Seattle WA USA,1,2019-08-19,47.6038321,-122.3300624
Springfield MA USA,11,2019-08-19,42.1014831,-72.589811
St. Louis MO USA,4,2019-08-19,38.6268039,-90.1994097
Syracuse NY USA,7,2019-08-19,43.0481221,-76.1474244
Tallahassee FL USA,15,2019-08-19,30.4380832,-84.2809332
Tampa FL USA,2,2019-08-19,27.9518491,-82.4563972
Toledo OH USA,7,2019-08-19,41.6786754,-83.5127283
Traverse City MI USA,13,2019-08-19,44.7606441,-85.6165301
Washington DC USA,3,2019-08-19,38.8948932,-77.0365529
West Palm Beach FL USA,7,2019-08-19,26.7153425,-80.0533746
Abilene TX USA,29,2019-08-26,32.44645,-99.7475905
Albany GA USA,26,2019-08-26,40.0555158,-82.8457691
Albany NY USA,39,2019-08-26,42.6511674,-73.754968
Albuquerque NM USA,22,2019-08-26,35.0841034,-106.6509851
Alexandria LA USA,31,2019-08-26,38.8147596,-77.09024765272724
Amarillo TX USA,11,2019-08-26,35.2072185,-101.8338246
Anchorage AK USA,20,2019-08-26,61.2163129,-149.8948523
Atlanta GA USA,68,2019-08-26,33.7490987,-84.3901849
Augusta GA USA,51,2019-08-26,33.4709714,-81.9748429
Austin TX USA,38,2019-08-26,30.2711286,-97.7436995
Bakersfield CA USA,7,2019-08-26,35.3738712,-119.0194639
Baltimore MD USA,66,2019-08-26,39.284749399999995,-76.62047463969989
Bangor ME USA,29,2019-08-26,44.8011821,-68.7778138
Baton Rouge LA USA,36,2019-08-26,30.4459596,-91.18738
Beaumont TX USA,36,2019-08-26,30.0860459,-94.1018461
Bend OR USA,82,2019-08-26,44.0581728,-121.3153096
"Billings, MT USA",31,2019-08-26,45.7874957,-108.49607
Biloxi MS USA,48,2019-08-26,30.374673,-88.84594333482862
Binghamton NY USA,37,2019-08-26,42.096968,-75.914341
Birmingham AL USA,33,2019-08-26,33.570499,-86.765783
Bluefield WV USA,22,2019-08-26,37.2698395,-81.2223195
Boise ID USA,24,2019-08-26,43.6166163,-116.200886
Boston MA USA,48,2019-08-26,42.3602534,-71.0582912
Bowling Green KY USA,24,2019-08-26,36.9903199,-86.4436018
Buffalo NY USA,34,2019-08-26,42.8867166,-78.8783922
Burlington VT USA,48,2019-08-26,44.4762975,-73.2135472
Butte MT USA,22,2019-08-26,46.0131505,-112.5365089
Casper WY USA,42,2019-08-26,39.4632037,-75.7079641
Cedar Rapids IA USA,12,2019-08-26,41.9758872,-91.6704053
Champaign IL USA,21,2019-08-26,40.1164205,-88.2433829
Charleston SC USA,39,2019-08-26,32.7876012,-79.9402728
Charleston WV USA,16,2019-08-26,38.3505995,-81.6332812
Charlotte NC USA,50,2019-08-26,35.2270869,-80.8431268
Charlottesville VA USA,54,2019-08-26,38.029306,-78.4766781
Chattanooga TN USA,24,2019-08-26,35.0457219,-85.3094883
Cheyenne WY USA,55,2019-08-26,40.640361,-74.367318
Chicago IL USA,29,2019-08-26,41.8755616,-87.6244212
Chico CA USA,21,2019-08-26,39.7284945,-121.8374777
Cincinnati OH USA,37,2019-08-26,39.1014537,-84.5124602
Clarksburg WV USA,26,2019-08-26,39.2806451,-80.3445341
Cleveland OH USA,30,2019-08-26,41.5051613,-81.6934446
Colorado Springs CO USA,23,2019-08-26,38.8339578,-104.8253485
Columbia SC USA,37,2019-08-26,34.0007493,-81.0343313
Columbia MO USA,21,2019-08-26,38.951883,-92.3337366
Columbus GA USA,34,2019-08-26,32.4609764,-84.9877094
Columbus OH USA,34,2019-08-26,39.9622601,-83.0007065
Columbus MS USA,32,2019-08-26,43.336875649999996,-89.0196532340367
Corpus Christi TX USA,28,2019-08-26,27.7477253,-97.4014129
Dallas TX USA,29,2019-08-26,32.7762719,-96.7968559
Davenport IA USA,24,2019-08-26,41.5236436,-90.5776368
Dayton OH USA,24,2019-08-26,39.7589478,-84.1916069
Denver CO USA,29,2019-08-26,39.7348381,-104.9653271
Des Moines IA USA,12,2019-08-26,41.5910641,-93.6037149
Detroit MI USA,37,2019-08-26,42.3315509,-83.0466403
Dothan AL USA,38,2019-08-26,31.2237434,-85.3933906
Duluth MN USA,32,2019-08-26,46.7729322,-92.1251218
El Paso TX USA,19,2019-08-26,31.7754152,-106.4646348
Elmira NY USA,25,2019-08-26,42.0897965,-76.8077338
Erie PA USA,27,2019-08-26,42.1294712,-80.0852695
Eugene OR USA,35,2019-08-26,44.0505054,-123.0950506
Evansville IN USA,16,2019-08-26,37.9747645,-87.5558483
Fairbanks AK USA,42,2019-08-26,64.837845,-147.716675
Fargo ND USA,33,2019-08-26,46.877229,-96.789821
Flint MI USA,38,2019-08-26,43.0161693,-83.6900211
Florence SC USA,23,2019-08-26,34.1984435,-79.7671658
Fresno CA USA,17,2019-08-26,36.7295295,-119.70886126075588
Ft. Myers FL USA,52,2019-08-26,26.640628,-81.8723084
Ft. Smith AR USA,23,2019-08-26,35.3872218,-94.4248983
Ft. Wayne IN USA,22,2019-08-26,41.0799898,-85.1386015
Gainesville FL USA,30,2019-08-26,29.67357765,-82.32337460192167
Grand Rapids MI USA,33,2019-08-26,42.9142413,-85.533004
Great Falls MT USA,41,2019-08-26,47.5048851,-111.2918908
Green Bay WI USA,22,2019-08-26,44.5126379,-88.0125794
Greensboro NC USA,48,2019-08-26,36.0726355,-79.7919754
Greenville NC USA,32,2019-08-26,35.612661,-77.3663538
Greenville SC USA,35,2019-08-26,34.851354,-82.3984882
Greenwood MS USA,100,2019-08-26,39.59493885,-86.12237861696312
Harlingen TX USA,11,2019-08-26,26.1908241,-97.6959794
Harrisburg PA USA,24,2019-08-26,40.2663107,-76.8861122
Harrisonburg VA USA,37,2019-08-26,38.4493315,-78.8688833
Hartford CT USA,57,2019-08-26,43.648048,-70.241416
Hattiesburg MS USA,40,2019-08-26,31.3271189,-89.2903392
Helena MT USA,69,2019-08-26,46.5927425,-112.0362771
Honolulu HI USA,35,2019-08-26,21.304547,-157.8556764
Houston TX USA,39,2019-08-26,29.7589382,-95.3676974
Huntsville AL USA,23,2019-08-26,33.554113,-86.804219
Idaho Falls ID USA,36,2019-08-26,43.4935245,-112.0400919
Indianapolis IN USA,31,2019-08-26,39.7683331,-86.1583502
Jackson MS USA,46,2019-08-26,28.530801699999998,-81.30324431076107
Jackson TN USA,26,2019-08-26,35.6144446,-88.8177418
Jacksonville FL USA,29,2019-08-26,30.3321838,-81.655651
Johnstown PA USA,25,2019-08-26,40.3267407,-78.9219698
Jonesboro AR USA,28,2019-08-26,35.8428646,-90.7034522
Kansas City MO USA,24,2019-08-26,39.100105,-94.5781416
Knoxville TN USA,29,2019-08-26,35.9603948,-83.9210261
La Crosse WI USA,20,2019-08-26,43.8014053,-91.2395429
Lafayette IN USA,25,2019-08-26,40.4167022,-86.8752869
Lafayette LA USA,30,2019-08-26,30.2240897,-92.0198427
Lake Charles LA USA,44,2019-08-26,30.2265949,-93.2173759
Lansing MI USA,26,2019-08-26,42.7338147,-84.5207088
Las Vegas NV USA,39,2019-08-26,36.1672559,-115.1485163
Lexington KY USA,29,2019-08-26,38.0464066,-84.4970393
Lima OH USA,38,2019-08-26,40.7399785,-84.105006
Lincoln NE USA,13,2019-08-26,40.8088861,-96.7077751
Little Rock AR USA,32,2019-08-26,34.7464809,-92.2895948
Los Angeles CA USA,28,2019-08-26,34.0536909,-118.2427666
Louisville KY USA,40,2019-08-26,38.2542376,-85.759407
Lubbock TX USA,18,2019-08-26,33.5635206,-101.879336
Macon GA USA,65,2019-08-26,32.8406946,-83.6324022
Madison WI USA,29,2019-08-26,43.074761,-89.3837613
Mankato MN USA,53,2019-08-26,44.1634663,-93.9993505
Marquette MI USA,26,2019-08-26,46.4481521,-87.6305899
Medford OR USA,19,2019-08-26,42.3264181,-122.8718605
Memphis TN USA,40,2019-08-26,35.1490215,-90.0516285
Miami FL USA,44,2019-08-26,25.7742658,-80.1936589
Milwaukee WI USA,26,2019-08-26,43.0349931,-87.922497
Minneapolis MN USA,23,2019-08-26,44.9772995,-93.2654692
Minot ND USA,13,2019-08-26,48.23251,-101.296273
Missoula MT USA,33,2019-08-26,46.8701049,-113.9952672
Mobile AL USA,29,2019-08-26,39.092585,-84.853229
Monroe LA USA,40,2019-08-26,38.2722313,-90.1792484
Monterey CA USA,9,2019-08-26,36.2231079,-121.3877428
Montgomery AL USA,47,2019-08-26,40.85239,-78.266098
Nashville TN USA,30,2019-08-26,36.1622296,-86.7743531
New Orleans LA USA,44,2019-08-26,29.9499323,-90.0701156
New York NY USA,76,2019-08-26,40.7127281,-74.0060152
Norfolk VA USA,56,2019-08-26,36.8889933,-76.2481624
Odessa TX USA,16,2019-08-26,31.8457149,-102.367687
Oklahoma City OK USA,19,2019-08-26,35.4729886,-97.5170536
Omaha NE USA,39,2019-08-26,41.2587459,-95.9383758
Orlando FL USA,34,2019-08-26,28.5479786,-81.41278418563017
Ottumwa IA USA,52,2019-08-26,41.0200145,-92.4112963
Paducah KY USA,14,2019-08-26,37.0833893,-88.6000478
Palm Springs CA USA,59,2019-08-26,33.8246269,-116.540303
Panama City FL USA,51,2019-08-26,30.1600827,-85.6545729
Parkersburg WV USA,43,2019-08-26,39.2699565,-81.5506916
Peoria IL USA,28,2019-08-26,40.6938609,-89.5891008
Philadelphia PA USA,49,2019-08-26,39.9527237,-75.1635262
Phoenix AZ USA,23,2019-08-26,33.4484367,-112.0741417
Pittsburgh PA USA,29,2019-08-26,40.4416941,-79.9900861
Portland OR USA,25,2019-08-26,45.5202471,-122.6741949
Portland ME USA,44,2019-08-26,43.6610277,-70.2548596
Providence RI USA,39,2019-08-26,41.8239891,-71.4128343
Raleigh NC USA,49,2019-08-26,35.7803977,-78.6390989
Rapid City SD USA,41,2019-08-26,44.081176,-103.228006
Reno NV USA,31,2019-08-26,39.5261206,-119.8126581
Richmond VA USA,65,2019-08-26,37.5385087,-77.43428
Roanoke VA USA,24,2019-08-26,37.270973,-79.9414313
Rochester MN USA,31,2019-08-26,44.0234387,-92.4630182
Rochester NY USA,43,2019-08-26,43.157285,-77.615214
Rockford IL USA,30,2019-08-26,42.2713945,-89.093966
Sacramento CA USA,21,2019-08-26,38.5815719,-121.4943996
Salisbury MD USA,47,2019-08-26,38.3662114,-75.6008881
Salt Lake City UT USA,26,2019-08-26,40.7596198,-111.8867975
San Angelo TX USA,29,2019-08-26,31.4648357,-100.4398442
San Antonio TX USA,32,2019-08-26,29.4246002,-98.4951405
San Diego CA USA,27,2019-08-26,32.7174209,-117.1627714
San Francisco CA USA,33,2019-08-26,37.7790262,-122.4199061
Santa Barbara CA USA,39,2019-08-26,34.4221319,-119.7026673
Savannah GA USA,53,2019-08-26,32.0809263,-81.0911768
Seattle WA USA,25,2019-08-26,47.6038321,-122.3300624
Sherman TX USA,43,2019-08-26,36.2452294,-101.8858689
Shreveport LA USA,30,2019-08-26,32.5221828,-93.7651944
Sioux City IA USA,23,2019-08-26,42.4966815,-96.4058782
Sioux Falls SD USA,13,2019-08-26,43.5499749,-96.700327
South Bend IN USA,21,2019-08-26,41.6833813,-86.2500066
Spokane WA USA,21,2019-08-26,47.6579425,-117.4212265
Springfield MO USA,20,2019-08-26,37.2166779,-93.2920373
Springfield MA USA,34,2019-08-26,42.1014831,-72.589811
St. Louis MO USA,26,2019-08-26,38.6268039,-90.1994097
Syracuse NY USA,45,2019-08-26,43.0481221,-76.1474244
Tallahassee FL USA,51,2019-08-26,30.4380832,-84.2809332
Tampa FL USA,41,2019-08-26,27.9518491,-82.4563972
Terre Haute IN USA,18,2019-08-26,39.4667025,-87.4139119
Toledo OH USA,37,2019-08-26,41.6786754,-83.5127283
Topeka KS USA,33,2019-08-26,39.049011,-95.677556
Traverse City MI USA,36,2019-08-26,44.7606441,-85.6165301
Tri VA USA,15,2019-08-26,38.5467876,-77.3366491
Tucson AZ USA,23,2019-08-26,32.2228765,-110.9748477
Tulsa OK USA,19,2019-08-26,36.1556805,-95.9929113
Twin Falls ID USA,61,2019-08-26,42.5704219,-114.4603171
Tyler TX USA,19,2019-08-26,32.3512601,-95.3010624
Utica NY USA,33,2019-08-26,43.1009031,-75.2326641
Waco TX USA,32,2019-08-26,31.549333,-97.1466695
Washington DC USA,56,2019-08-26,38.8948932,-77.0365529
Watertown NY USA,23,2019-08-26,43.9747838,-75.9107565
Wausau WI USA,32,2019-08-26,44.9596017,-89.6298239
West Palm Beach FL USA,99,2019-08-26,26.7153425,-80.0533746
Wheeling WV USA,30,2019-08-26,40.0639616,-80.7209149
Wichita Falls TX USA,14,2019-08-26,33.9137085,-98.4933873
Wichita KS USA,18,2019-08-26,37.6922361,-97.3375448
Wilkes Barre PA USA,25,2019-08-26,41.2464824,-75.8817316
Wilmington NC USA,61,2019-08-26,34.2257282,-77.9447107
Yakima WA USA,24,2019-08-26,46.601557,-120.5108421
Youngstown OH USA,36,2019-08-26,41.1035786,-80.6520161
Abilene TX USA,37,2019-09-02,32.44645,-99.7475905
Albany GA USA,29,2019-09-02,40.0555158,-82.8457691
Albany NY USA,11,2019-09-02,42.6511674,-73.754968
Albuquerque NM USA,5,2019-09-02,35.0841034,-106.6509851
Alexandria LA USA,60,2019-09-02,38.8147596,-77.09024765272724
Anchorage AK USA,20,2019-09-02,61.2163129,-149.8948523
Atlanta GA USA,17,2019-09-02,33.7490987,-84.3901849
Augusta GA USA,14,2019-09-02,33.4709714,-81.9748429
Austin TX USA,14,2019-09-02,30.2711286,-97.7436995
Baltimore MD USA,14,2019-09-02,39.284749399999995,-76.62047463969989
Bangor ME USA,26,2019-09-02,44.8011821,-68.7778138
Baton Rouge LA USA,16,2019-09-02,30.4459596,-91.18738
Beaumont TX USA,26,2019-09-02,30.0860459,-94.1018461
Bend OR USA,43,2019-09-02,44.0581728,-121.3153096
Biloxi MS USA,36,2019-09-02,30.374673,-88.84594333482862
Birmingham AL USA,10,2019-09-02,33.570499,-86.765783
Boston MA USA,11,2019-09-02,42.3602534,-71.0582912
Buffalo NY USA,15,2019-09-02,42.8867166,-78.8783922
Burlington VT USA,27,2019-09-02,44.4762975,-73.2135472
Butte MT USA,41,2019-09-02,46.0131505,-112.5365089
Cedar Rapids IA USA,10,2019-09-02,41.9758872,-91.6704053
Champaign IL USA,15,2019-09-02,40.1164205,-88.2433829
Charleston SC USA,21,2019-09-02,32.7876012,-79.9402728
Charleston WV USA,11,2019-09-02,38.3505995,-81.6332812
Charlotte NC USA,13,2019-09-02,35.2270869,-80.8431268
Charlottesville VA USA,30,2019-09-02,38.029306,-78.4766781
Chattanooga TN USA,16,2019-09-02,35.0457219,-85.3094883
Chicago IL USA,10,2019-09-02,41.8755616,-87.6244212
Chico CA USA,20,2019-09-02,39.7284945,-121.8374777
Cincinnati OH USA,8,2019-09-02,39.1014537,-84.5124602
Cleveland OH USA,5,2019-09-02,41.5051613,-81.6934446
Colorado Springs CO USA,9,2019-09-02,38.8339578,-104.8253485
Columbia SC USA,12,2019-09-02,34.0007493,-81.0343313
Columbus GA USA,16,2019-09-02,32.4609764,-84.9877094
Columbus OH USA,9,2019-09-02,39.9622601,-83.0007065
Columbus MS USA,30,2019-09-02,43.336875649999996,-89.0196532340367
Corpus Christi TX USA,34,2019-09-02,27.7477253,-97.4014129
Dallas TX USA,9,2019-09-02,32.7762719,-96.7968559
Denver CO USA,9,2019-09-02,39.7348381,-104.9653271
Des Moines IA USA,20,2019-09-02,41.5910641,-93.6037149
Detroit MI USA,11,2019-09-02,42.3315509,-83.0466403
Eugene OR USA,15,2019-09-02,44.0505054,-123.0950506
Evansville IN USA,30,2019-09-02,37.9747645,-87.5558483
Fargo ND USA,15,2019-09-02,46.877229,-96.789821
Flint MI USA,14,2019-09-02,43.0161693,-83.6900211
Florence SC USA,12,2019-09-02,34.1984435,-79.7671658
Fresno CA USA,5,2019-09-02,36.7295295,-119.70886126075588
Ft. Myers FL USA,7,2019-09-02,26.640628,-81.8723084
Ft. Smith AR USA,11,2019-09-02,35.3872218,-94.4248983
Ft. Wayne IN USA,21,2019-09-02,41.0799898,-85.1386015
Gainesville FL USA,20,2019-09-02,29.67357765,-82.32337460192167
Grand Rapids MI USA,6,2019-09-02,42.9142413,-85.533004
Green Bay WI USA,9,2019-09-02,44.5126379,-88.0125794
Greensboro NC USA,23,2019-09-02,36.0726355,-79.7919754
Greenville NC USA,11,2019-09-02,35.612661,-77.3663538
Greenville SC USA,14,2019-09-02,34.851354,-82.3984882
Harlingen TX USA,7,2019-09-02,26.1908241,-97.6959794
Harrisburg PA USA,16,2019-09-02,40.2663107,-76.8861122
Hartford CT USA,13,2019-09-02,43.648048,-70.241416
Hattiesburg MS USA,44,2019-09-02,31.3271189,-89.2903392
Honolulu HI USA,13,2019-09-02,21.304547,-157.8556764
Houston TX USA,11,2019-09-02,29.7589382,-95.3676974
Idaho Falls ID USA,27,2019-09-02,43.4935245,-112.0400919
Indianapolis IN USA,9,2019-09-02,39.7683331,-86.1583502
Jackson MS USA,45,2019-09-02,28.530801699999998,-81.30324431076107
Jackson TN USA,100,2019-09-02,35.6144446,-88.8177418
Jacksonville FL USA,13,2019-09-02,30.3321838,-81.655651
Johnstown PA USA,17,2019-09-02,40.3267407,-78.9219698
Kansas City MO USA,6,2019-09-02,39.100105,-94.5781416
Knoxville TN USA,7,2019-09-02,35.9603948,-83.9210261
La Crosse WI USA,18,2019-09-02,43.8014053,-91.2395429
Lafayette LA USA,29,2019-09-02,30.2240897,-92.0198427
Lake Charles LA USA,42,2019-09-02,30.2265949,-93.2173759
Las Vegas NV USA,7,2019-09-02,36.1672559,-115.1485163
Lexington KY USA,8,2019-09-02,38.0464066,-84.4970393
Lima OH USA,73,2019-09-02,40.7399785,-84.105006
Little Rock AR USA,7,2019-09-02,34.7464809,-92.2895948
Los Angeles CA USA,8,2019-09-02,34.0536909,-118.2427666
Louisville KY USA,11,2019-09-02,38.2542376,-85.759407
Macon GA USA,16,2019-09-02,32.8406946,-83.6324022
Madison WI USA,11,2019-09-02,43.074761,-89.3837613
Memphis TN USA,6,2019-09-02,35.1490215,-90.0516285
Miami FL USA,15,2019-09-02,25.7742658,-80.1936589
Milwaukee WI USA,10,2019-09-02,43.0349931,-87.922497
Minneapolis MN USA,8,2019-09-02,44.9772995,-93.2654692
Missoula MT USA,31,2019-09-02,46.8701049,-113.9952672
Mobile AL USA,6,2019-09-02,39.092585,-84.853229
Monterey CA USA,13,2019-09-02,36.2231079,-121.3877428
Nashville TN USA,8,2019-09-02,36.1622296,-86.7743531
New Orleans LA USA,13,2019-09-02,29.9499323,-90.0701156
New York NY USA,17,2019-09-02,40.7127281,-74.0060152
Norfolk VA USA,10,2019-09-02,36.8889933,-76.2481624
Odessa TX USA,21,2019-09-02,31.8457149,-102.367687
Oklahoma City OK USA,6,2019-09-02,35.4729886,-97.5170536
Omaha NE USA,6,2019-09-02,41.2587459,-95.9383758
Orlando FL USA,7,2019-09-02,28.5479786,-81.41278418563017
Panama City FL USA,26,2019-09-02,30.1600827,-85.6545729
Peoria IL USA,14,2019-09-02,40.6938609,-89.5891008
Philadelphia PA USA,13,2019-09-02,39.9527237,-75.1635262
Phoenix AZ USA,6,2019-09-02,33.4484367,-112.0741417
Pittsburgh PA USA,15,2019-09-02,40.4416941,-79.9900861
Portland OR USA,5,2019-09-02,45.5202471,-122.6741949
Portland ME USA,8,2019-09-02,43.6610277,-70.2548596
Providence RI USA,13,2019-09-02,41.8239891,-71.4128343
Quincy IL USA,48,2019-09-02,42.2528772,-71.0022705
Raleigh NC USA,13,2019-09-02,35.7803977,-78.6390989
Reno NV USA,12,2019-09-02,39.5261206,-119.8126581
Richmond VA USA,23,2019-09-02,37.5385087,-77.43428
Roanoke VA USA,7,2019-09-02,37.270973,-79.9414313
Rochester MN USA,25,2019-09-02,44.0234387,-92.4630182
Rochester NY USA,24,2019-09-02,43.157285,-77.615214
Rockford IL USA,21,2019-09-02,42.2713945,-89.093966
Sacramento CA USA,7,2019-09-02,38.5815719,-121.4943996
Salisbury MD USA,20,2019-09-02,38.3662114,-75.6008881
Salt Lake City UT USA,8,2019-09-02,40.7596198,-111.8867975
San Angelo TX USA,57,2019-09-02,31.4648357,-100.4398442
San Antonio TX USA,6,2019-09-02,29.4246002,-98.4951405
San Diego CA USA,11,2019-09-02,32.7174209,-117.1627714
San Francisco CA USA,10,2019-09-02,37.7790262,-122.4199061
Savannah GA USA,11,2019-09-02,32.0809263,-81.0911768
Seattle WA USA,8,2019-09-02,47.6038321,-122.3300624
Shreveport LA USA,25,2019-09-02,32.5221828,-93.7651944
Sioux Falls SD USA,15,2019-09-02,43.5499749,-96.700327
South Bend IN USA,11,2019-09-02,41.6833813,-86.2500066
Spokane WA USA,8,2019-09-02,47.6579425,-117.4212265
Springfield MO USA,10,2019-09-02,37.2166779,-93.2920373
Springfield MA USA,27,2019-09-02,42.1014831,-72.589811
St. Louis MO USA,6,2019-09-02,38.6268039,-90.1994097
Syracuse NY USA,17,2019-09-02,43.0481221,-76.1474244
Tallahassee FL USA,12,2019-09-02,30.4380832,-84.2809332
Tampa FL USA,7,2019-09-02,27.9518491,-82.4563972
Toledo OH USA,9,2019-09-02,41.6786754,-83.5127283
Topeka KS USA,21,2019-09-02,39.049011,-95.677556
Traverse City MI USA,33,2019-09-02,44.7606441,-85.6165301
Tucson AZ USA,15,2019-09-02,32.2228765,-110.9748477
Twin Falls ID USA,58,2019-09-02,42.5704219,-114.4603171
Tyler TX USA,15,2019-09-02,32.3512601,-95.3010624
Waco TX USA,13,2019-09-02,31.549333,-97.1466695
Washington DC USA,17,2019-09-02,38.8948932,-77.0365529
Watertown NY USA,42,2019-09-02,43.9747838,-75.9107565
West Palm Beach FL USA,19,2019-09-02,26.7153425,-80.0533746
Wheeling WV USA,38,2019-09-02,40.0639616,-80.7209149
Wichita Falls TX USA,27,2019-09-02,33.9137085,-98.4933873
Wichita KS USA,9,2019-09-02,37.6922361,-97.3375448
Wilkes Barre PA USA,21,2019-09-02,41.2464824,-75.8817316
Wilmington NC USA,18,2019-09-02,34.2257282,-77.9447107
Yakima WA USA,15,2019-09-02,46.601557,-120.5108421
Youngstown OH USA,16,2019-09-02,41.1035786,-80.6520161
Albany NY USA,13,2019-09-09,42.6511674,-73.754968
Albuquerque NM USA,11,2019-09-09,35.0841034,-106.6509851
Atlanta GA USA,7,2019-09-09,33.7490987,-84.3901849
Austin TX USA,7,2019-09-09,30.2711286,-97.7436995
Baltimore MD USA,7,2019-09-09,39.284749399999995,-76.62047463969989
Baton Rouge LA USA,25,2019-09-09,30.4459596,-91.18738
Birmingham AL USA,11,2019-09-09,33.570499,-86.765783
Boston MA USA,2,2019-09-09,42.3602534,-71.0582912
Burlington VT USA,26,2019-09-09,44.4762975,-73.2135472
Charlotte NC USA,10,2019-09-09,35.2270869,-80.8431268
Chattanooga TN USA,23,2019-09-09,35.0457219,-85.3094883
Chicago IL USA,4,2019-09-09,41.8755616,-87.6244212
Cincinnati OH USA,8,2019-09-09,39.1014537,-84.5124602
Cleveland OH USA,5,2019-09-09,41.5051613,-81.6934446
Dallas TX USA,3,2019-09-09,32.7762719,-96.7968559
Dayton OH USA,20,2019-09-09,39.7589478,-84.1916069
Des Moines IA USA,17,2019-09-09,41.5910641,-93.6037149
Detroit MI USA,6,2019-09-09,42.3315509,-83.0466403
Ft. Myers FL USA,17,2019-09-09,26.640628,-81.8723084
Greensboro NC USA,12,2019-09-09,36.0726355,-79.7919754
Hartford CT USA,11,2019-09-09,43.648048,-70.241416
Indianapolis IN USA,6,2019-09-09,39.7683331,-86.1583502
Jackson MS USA,27,2019-09-09,28.530801699999998,-81.30324431076107
Jacksonville FL USA,11,2019-09-09,30.3321838,-81.655651
Los Angeles CA USA,2,2019-09-09,34.0536909,-118.2427666
Louisville KY USA,11,2019-09-09,38.2542376,-85.759407
Miami FL USA,10,2019-09-09,25.7742658,-80.1936589
Milwaukee WI USA,7,2019-09-09,43.0349931,-87.922497
Minneapolis MN USA,4,2019-09-09,44.9772995,-93.2654692
New Orleans LA USA,12,2019-09-09,29.9499323,-90.0701156
New York NY USA,4,2019-09-09,40.7127281,-74.0060152
Norfolk VA USA,9,2019-09-09,36.8889933,-76.2481624
Oklahoma City OK USA,12,2019-09-09,35.4729886,-97.5170536
Omaha NE USA,28,2019-09-09,41.2587459,-95.9383758
Orlando FL USA,4,2019-09-09,28.5479786,-81.41278418563017
Philadelphia PA USA,4,2019-09-09,39.9527237,-75.1635262
Portland OR USA,11,2019-09-09,45.5202471,-122.6741949
Portland ME USA,20,2019-09-09,43.6610277,-70.2548596
Raleigh NC USA,5,2019-09-09,35.7803977,-78.6390989
Sacramento CA USA,5,2019-09-09,38.5815719,-121.4943996
Salt Lake City UT USA,6,2019-09-09,40.7596198,-111.8867975
San Diego CA USA,15,2019-09-09,32.7174209,-117.1627714
San Francisco CA USA,2,2019-09-09,37.7790262,-122.4199061
Savannah GA USA,23,2019-09-09,32.0809263,-81.0911768
Seattle WA USA,6,2019-09-09,47.6038321,-122.3300624
Sioux Falls SD USA,34,2019-09-09,43.5499749,-96.700327
St. Louis MO USA,6,2019-09-09,38.6268039,-90.1994097
Tampa FL USA,4,2019-09-09,27.9518491,-82.4563972
Toledo OH USA,21,2019-09-09,41.6786754,-83.5127283
Washington DC USA,3,2019-09-09,38.8948932,-77.0365529
Watertown NY USA,100,2019-09-09,43.9747838,-75.9107565
West Palm Beach FL USA,21,2019-09-09,26.7153425,-80.0533746
Wichita KS USA,21,2019-09-09,37.6922361,-97.3375448
Alexandria LA USA,100,2019-09-16,38.8147596,-77.09024765272724
Atlanta GA USA,2,2019-09-16,33.7490987,-84.3901849
Austin TX USA,5,2019-09-16,30.2711286,-97.7436995
Baton Rouge LA USA,18,2019-09-16,30.4459596,-91.18738
Boston MA USA,5,2019-09-16,42.3602534,-71.0582912
Charleston SC USA,16,2019-09-16,32.7876012,-79.9402728
Chicago IL USA,2,2019-09-16,41.8755616,-87.6244212
Cincinnati OH USA,5,2019-09-16,39.1014537,-84.5124602
Dallas TX USA,1,2019-09-16,32.7762719,-96.7968559
Denver CO USA,3,2019-09-16,39.7348381,-104.9653271
Greensboro NC USA,9,2019-09-16,36.0726355,-79.7919754
Harrisonburg VA USA,62,2019-09-16,38.4493315,-78.8688833
Huntsville AL USA,17,2019-09-16,33.554113,-86.804219
Kansas City MO USA,5,2019-09-16,39.100105,-94.5781416
Knoxville TN USA,12,2019-09-16,35.9603948,-83.9210261
La Crosse WI USA,29,2019-09-16,43.8014053,-91.2395429
Lexington KY USA,13,2019-09-16,38.0464066,-84.4970393
Little Rock AR USA,12,2019-09-16,34.7464809,-92.2895948
Los Angeles CA USA,1,2019-09-16,34.0536909,-118.2427666
Miami FL USA,3,2019-09-16,25.7742658,-80.1936589
Milwaukee WI USA,5,2019-09-16,43.0349931,-87.922497
New York NY USA,1,2019-09-16,40.7127281,-74.0060152
Philadelphia PA USA,3,2019-09-16,39.9527237,-75.1635262
Phoenix AZ USA,2,2019-09-16,33.4484367,-112.0741417
Richmond VA USA,10,2019-09-16,37.5385087,-77.43428
Salt Lake City UT USA,4,2019-09-16,40.7596198,-111.8867975
San Francisco CA USA,2,2019-09-16,37.7790262,-122.4199061
Savannah GA USA,16,2019-09-16,32.0809263,-81.0911768
Spokane WA USA,14,2019-09-16,47.6579425,-117.4212265
Tampa FL USA,3,2019-09-16,27.9518491,-82.4563972
Washington DC USA,1,2019-09-16,38.8948932,-77.0365529
Atlanta GA USA,3,2019-09-23,33.7490987,-84.3901849
Boston MA USA,4,2019-09-23,42.3602534,-71.0582912
Charlotte NC USA,7,2019-09-23,35.2270869,-80.8431268
Cleveland OH USA,6,2019-09-23,41.5051613,-81.6934446
Dallas TX USA,2,2019-09-23,32.7762719,-96.7968559
Denver CO USA,4,2019-09-23,39.7348381,-104.9653271
Detroit MI USA,9,2019-09-23,42.3315509,-83.0466403
Gainesville FL USA,59,2019-09-23,29.67357765,-82.32337460192167
Grand Rapids MI USA,12,2019-09-23,42.9142413,-85.533004
Los Angeles CA USA,1,2019-09-23,34.0536909,-118.2427666
Macon GA USA,100,2019-09-23,32.8406946,-83.6324022
Miami FL USA,4,2019-09-23,25.7742658,-80.1936589
Mobile AL USA,19,2019-09-23,39.092585,-84.853229
New York NY USA,2,2019-09-23,40.7127281,-74.0060152
Phoenix AZ USA,4,2019-09-23,33.4484367,-112.0741417
Pittsburgh PA USA,8,2019-09-23,40.4416941,-79.9900861
Portland OR USA,6,2019-09-23,45.5202471,-122.6741949
Raleigh NC USA,8,2019-09-23,35.7803977,-78.6390989
Salt Lake City UT USA,7,2019-09-23,40.7596198,-111.8867975
Seattle WA USA,4,2019-09-23,47.6038321,-122.3300624
Washington DC USA,5,2019-09-23,38.8948932,-77.0365529
West Palm Beach FL USA,26,2019-09-23,26.7153425,-80.0533746
Albany NY USA,31,2019-09-30,42.6511674,-73.754968
Atlanta GA USA,5,2019-09-30,33.7490987,-84.3901849
Augusta GA USA,81,2019-09-30,33.4709714,-81.9748429
Baltimore MD USA,31,2019-09-30,39.284749399999995,-76.62047463969989
Birmingham AL USA,25,2019-09-30,33.570499,-86.765783
Boston MA USA,6,2019-09-30,42.3602534,-71.0582912
Chicago IL USA,4,2019-09-30,41.8755616,-87.6244212
Dallas TX USA,4,2019-09-30,32.7762719,-96.7968559
Denver CO USA,9,2019-09-30,39.7348381,-104.9653271
Detroit MI USA,9,2019-09-30,42.3315509,-83.0466403
Ft. Myers FL USA,41,2019-09-30,26.640628,-81.8723084
Hartford CT USA,15,2019-09-30,43.648048,-70.241416
Lexington KY USA,88,2019-09-30,38.0464066,-84.4970393
Los Angeles CA USA,3,2019-09-30,34.0536909,-118.2427666
Minneapolis MN USA,9,2019-09-30,44.9772995,-93.2654692
New Orleans LA USA,27,2019-09-30,29.9499323,-90.0701156
New York NY USA,4,2019-09-30,40.7127281,-74.0060152
Peoria IL USA,75,2019-09-30,40.6938609,-89.5891008
Philadelphia PA USA,5,2019-09-30,39.9527237,-75.1635262
Phoenix AZ USA,17,2019-09-30,33.4484367,-112.0741417
Raleigh NC USA,11,2019-09-30,35.7803977,-78.6390989
Tampa FL USA,9,2019-09-30,27.9518491,-82.4563972
Traverse City MI USA,100,2019-09-30,44.7606441,-85.6165301
Tulsa OK USA,39,2019-09-30,36.1556805,-95.9929113
Washington DC USA,7,2019-09-30,38.8948932,-77.0365529
West Palm Beach FL USA,25,2019-09-30,26.7153425,-80.0533746
Albany NY USA,7,2019-10-07,42.6511674,-73.754968
Albuquerque NM USA,6,2019-10-07,35.0841034,-106.6509851
Amarillo TX USA,26,2019-10-07,35.2072185,-101.8338246
Atlanta GA USA,5,2019-10-07,33.7490987,-84.3901849
Augusta GA USA,18,2019-10-07,33.4709714,-81.9748429
Austin TX USA,3,2019-10-07,30.2711286,-97.7436995
Bakersfield CA USA,17,2019-10-07,35.3738712,-119.0194639
Baltimore MD USA,5,2019-10-07,39.284749399999995,-76.62047463969989
Birmingham AL USA,22,2019-10-07,33.570499,-86.765783
Bluefield WV USA,51,2019-10-07,37.2698395,-81.2223195
Boston MA USA,8,2019-10-07,42.3602534,-71.0582912
Burlington VT USA,13,2019-10-07,44.4762975,-73.2135472
Cedar Rapids IA USA,12,2019-10-07,41.9758872,-91.6704053
Charleston SC USA,11,2019-10-07,32.7876012,-79.9402728
Charlotte NC USA,3,2019-10-07,35.2270869,-80.8431268
Chicago IL USA,5,2019-10-07,41.8755616,-87.6244212
Cincinnati OH USA,4,2019-10-07,39.1014537,-84.5124602
Cleveland OH USA,3,2019-10-07,41.5051613,-81.6934446
Columbia SC USA,15,2019-10-07,34.0007493,-81.0343313
Columbus GA USA,42,2019-10-07,32.4609764,-84.9877094
Dallas TX USA,5,2019-10-07,32.7762719,-96.7968559
Davenport IA USA,17,2019-10-07,41.5236436,-90.5776368
Dayton OH USA,10,2019-10-07,39.7589478,-84.1916069
Denver CO USA,4,2019-10-07,39.7348381,-104.9653271
Detroit MI USA,4,2019-10-07,42.3315509,-83.0466403
Ft. Myers FL USA,9,2019-10-07,26.640628,-81.8723084
Gainesville FL USA,26,2019-10-07,29.67357765,-82.32337460192167
Grand Rapids MI USA,10,2019-10-07,42.9142413,-85.533004
Green Bay WI USA,10,2019-10-07,44.5126379,-88.0125794
Greensboro NC USA,10,2019-10-07,36.0726355,-79.7919754
Greenville NC USA,16,2019-10-07,35.612661,-77.3663538
Harlingen TX USA,18,2019-10-07,26.1908241,-97.6959794
Harrisburg PA USA,6,2019-10-07,40.2663107,-76.8861122
Hartford CT USA,7,2019-10-07,43.648048,-70.241416
Honolulu HI USA,16,2019-10-07,21.304547,-157.8556764
Houston TX USA,3,2019-10-07,29.7589382,-95.3676974
Indianapolis IN USA,7,2019-10-07,39.7683331,-86.1583502
Jackson MS USA,14,2019-10-07,28.530801699999998,-81.30324431076107
Jacksonville FL USA,5,2019-10-07,30.3321838,-81.655651
La Crosse WI USA,22,2019-10-07,43.8014053,-91.2395429
Las Vegas NV USA,8,2019-10-07,36.1672559,-115.1485163
Lima OH USA,91,2019-10-07,40.7399785,-84.105006
Little Rock AR USA,9,2019-10-07,34.7464809,-92.2895948
Los Angeles CA USA,3,2019-10-07,34.0536909,-118.2427666
Louisville KY USA,7,2019-10-07,38.2542376,-85.759407
Medford OR USA,27,2019-10-07,42.3264181,-122.8718605
Memphis TN USA,18,2019-10-07,35.1490215,-90.0516285
Miami FL USA,8,2019-10-07,25.7742658,-80.1936589
Milwaukee WI USA,4,2019-10-07,43.0349931,-87.922497
Minneapolis MN USA,4,2019-10-07,44.9772995,-93.2654692
Mobile AL USA,8,2019-10-07,39.092585,-84.853229
Monterey CA USA,15,2019-10-07,36.2231079,-121.3877428
Montgomery AL USA,22,2019-10-07,40.85239,-78.266098
Nashville TN USA,3,2019-10-07,36.1622296,-86.7743531
New Orleans LA USA,9,2019-10-07,29.9499323,-90.0701156
New York NY USA,7,2019-10-07,40.7127281,-74.0060152
Norfolk VA USA,9,2019-10-07,36.8889933,-76.2481624
Orlando FL USA,4,2019-10-07,28.5479786,-81.41278418563017
Parkersburg WV USA,100,2019-10-07,39.2699565,-81.5506916
Philadelphia PA USA,2,2019-10-07,39.9527237,-75.1635262
Phoenix AZ USA,2,2019-10-07,33.4484367,-112.0741417
Pittsburgh PA USA,4,2019-10-07,40.4416941,-79.9900861
Portland OR USA,6,2019-10-07,45.5202471,-122.6741949
Portland ME USA,21,2019-10-07,43.6610277,-70.2548596
Raleigh NC USA,4,2019-10-07,35.7803977,-78.6390989
Reno NV USA,16,2019-10-07,39.5261206,-119.8126581
Richmond VA USA,7,2019-10-07,37.5385087,-77.43428
Roanoke VA USA,9,2019-10-07,37.270973,-79.9414313
Rockford IL USA,27,2019-10-07,42.2713945,-89.093966
Sacramento CA USA,5,2019-10-07,38.5815719,-121.4943996
Salt Lake City UT USA,6,2019-10-07,40.7596198,-111.8867975
San Antonio TX USA,6,2019-10-07,29.4246002,-98.4951405
San Diego CA USA,4,2019-10-07,32.7174209,-117.1627714
San Francisco CA USA,2,2019-10-07,37.7790262,-122.4199061
Savannah GA USA,12,2019-10-07,32.0809263,-81.0911768
Seattle WA USA,3,2019-10-07,47.6038321,-122.3300624
Shreveport LA USA,16,2019-10-07,32.5221828,-93.7651944
Sioux Falls SD USA,18,2019-10-07,43.5499749,-96.700327
South Bend IN USA,14,2019-10-07,41.6833813,-86.2500066
Syracuse NY USA,11,2019-10-07,43.0481221,-76.1474244
Tallahassee FL USA,16,2019-10-07,30.4380832,-84.2809332
Tampa FL USA,2,2019-10-07,27.9518491,-82.4563972
Toledo OH USA,11,2019-10-07,41.6786754,-83.5127283
Traverse City MI USA,22,2019-10-07,44.7606441,-85.6165301
Tulsa OK USA,9,2019-10-07,36.1556805,-95.9929113
Twin Falls ID USA,73,2019-10-07,42.5704219,-114.4603171
Waco TX USA,10,2019-10-07,31.549333,-97.1466695
Washington DC USA,5,2019-10-07,38.8948932,-77.0365529
West Palm Beach FL USA,21,2019-10-07,26.7153425,-80.0533746
Wichita Falls TX USA,33,2019-10-07,33.9137085,-98.4933873
Wilkes Barre PA USA,9,2019-10-07,41.2464824,-75.8817316
Wilmington NC USA,22,2019-10-07,34.2257282,-77.9447107
Amarillo TX USA,15,2019-10-14,35.2072185,-101.8338246
Atlanta GA USA,3,2019-10-14,33.7490987,-84.3901849
Augusta GA USA,10,2019-10-14,33.4709714,-81.9748429
Austin TX USA,2,2019-10-14,30.2711286,-97.7436995
Bakersfield CA USA,20,2019-10-14,35.3738712,-119.0194639
Baltimore MD USA,3,2019-10-14,39.284749399999995,-76.62047463969989
Baton Rouge LA USA,8,2019-10-14,30.4459596,-91.18738
Birmingham AL USA,3,2019-10-14,33.570499,-86.765783
Boston MA USA,3,2019-10-14,42.3602534,-71.0582912
Buffalo NY USA,7,2019-10-14,42.8867166,-78.8783922
Butte MT USA,30,2019-10-14,46.0131505,-112.5365089
Cedar Rapids IA USA,7,2019-10-14,41.9758872,-91.6704053
Charleston SC USA,6,2019-10-14,32.7876012,-79.9402728
Charlotte NC USA,3,2019-10-14,35.2270869,-80.8431268
Chattanooga TN USA,14,2019-10-14,35.0457219,-85.3094883
Chicago IL USA,1,2019-10-14,41.8755616,-87.6244212
Cincinnati OH USA,2,2019-10-14,39.1014537,-84.5124602
Cleveland OH USA,2,2019-10-14,41.5051613,-81.6934446
Columbia SC USA,9,2019-10-14,34.0007493,-81.0343313
Columbus GA USA,11,2019-10-14,32.4609764,-84.9877094
Columbus OH USA,3,2019-10-14,39.9622601,-83.0007065
Corpus Christi TX USA,12,2019-10-14,27.7477253,-97.4014129
Dallas TX USA,2,2019-10-14,32.7762719,-96.7968559
Denver CO USA,1,2019-10-14,39.7348381,-104.9653271
Des Moines IA USA,5,2019-10-14,41.5910641,-93.6037149
Detroit MI USA,1,2019-10-14,42.3315509,-83.0466403
Duluth MN USA,17,2019-10-14,46.7729322,-92.1251218
El Paso TX USA,6,2019-10-14,31.7754152,-106.4646348
Evansville IN USA,11,2019-10-14,37.9747645,-87.5558483
Flint MI USA,6,2019-10-14,43.0161693,-83.6900211
Florence SC USA,8,2019-10-14,34.1984435,-79.7671658
Fresno CA USA,7,2019-10-14,36.7295295,-119.70886126075588
Ft. Myers FL USA,10,2019-10-14,26.640628,-81.8723084
Grand Rapids MI USA,3,2019-10-14,42.9142413,-85.533004
Greensboro NC USA,4,2019-10-14,36.0726355,-79.7919754
Harlingen TX USA,5,2019-10-14,26.1908241,-97.6959794
Harrisburg PA USA,3,2019-10-14,40.2663107,-76.8861122
Hartford CT USA,3,2019-10-14,43.648048,-70.241416
Honolulu HI USA,4,2019-10-14,21.304547,-157.8556764
Houston TX USA,1,2019-10-14,29.7589382,-95.3676974
Indianapolis IN USA,4,2019-10-14,39.7683331,-86.1583502
Jacksonville FL USA,8,2019-10-14,30.3321838,-81.655651
Juneau AK USA,100,2019-10-14,58.3019496,-134.419734
Kansas City MO USA,2,2019-10-14,39.100105,-94.5781416
Knoxville TN USA,9,2019-10-14,35.9603948,-83.9210261
La Crosse WI USA,12,2019-10-14,43.8014053,-91.2395429
Lafayette LA USA,13,2019-10-14,30.2240897,-92.0198427
Lansing MI USA,9,2019-10-14,42.7338147,-84.5207088
Laredo TX USA,27,2019-10-14,27.5199841,-99.4953764
Las Vegas NV USA,4,2019-10-14,36.1672559,-115.1485163
Little Rock AR USA,5,2019-10-14,34.7464809,-92.2895948
Los Angeles CA USA,2,2019-10-14,34.0536909,-118.2427666
Louisville KY USA,3,2019-10-14,38.2542376,-85.759407
Macon GA USA,12,2019-10-14,32.8406946,-83.6324022
Memphis TN USA,4,2019-10-14,35.1490215,-90.0516285
Miami FL USA,3,2019-10-14,25.7742658,-80.1936589
Milwaukee WI USA,2,2019-10-14,43.0349931,-87.922497
Minneapolis MN USA,2,2019-10-14,44.9772995,-93.2654692
Monroe LA USA,22,2019-10-14,38.2722313,-90.1792484
Montgomery AL USA,12,2019-10-14,40.85239,-78.266098
Nashville TN USA,4,2019-10-14,36.1622296,-86.7743531
New Orleans LA USA,7,2019-10-14,29.9499323,-90.0701156
New York NY USA,3,2019-10-14,40.7127281,-74.0060152
Norfolk VA USA,4,2019-10-14,36.8889933,-76.2481624
Odessa TX USA,14,2019-10-14,31.8457149,-102.367687
Orlando FL USA,2,2019-10-14,28.5479786,-81.41278418563017
Paducah KY USA,9,2019-10-14,37.0833893,-88.6000478
Philadelphia PA USA,2,2019-10-14,39.9527237,-75.1635262
Phoenix AZ USA,1,2019-10-14,33.4484367,-112.0741417
Pittsburgh PA USA,3,2019-10-14,40.4416941,-79.9900861
Portland OR USA,2,2019-10-14,45.5202471,-122.6741949
Portland ME USA,9,2019-10-14,43.6610277,-70.2548596
Providence RI USA,5,2019-10-14,41.8239891,-71.4128343
Raleigh NC USA,2,2019-10-14,35.7803977,-78.6390989
Richmond VA USA,5,2019-10-14,37.5385087,-77.43428
Rochester NY USA,5,2019-10-14,43.157285,-77.615214
Sacramento CA USA,2,2019-10-14,38.5815719,-121.4943996
Salisbury MD USA,16,2019-10-14,38.3662114,-75.6008881
Salt Lake City UT USA,3,2019-10-14,40.7596198,-111.8867975
San Antonio TX USA,2,2019-10-14,29.4246002,-98.4951405
San Diego CA USA,2,2019-10-14,32.7174209,-117.1627714
San Francisco CA USA,2,2019-10-14,37.7790262,-122.4199061
Santa Barbara CA USA,8,2019-10-14,34.4221319,-119.7026673
Seattle WA USA,1,2019-10-14,47.6038321,-122.3300624
Shreveport LA USA,9,2019-10-14,32.5221828,-93.7651944
Sioux Falls SD USA,10,2019-10-14,43.5499749,-96.700327
Spokane WA USA,6,2019-10-14,47.6579425,-117.4212265
Springfield MO USA,6,2019-10-14,37.2166779,-93.2920373
St. Louis MO USA,5,2019-10-14,38.6268039,-90.1994097
Syracuse NY USA,30,2019-10-14,43.0481221,-76.1474244
Tallahassee FL USA,9,2019-10-14,30.4380832,-84.2809332
Tampa FL USA,1,2019-10-14,27.9518491,-82.4563972
Tucson AZ USA,5,2019-10-14,32.2228765,-110.9748477
Twin Falls ID USA,40,2019-10-14,42.5704219,-114.4603171
Waco TX USA,6,2019-10-14,31.549333,-97.1466695
Washington DC USA,3,2019-10-14,38.8948932,-77.0365529
West Palm Beach FL USA,7,2019-10-14,26.7153425,-80.0533746
Wilkes Barre PA USA,5,2019-10-14,41.2464824,-75.8817316
Yakima WA USA,10,2019-10-14,46.601557,-120.5108421
Alexandria LA USA,100,2019-10-21,38.8147596,-77.09024765272724
Atlanta GA USA,5,2019-10-21,33.7490987,-84.3901849
Boston MA USA,2,2019-10-21,42.3602534,-71.0582912
Buffalo NY USA,8,2019-10-21,42.8867166,-78.8783922
Chicago IL USA,1,2019-10-21,41.8755616,-87.6244212
Columbus MS USA,19,2019-10-21,43.336875649999996,-89.0196532340367
Dallas TX USA,6,2019-10-21,32.7762719,-96.7968559
Denver CO USA,3,2019-10-21,39.7348381,-104.9653271
Ft. Smith AR USA,19,2019-10-21,35.3872218,-94.4248983
Houston TX USA,2,2019-10-21,29.7589382,-95.3676974
Indianapolis IN USA,5,2019-10-21,39.7683331,-86.1583502
Kansas City MO USA,5,2019-10-21,39.100105,-94.5781416
Little Rock AR USA,12,2019-10-21,34.7464809,-92.2895948
Los Angeles CA USA,1,2019-10-21,34.0536909,-118.2427666
Lubbock TX USA,14,2019-10-21,33.5635206,-101.879336
Madison WI USA,13,2019-10-21,43.074761,-89.3837613
Miami FL USA,3,2019-10-21,25.7742658,-80.1936589
Nashville TN USA,4,2019-10-21,36.1622296,-86.7743531
New Orleans LA USA,8,2019-10-21,29.9499323,-90.0701156
New York NY USA,1,2019-10-21,40.7127281,-74.0060152
Norfolk VA USA,7,2019-10-21,36.8889933,-76.2481624
Philadelphia PA USA,1,2019-10-21,39.9527237,-75.1635262
Richmond VA USA,9,2019-10-21,37.5385087,-77.43428
San Diego CA USA,3,2019-10-21,32.7174209,-117.1627714
San Francisco CA USA,1,2019-10-21,37.7790262,-122.4199061
Seattle WA USA,2,2019-10-21,47.6038321,-122.3300624
Springfield MA USA,20,2019-10-21,42.1014831,-72.589811
Syracuse NY USA,14,2019-10-21,43.0481221,-76.1474244
Tampa FL USA,3,2019-10-21,27.9518491,-82.4563972
Tulsa OK USA,11,2019-10-21,36.1556805,-95.9929113
Wausau WI USA,38,2019-10-21,44.9596017,-89.6298239
Wichita Falls TX USA,45,2019-10-21,33.9137085,-98.4933873
Atlanta GA USA,3,2019-10-28,33.7490987,-84.3901849
Baltimore MD USA,6,2019-10-28,39.284749399999995,-76.62047463969989
Binghamton NY USA,66,2019-10-28,42.096968,-75.914341
Boston MA USA,2,2019-10-28,42.3602534,-71.0582912
Charlotte NC USA,5,2019-10-28,35.2270869,-80.8431268
Columbus GA USA,37,2019-10-28,32.4609764,-84.9877094
Dallas TX USA,4,2019-10-28,32.7762719,-96.7968559
Denver CO USA,4,2019-10-28,39.7348381,-104.9653271
Detroit MI USA,6,2019-10-28,42.3315509,-83.0466403
Dothan AL USA,100,2019-10-28,31.2237434,-85.3933906
Gainesville FL USA,47,2019-10-28,29.67357765,-82.32337460192167
Greenville NC USA,28,2019-10-28,35.612661,-77.3663538
Harrisburg PA USA,11,2019-10-28,40.2663107,-76.8861122
Los Angeles CA USA,1,2019-10-28,34.0536909,-118.2427666
Miami FL USA,3,2019-10-28,25.7742658,-80.1936589
Minneapolis MN USA,10,2019-10-28,44.9772995,-93.2654692
New Orleans LA USA,11,2019-10-28,29.9499323,-90.0701156
New York NY USA,1,2019-10-28,40.7127281,-74.0060152
Philadelphia PA USA,2,2019-10-28,39.9527237,-75.1635262
Richmond VA USA,13,2019-10-28,37.5385087,-77.43428
Salt Lake City UT USA,6,2019-10-28,40.7596198,-111.8867975
San Antonio TX USA,7,2019-10-28,29.4246002,-98.4951405
Seattle WA USA,3,2019-10-28,47.6038321,-122.3300624
West Palm Beach FL USA,13,2019-10-28,26.7153425,-80.0533746
Atlanta GA USA,9,2019-11-04,33.7490987,-84.3901849
Burlington VT USA,57,2019-11-04,44.4762975,-73.2135472
Cincinnati OH USA,15,2019-11-04,39.1014537,-84.5124602
Dallas TX USA,6,2019-11-04,32.7762719,-96.7968559
Dayton OH USA,43,2019-11-04,39.7589478,-84.1916069
Indianapolis IN USA,14,2019-11-04,39.7683331,-86.1583502
Kansas City MO USA,17,2019-11-04,39.100105,-94.5781416
Los Angeles CA USA,2,2019-11-04,34.0536909,-118.2427666
Memphis TN USA,29,2019-11-04,35.1490215,-90.0516285
Miami FL USA,8,2019-11-04,25.7742658,-80.1936589
Milwaukee WI USA,17,2019-11-04,43.0349931,-87.922497
New York NY USA,3,2019-11-04,40.7127281,-74.0060152
Philadelphia PA USA,5,2019-11-04,39.9527237,-75.1635262
San Antonio TX USA,16,2019-11-04,29.4246002,-98.4951405
Tampa FL USA,9,2019-11-04,27.9518491,-82.4563972
Traverse City MI USA,100,2019-11-04,44.7606441,-85.6165301
Washington DC USA,4,2019-11-04,38.8948932,-77.0365529
Atlanta GA USA,4,2019-11-11,33.7490987,-84.3901849
Bakersfield CA USA,57,2019-11-11,35.3738712,-119.0194639
Baton Rouge LA USA,43,2019-11-11,30.4459596,-91.18738
Birmingham AL USA,18,2019-11-11,33.570499,-86.765783
Boston MA USA,4,2019-11-11,42.3602534,-71.0582912
Chicago IL USA,3,2019-11-11,41.8755616,-87.6244212
Cleveland OH USA,8,2019-11-11,41.5051613,-81.6934446
Columbus OH USA,12,2019-11-11,39.9622601,-83.0007065
Dallas TX USA,5,2019-11-11,32.7762719,-96.7968559
Denver CO USA,6,2019-11-11,39.7348381,-104.9653271
Detroit MI USA,6,2019-11-11,42.3315509,-83.0466403
Greenville SC USA,15,2019-11-11,34.851354,-82.3984882
Houston TX USA,4,2019-11-11,29.7589382,-95.3676974
Los Angeles CA USA,2,2019-11-11,34.0536909,-118.2427666
Memphis TN USA,22,2019-11-11,35.1490215,-90.0516285
Minneapolis MN USA,6,2019-11-11,44.9772995,-93.2654692
Minot ND USA,100,2019-11-11,48.23251,-101.296273
New Orleans LA USA,18,2019-11-11,29.9499323,-90.0701156
New York NY USA,2,2019-11-11,40.7127281,-74.0060152
Norfolk VA USA,15,2019-11-11,36.8889933,-76.2481624
Orlando FL USA,6,2019-11-11,28.5479786,-81.41278418563017
Palm Springs CA USA,86,2019-11-11,33.8246269,-116.540303
Philadelphia PA USA,3,2019-11-11,39.9527237,-75.1635262
Pittsburgh PA USA,11,2019-11-11,40.4416941,-79.9900861
Raleigh NC USA,8,2019-11-11,35.7803977,-78.6390989
Rockford IL USA,83,2019-11-11,42.2713945,-89.093966
Sacramento CA USA,8,2019-11-11,38.5815719,-121.4943996
San Francisco CA USA,3,2019-11-11,37.7790262,-122.4199061
Tampa FL USA,6,2019-11-11,27.9518491,-82.4563972
Toledo OH USA,34,2019-11-11,41.6786754,-83.5127283
West Palm Beach FL USA,34,2019-11-11,26.7153425,-80.0533746
Wilkes Barre PA USA,28,2019-11-11,41.2464824,-75.8817316
Boston MA USA,7,2019-11-18,42.3602534,-71.0582912
Cincinnati OH USA,20,2019-11-18,39.1014537,-84.5124602
Detroit MI USA,18,2019-11-18,42.3315509,-83.0466403
Hartford CT USA,18,2019-11-18,43.648048,-70.241416
Jacksonville FL USA,29,2019-11-18,30.3321838,-81.655651
Kansas City MO USA,20,2019-11-18,39.100105,-94.5781416
Los Angeles CA USA,5,2019-11-18,34.0536909,-118.2427666
New York NY USA,6,2019-11-18,40.7127281,-74.0060152
Omaha NE USA,39,2019-11-18,41.2587459,-95.9383758
Philadelphia PA USA,6,2019-11-18,39.9527237,-75.1635262
San Francisco CA USA,5,2019-11-18,37.7790262,-122.4199061
Tampa FL USA,11,2019-11-18,27.9518491,-82.4563972
Tyler TX USA,100,2019-11-18,32.3512601,-95.3010624
West Palm Beach FL USA,27,2019-11-18,26.7153425,-80.0533746
Atlanta GA USA,2,2019-11-25,33.7490987,-84.3901849
Augusta GA USA,30,2019-11-25,33.4709714,-81.9748429
Baton Rouge LA USA,24,2019-11-25,30.4459596,-91.18738
Birmingham AL USA,10,2019-11-25,33.570499,-86.765783
Boston MA USA,2,2019-11-25,42.3602534,-71.0582912
Charleston SC USA,20,2019-11-25,32.7876012,-79.9402728
Charlotte NC USA,5,2019-11-25,35.2270869,-80.8431268
Chicago IL USA,1,2019-11-25,41.8755616,-87.6244212
Cincinnati OH USA,7,2019-11-25,39.1014537,-84.5124602
Columbia SC USA,18,2019-11-25,34.0007493,-81.0343313
Denver CO USA,3,2019-11-25,39.7348381,-104.9653271
El Paso TX USA,18,2019-11-25,31.7754152,-106.4646348
Evansville IN USA,31,2019-11-25,37.9747645,-87.5558483
Hattiesburg MS USA,100,2019-11-25,31.3271189,-89.2903392
Houston TX USA,2,2019-11-25,29.7589382,-95.3676974
Johnstown PA USA,26,2019-11-25,40.3267407,-78.9219698
Los Angeles CA USA,1,2019-11-25,34.0536909,-118.2427666
Lubbock TX USA,49,2019-11-25,33.5635206,-101.879336
Memphis TN USA,12,2019-11-25,35.1490215,-90.0516285
Miami FL USA,3,2019-11-25,25.7742658,-80.1936589
Minneapolis MN USA,3,2019-11-25,44.9772995,-93.2654692
Mobile AL USA,14,2019-11-25,39.092585,-84.853229
Montgomery AL USA,38,2019-11-25,40.85239,-78.266098
New Orleans LA USA,35,2019-11-25,29.9499323,-90.0701156
New York NY USA,1,2019-11-25,40.7127281,-74.0060152
Orlando FL USA,3,2019-11-25,28.5479786,-81.41278418563017
Phoenix AZ USA,3,2019-11-25,33.4484367,-112.0741417
Richmond VA USA,12,2019-11-25,37.5385087,-77.43428
San Diego CA USA,5,2019-11-25,32.7174209,-117.1627714
Tallahassee FL USA,29,2019-11-25,30.4380832,-84.2809332
Washington DC USA,2,2019-11-25,38.8948932,-77.0365529
Amarillo TX USA,16,2019-12-02,35.2072185,-101.8338246
Atlanta GA USA,1,2019-12-02,33.7490987,-84.3901849
Chicago IL USA,1,2019-12-02,41.8755616,-87.6244212
Cincinnati OH USA,2,2019-12-02,39.1014537,-84.5124602
Florence SC USA,9,2019-12-02,34.1984435,-79.7671658
Helena MT USA,100,2019-12-02,46.5927425,-112.0362771
Houston TX USA,1,2019-12-02,29.7589382,-95.3676974
Jackson TN USA,36,2019-12-02,35.6144446,-88.8177418
Lansing MI USA,9,2019-12-02,42.7338147,-84.5207088
Medford OR USA,17,2019-12-02,42.3264181,-122.8718605
Montgomery AL USA,13,2019-12-02,40.85239,-78.266098
Nashville TN USA,2,2019-12-02,36.1622296,-86.7743531
New Orleans LA USA,3,2019-12-02,29.9499323,-90.0701156
Orlando FL USA,2,2019-12-02,28.5479786,-81.41278418563017
Phoenix AZ USA,1,2019-12-02,33.4484367,-112.0741417
Providence RI USA,4,2019-12-02,41.8239891,-71.4128343
Raleigh NC USA,1,2019-12-02,35.7803977,-78.6390989
Sacramento CA USA,1,2019-12-02,38.5815719,-121.4943996
San Francisco CA USA,1,2019-12-02,37.7790262,-122.4199061
Santa Barbara CA USA,9,2019-12-02,34.4221319,-119.7026673
Tallahassee FL USA,9,2019-12-02,30.4380832,-84.2809332
Tyler TX USA,12,2019-12-02,32.3512601,-95.3010624
Washington DC USA,1,2019-12-02,38.8948932,-77.0365529
West Palm Beach FL USA,3,2019-12-02,26.7153425,-80.0533746
Wilmington NC USA,13,2019-12-02,34.2257282,-77.9447107
Atlanta GA USA,5,2019-12-09,33.7490987,-84.3901849
Birmingham AL USA,25,2019-12-09,33.570499,-86.765783
Boston MA USA,6,2019-12-09,42.3602534,-71.0582912
Cleveland OH USA,11,2019-12-09,41.5051613,-81.6934446
Dayton OH USA,45,2019-12-09,39.7589478,-84.1916069
Denver CO USA,9,2019-12-09,39.7348381,-104.9653271
Detroit MI USA,8,2019-12-09,42.3315509,-83.0466403
Fresno CA USA,61,2019-12-09,36.7295295,-119.70886126075588
Jackson MS USA,61,2019-12-09,28.530801699999998,-81.30324431076107
Los Angeles CA USA,3,2019-12-09,34.0536909,-118.2427666
Miami FL USA,8,2019-12-09,25.7742658,-80.1936589
New York NY USA,2,2019-12-09,40.7127281,-74.0060152
Omaha NE USA,35,2019-12-09,41.2587459,-95.9383758
Orlando FL USA,9,2019-12-09,28.5479786,-81.41278418563017
Phoenix AZ USA,8,2019-12-09,33.4484367,-112.0741417
San Antonio TX USA,14,2019-12-09,29.4246002,-98.4951405
Shreveport LA USA,69,2019-12-09,32.5221828,-93.7651944
Tri VA USA,75,2019-12-09,38.5467876,-77.3366491
Washington DC USA,5,2019-12-09,38.8948932,-77.0365529
Wilmington NC USA,100,2019-12-09,34.2257282,-77.9447107
Atlanta GA USA,2,2019-12-16,33.7490987,-84.3901849
Charleston WV USA,24,2019-12-16,38.3505995,-81.6332812
Chicago IL USA,1,2019-12-16,41.8755616,-87.6244212
Columbus OH USA,14,2019-12-16,39.9622601,-83.0007065
Dallas TX USA,3,2019-12-16,32.7762719,-96.7968559
Elmira NY USA,100,2019-12-16,42.0897965,-76.8077338
Los Angeles CA USA,1,2019-12-16,34.0536909,-118.2427666
Macon GA USA,37,2019-12-16,32.8406946,-83.6324022
Milwaukee WI USA,7,2019-12-16,43.0349931,-87.922497
New York NY USA,1,2019-12-16,40.7127281,-74.0060152
Norfolk VA USA,8,2019-12-16,36.8889933,-76.2481624
Philadelphia PA USA,2,2019-12-16,39.9527237,-75.1635262
San Diego CA USA,5,2019-12-16,32.7174209,-117.1627714
St. Louis MO USA,6,2019-12-16,38.6268039,-90.1994097
Washington DC USA,2,2019-12-16,38.8948932,-77.0365529
West Palm Beach FL USA,9,2019-12-16,26.7153425,-80.0533746
Atlanta GA USA,16,2019-12-23,33.7490987,-84.3901849
Austin TX USA,25,2019-12-23,30.2711286,-97.7436995
Boston MA USA,9,2019-12-23,42.3602534,-71.0582912
Charlotte NC USA,19,2019-12-23,35.2270869,-80.8431268
Chicago IL USA,6,2019-12-23,41.8755616,-87.6244212
Dallas TX USA,6,2019-12-23,32.7762719,-96.7968559
Denver CO USA,12,2019-12-23,39.7348381,-104.9653271
Houston TX USA,9,2019-12-23,29.7589382,-95.3676974
Los Angeles CA USA,5,2019-12-23,34.0536909,-118.2427666
Miami FL USA,11,2019-12-23,25.7742658,-80.1936589
Minneapolis MN USA,10,2019-12-23,44.9772995,-93.2654692
Nashville TN USA,14,2019-12-23,36.1622296,-86.7743531
New Orleans LA USA,35,2019-12-23,29.9499323,-90.0701156
Philadelphia PA USA,7,2019-12-23,39.9527237,-75.1635262
Pittsburgh PA USA,23,2019-12-23,40.4416941,-79.9900861
San Francisco CA USA,21,2019-12-23,37.7790262,-122.4199061
Santa Barbara CA USA,100,2019-12-23,34.4221319,-119.7026673
St. Louis MO USA,20,2019-12-23,38.6268039,-90.1994097
Washington DC USA,7,2019-12-23,38.8948932,-77.0365529
West Palm Beach FL USA,45,2019-12-23,26.7153425,-80.0533746
