geoName,interest,date,lat,long,city
Oklahoma City Oklahoma United States of America,100,2019-01-07,35.4729886,-97.5170536,Oklahoma City 
Atlanta Georgia United States of America,31,2019-01-14,33.7490987,-84.3901849,Atlanta 
Miami Florida United States of America,47,2019-01-14,25.7742658,-80.1936589,Miami 
Philadelphia Pennsylvania United States of America,29,2019-01-14,39.9527237,-75.1635262,Philadelphia 
San Antonio Texas United States of America,100,2019-01-14,29.4246002,-98.4951405,San Antonio 
Boston Massachusetts United States of America,22,2019-01-21,42.3602534,-71.0582912,Boston 
Hartford Connecticut United States of America,60,2019-01-21,41.764582,-72.6908547,Hartford 
Jacksonville Florida United States of America,100,2019-01-21,30.3321838,-81.655651,Jacksonville 
Washington District of Columbia United States of America,18,2019-01-21,38.8948932,-77.0365529,Washington 
Atlanta Georgia United States of America,2,2019-01-28,33.7490987,-84.3901849,Atlanta 
Chicago Illinois United States of America,1,2019-01-28,41.8755616,-87.6244212,Chicago 
Dallas Texas United States of America,2,2019-01-28,32.7762719,-96.7968559,Dallas 
Detroit Michigan United States of America,3,2019-01-28,42.3315509,-83.0466403,Detroit 
Flint Michigan United States of America,18,2019-01-28,43.0161693,-83.6900211,Flint 
Grand Rapids Michigan United States of America,9,2019-01-28,42.9632405,-85.6678639,Grand Rapids 
Jackson Tennessee United States of America,100,2019-01-28,35.6144446,-88.8177418,Jackson 
Tampa Florida United States of America,3,2019-01-28,27.9477595,-82.458444,Tampa 
Albuquerque New Mexico United States of America,100,2019-02-04,35.0841034,-106.6509851,Albuquerque 
Boston Massachusetts United States of America,20,2019-02-04,42.3602534,-71.0582912,Boston 
Boston Massachusetts United States of America,100,2019-02-11,42.3602534,-71.0582912,Boston 
Phoenix Arizona United States of America,27,2019-02-18,33.4484367,-112.0741417,Phoenix 
Richmond Virginia United States of America,100,2019-02-18,37.5385087,-77.43428,Richmond 
San Diego California United States of America,39,2019-02-18,32.7174209,-117.1627714,San Diego 
West Palm Beach Florida United States of America,77,2019-02-18,26.715364,-80.0532942,West Palm Beach 
Portland Oregon United States of America,100,2019-02-25,45.5202471,-122.6741949,Portland 
San Francisco California United States of America,35,2019-02-25,37.7790262,-122.4199061,San Francisco 
Atlanta Georgia United States of America,100,2019-03-04,33.7490987,-84.3901849,Atlanta 
Boston Massachusetts United States of America,2,2019-03-11,42.3602534,-71.0582912,Boston 
Chicago Illinois United States of America,1,2019-03-11,41.8755616,-87.6244212,Chicago 
Detroit Michigan United States of America,3,2019-03-11,42.3315509,-83.0466403,Detroit 
Greenville North Carolina United States of America,25,2019-03-11,35.612661,-77.3663538,Greenville 
Houston Texas United States of America,2,2019-03-11,29.7589382,-95.3676974,Houston 
Jacksonville Florida United States of America,10,2019-03-11,30.3321838,-81.655651,Jacksonville 
Laredo Texas United States of America,100,2019-03-11,27.5199841,-99.4953764,Laredo 
Miami Florida United States of America,3,2019-03-11,25.7742658,-80.1936589,Miami 
New York New York United States of America,1,2019-03-11,36.1021436,-115.17449463280128,New York 
Norfolk Virginia United States of America,8,2019-03-11,36.8462923,-76.2929252,Norfolk 
Atlanta Georgia United States of America,3,2019-03-18,33.7490987,-84.3901849,Atlanta 
Austin Texas United States of America,5,2019-03-18,30.2711286,-97.7436995,Austin 
Baltimore Maryland United States of America,5,2019-03-18,39.2908816,-76.610759,Baltimore 
Buffalo New York United States of America,9,2019-03-18,42.8867166,-78.8783922,Buffalo 
Cleveland Ohio United States of America,3,2019-03-18,41.5051613,-81.6934446,Cleveland 
Denver Colorado United States of America,3,2019-03-18,39.7392364,-104.9848623,Denver 
El Paso Texas United States of America,17,2019-03-18,31.7754152,-106.4646348,El Paso 
Ft. Myers Florida United States of America,10,2019-03-18,26.640628,-81.8723084,Ft. Myers 
Greenville North Carolina United States of America,19,2019-03-18,35.612661,-77.3663538,Greenville 
Huntsville Alabama United States of America,18,2019-03-18,34.729847,-86.5859011,Huntsville 
Kansas City Missouri United States of America,5,2019-03-18,39.100105,-94.5781416,Kansas City 
Los Angeles California United States of America,2,2019-03-18,34.0536909,-118.2427666,Los Angeles 
Miami Florida United States of America,5,2019-03-18,25.7742658,-80.1936589,Miami 
Nashville Tennessee United States of America,4,2019-03-18,36.1622296,-86.7743531,Nashville 
New York New York United States of America,1,2019-03-18,36.1021436,-115.17449463280128,New York 
Orlando Florida United States of America,4,2019-03-18,28.5421109,-81.3790304,Orlando 
Raleigh North Carolina United States of America,3,2019-03-18,35.7803977,-78.6390989,Raleigh 
Sacramento California United States of America,3,2019-03-18,38.5815719,-121.4943996,Sacramento 
San Francisco California United States of America,1,2019-03-18,37.7790262,-122.4199061,San Francisco 
Tampa Florida United States of America,3,2019-03-18,27.9477595,-82.458444,Tampa 
Twin Falls Idaho United States of America,100,2019-03-18,42.5704219,-114.4603171,Twin Falls 
West Palm Beach Florida United States of America,7,2019-03-18,26.715364,-80.0532942,West Palm Beach 
Albany New York United States of America,25,2019-03-25,42.6511674,-73.754968,Albany 
Traverse City Michigan United States of America,100,2019-03-25,44.7606441,-85.6165301,Traverse City 
Washington District of Columbia United States of America,4,2019-03-25,38.8948932,-77.0365529,Washington 
West Palm Beach Florida United States of America,19,2019-03-25,26.715364,-80.0532942,West Palm Beach 
Lincoln Nebraska United States of America,100,2019-04-01,40.8088861,-96.7077751,Lincoln 
Los Angeles California United States of America,3,2019-04-01,34.0536909,-118.2427666,Los Angeles 
New York New York United States of America,2,2019-04-01,36.1021436,-115.17449463280128,New York 
Washington District of Columbia United States of America,6,2019-04-01,38.8948932,-77.0365529,Washington 
New York New York United States of America,100,2019-04-08,36.1021436,-115.17449463280128,New York 
New York New York United States of America,7,2019-04-15,36.1021436,-115.17449463280128,New York 
West Palm Beach Florida United States of America,100,2019-04-15,26.715364,-80.0532942,West Palm Beach 
West Palm Beach Florida United States of America,100,2019-04-22,26.715364,-80.0532942,West Palm Beach 
Seattle Washington United States of America,100,2019-04-29,47.6038321,-122.3300624,Seattle 
Denver Colorado United States of America,100,2019-05-13,39.7392364,-104.9848623,Denver 
Charleston South Carolina United States of America,26,2019-05-20,32.7876012,-79.9402728,Charleston 
Columbus Mississippi United States of America,100,2019-05-20,33.4956744,-88.4272627,Columbus 
Dallas Texas United States of America,2,2019-05-20,32.7762719,-96.7968559,Dallas 
Jacksonville Florida United States of America,13,2019-05-20,30.3321838,-81.655651,Jacksonville 
Little Rock Arkansas United States of America,21,2019-05-20,34.7464809,-92.2895948,Little Rock 
Los Angeles California United States of America,1,2019-05-20,34.0536909,-118.2427666,Los Angeles 
New York New York United States of America,1,2019-05-20,36.1021436,-115.17449463280128,New York 
Omaha Nebraska United States of America,17,2019-05-20,41.2587459,-95.9383758,Omaha 
San Antonio Texas United States of America,9,2019-05-20,29.4246002,-98.4951405,San Antonio 
South Bend Indiana United States of America,33,2019-05-20,41.6833813,-86.2500066,South Bend 
Washington District of Columbia United States of America,2,2019-05-20,38.8948932,-77.0365529,Washington 
Atlanta Georgia United States of America,12,2019-05-27,33.7490987,-84.3901849,Atlanta 
Boston Massachusetts United States of America,12,2019-05-27,42.3602534,-71.0582912,Boston 
Denver Colorado United States of America,19,2019-05-27,39.7392364,-104.9848623,Denver 
Detroit Michigan United States of America,19,2019-05-27,42.3315509,-83.0466403,Detroit 
Greensboro North Carolina United States of America,65,2019-05-27,36.0726355,-79.7919754,Greensboro 
Milwaukee Wisconsin United States of America,37,2019-05-27,43.0349931,-87.922497,Milwaukee 
New York New York United States of America,4,2019-05-27,36.1021436,-115.17449463280128,New York 
Raleigh North Carolina United States of America,24,2019-05-27,35.7803977,-78.6390989,Raleigh 
Rochester New York United States of America,100,2019-05-27,43.157285,-77.615214,Rochester 
San Francisco California United States of America,9,2019-05-27,37.7790262,-122.4199061,San Francisco 
Washington District of Columbia United States of America,10,2019-05-27,38.8948932,-77.0365529,Washington 
Boston Massachusetts United States of America,6,2019-06-03,42.3602534,-71.0582912,Boston 
Dallas Texas United States of America,5,2019-06-03,32.7762719,-96.7968559,Dallas 
Evansville Indiana United States of America,100,2019-06-03,37.9747645,-87.5558483,Evansville 
Raleigh North Carolina United States of America,12,2019-06-03,35.7803977,-78.6390989,Raleigh 
Washington District of Columbia United States of America,100,2019-06-10,38.8948932,-77.0365529,Washington 
Albany New York United States of America,17,2019-06-24,42.6511674,-73.754968,Albany 
Albuquerque New Mexico United States of America,15,2019-06-24,35.0841034,-106.6509851,Albuquerque 
Atlanta Georgia United States of America,7,2019-06-24,33.7490987,-84.3901849,Atlanta 
Austin Texas United States of America,9,2019-06-24,30.2711286,-97.7436995,Austin 
Baltimore Maryland United States of America,9,2019-06-24,39.2908816,-76.610759,Baltimore 
Boston Massachusetts United States of America,6,2019-06-24,42.3602534,-71.0582912,Boston 
Charlotte North Carolina United States of America,15,2019-06-24,35.2270869,-80.8431268,Charlotte 
Chicago Illinois United States of America,3,2019-06-24,41.8755616,-87.6244212,Chicago 
Cincinnati Ohio United States of America,15,2019-06-24,39.1014537,-84.5124602,Cincinnati 
Dallas Texas United States of America,5,2019-06-24,32.7762719,-96.7968559,Dallas 
Denver Colorado United States of America,5,2019-06-24,39.7392364,-104.9848623,Denver 
Detroit Michigan United States of America,5,2019-06-24,42.3315509,-83.0466403,Detroit 
Eugene Oregon United States of America,45,2019-06-24,44.0505054,-123.0950506,Eugene 
Fresno California United States of America,17,2019-06-24,36.7295295,-119.70886126075588,Fresno 
Ft. Myers Florida United States of America,23,2019-06-24,26.640628,-81.8723084,Ft. Myers 
Greensboro North Carolina United States of America,17,2019-06-24,36.0726355,-79.7919754,Greensboro 
Greenville North Carolina United States of America,70,2019-06-24,35.612661,-77.3663538,Greenville 
Hartford Connecticut United States of America,9,2019-06-24,41.764582,-72.6908547,Hartford 
Honolulu Hawaii United States of America,19,2019-06-24,21.304547,-157.8556764,Honolulu 
Houston Texas United States of America,3,2019-06-24,29.7589382,-95.3676974,Houston 
Jacksonville Florida United States of America,14,2019-06-24,30.3321838,-81.655651,Jacksonville 
Kansas City Missouri United States of America,15,2019-06-24,39.100105,-94.5781416,Kansas City 
Las Vegas Nevada United States of America,11,2019-06-24,36.1672559,-115.1485163,Las Vegas 
Los Angeles California United States of America,2,2019-06-24,34.0536909,-118.2427666,Los Angeles 
Louisville Kentucky United States of America,15,2019-06-24,38.2542376,-85.759407,Louisville 
Miami Florida United States of America,12,2019-06-24,25.7742658,-80.1936589,Miami 
Minneapolis Minnesota United States of America,5,2019-06-24,44.9772995,-93.2654692,Minneapolis 
Minot North Dakota United States of America,79,2019-06-24,48.23251,-101.296273,Minot 
Mobile Alabama United States of America,19,2019-06-24,30.6943566,-88.0430541,Mobile 
Monroe Louisiana United States of America,100,2019-06-24,32.5093109,-92.1193012,Monroe 
Nashville Tennessee United States of America,7,2019-06-24,36.1622296,-86.7743531,Nashville 
New Orleans Louisiana United States of America,15,2019-06-24,29.9499323,-90.0701156,New Orleans 
New York New York United States of America,5,2019-06-24,36.1021436,-115.17449463280128,New York 
Oklahoma City Oklahoma United States of America,16,2019-06-24,35.4729886,-97.5170536,Oklahoma City 
Orlando Florida United States of America,10,2019-06-24,28.5421109,-81.3790304,Orlando 
Panama City Florida United States of America,68,2019-06-24,30.1600827,-85.6545729,Panama City 
Pittsburgh Pennsylvania United States of America,9,2019-06-24,40.4416941,-79.9900861,Pittsburgh 
Portland Maine United States of America,24,2019-06-24,43.6610277,-70.2548596,Portland 
Raleigh North Carolina United States of America,10,2019-06-24,35.7803977,-78.6390989,Raleigh 
Roanoke Virginia United States of America,26,2019-06-24,37.270973,-79.9414313,Roanoke 
San Diego California United States of America,12,2019-06-24,32.7174209,-117.1627714,San Diego 
San Francisco California United States of America,5,2019-06-24,37.7790262,-122.4199061,San Francisco 
Santa Barbara California United States of America,39,2019-06-24,34.4221319,-119.7026673,Santa Barbara 
Savannah Georgia United States of America,59,2019-06-24,32.0809263,-81.0911768,Savannah 
Seattle Washington United States of America,4,2019-06-24,47.6038321,-122.3300624,Seattle 
Tampa Florida United States of America,10,2019-06-24,27.9477595,-82.458444,Tampa 
Waco Texas United States of America,28,2019-06-24,31.549333,-97.1466695,Waco 
Washington District of Columbia United States of America,5,2019-06-24,38.8948932,-77.0365529,Washington 
West Palm Beach Florida United States of America,20,2019-06-24,26.715364,-80.0532942,West Palm Beach 
Wichita Falls Texas United States of America,88,2019-06-24,33.9137085,-98.4933873,Wichita Falls 
Abilene Texas United States of America,25,2019-07-01,32.44645,-99.7475905,Abilene 
Albany Georgia United States of America,22,2019-07-01,31.5782062,-84.1556809,Albany 
Albany New York United States of America,24,2019-07-01,42.6511674,-73.754968,Albany 
Albuquerque New Mexico United States of America,18,2019-07-01,35.0841034,-106.6509851,Albuquerque 
Alexandria Louisiana United States of America,50,2019-07-01,31.311248,-92.4449087,Alexandria 
Amarillo Texas United States of America,12,2019-07-01,35.2072185,-101.8338246,Amarillo 
Anchorage Alaska United States of America,12,2019-07-01,61.2163129,-149.8948523,Anchorage 
Atlanta Georgia United States of America,63,2019-07-01,33.7490987,-84.3901849,Atlanta 
Augusta Georgia United States of America,50,2019-07-01,33.4709714,-81.9748429,Augusta 
Austin Texas United States of America,24,2019-07-01,30.2711286,-97.7436995,Austin 
Bakersfield California United States of America,16,2019-07-01,35.3738712,-119.0194639,Bakersfield 
Baltimore Maryland United States of America,36,2019-07-01,39.2908816,-76.610759,Baltimore 
Bangor Maine United States of America,40,2019-07-01,44.8011821,-68.7778138,Bangor 
Baton Rouge Louisiana United States of America,29,2019-07-01,30.4459596,-91.18738,Baton Rouge 
Beaumont Texas United States of America,39,2019-07-01,30.0860459,-94.1018461,Beaumont 
Bend Oregon United States of America,38,2019-07-01,44.0581728,-121.3153096,Bend 
"Billings, Montana United States of America",26,2019-07-01,45.7874957,-108.49607,"Billings, "
Biloxi Mississippi United States of America,29,2019-07-01,30.374673,-88.84594333482862,Biloxi 
Binghamton New York United States of America,33,2019-07-01,42.096968,-75.914341,Binghamton 
Birmingham Alabama United States of America,29,2019-07-01,33.5206824,-86.8024326,Birmingham 
Bluefield West Virginia United States of America,28,2019-07-01,37.2698395,-81.2223195,Bluefield 
Boise Idaho United States of America,22,2019-07-01,43.6166163,-116.200886,Boise 
Boston Massachusetts United States of America,31,2019-07-01,42.3602534,-71.0582912,Boston 
Bowling Green Kentucky United States of America,29,2019-07-01,36.9903199,-86.4436018,Bowling Green 
Buffalo New York United States of America,19,2019-07-01,42.8867166,-78.8783922,Buffalo 
Burlington Vermont United States of America,33,2019-07-01,44.4762975,-73.2135472,Burlington 
Butte Montana United States of America,42,2019-07-01,46.0131505,-112.5365089,Butte 
Casper Wyoming United States of America,32,2019-07-01,42.866632,-106.313081,Casper 
Cedar Rapids Iowa United States of America,18,2019-07-01,41.9758872,-91.6704053,Cedar Rapids 
Champaign Illinois United States of America,25,2019-07-01,40.1164205,-88.2433829,Champaign 
Charleston South Carolina United States of America,34,2019-07-01,32.7876012,-79.9402728,Charleston 
Charleston West Virginia United States of America,16,2019-07-01,38.3505995,-81.6332812,Charleston 
Charlotte North Carolina United States of America,29,2019-07-01,35.2270869,-80.8431268,Charlotte 
Charlottesville Virginia United States of America,31,2019-07-01,38.029306,-78.4766781,Charlottesville 
Chattanooga Tennessee United States of America,27,2019-07-01,35.0457219,-85.3094883,Chattanooga 
Cheyenne Wyoming United States of America,28,2019-07-01,38.040803,-121.336657,Cheyenne 
Chicago Illinois United States of America,26,2019-07-01,41.8755616,-87.6244212,Chicago 
Chico California United States of America,13,2019-07-01,39.7284945,-121.8374777,Chico 
Cincinnati Ohio United States of America,28,2019-07-01,39.1014537,-84.5124602,Cincinnati 
Clarksburg West Virginia United States of America,20,2019-07-01,39.2806451,-80.3445341,Clarksburg 
Cleveland Ohio United States of America,22,2019-07-01,41.5051613,-81.6934446,Cleveland 
Colorado Springs Colorado United States of America,11,2019-07-01,38.8339578,-104.8253485,Colorado Springs 
Columbia South Carolina United States of America,34,2019-07-01,34.0007493,-81.0343313,Columbia 
Columbia Missouri United States of America,13,2019-07-01,38.951883,-92.3337366,Columbia 
Columbus Georgia United States of America,57,2019-07-01,32.4609764,-84.9877094,Columbus 
Columbus Ohio United States of America,28,2019-07-01,39.9622601,-83.0007065,Columbus 
Columbus Mississippi United States of America,19,2019-07-01,33.4956744,-88.4272627,Columbus 
Corpus Christi Texas United States of America,16,2019-07-01,27.7477253,-97.4014129,Corpus Christi 
Dallas Texas United States of America,22,2019-07-01,32.7762719,-96.7968559,Dallas 
Davenport Iowa United States of America,15,2019-07-01,41.5236436,-90.5776368,Davenport 
Dayton Ohio United States of America,18,2019-07-01,39.7589478,-84.1916069,Dayton 
Denver Colorado United States of America,29,2019-07-01,39.7392364,-104.9848623,Denver 
Des Moines Iowa United States of America,19,2019-07-01,41.5910641,-93.6037149,Des Moines 
Detroit Michigan United States of America,27,2019-07-01,42.3315509,-83.0466403,Detroit 
Dothan Alabama United States of America,46,2019-07-01,31.2237434,-85.3933906,Dothan 
Duluth Minnesota United States of America,28,2019-07-01,46.7729322,-92.1251218,Duluth 
El Paso Texas United States of America,17,2019-07-01,31.7754152,-106.4646348,El Paso 
Elmira New York United States of America,37,2019-07-01,42.0897965,-76.8077338,Elmira 
Erie Pennsylvania United States of America,18,2019-07-01,42.1294712,-80.0852695,Erie 
Eugene Oregon United States of America,10,2019-07-01,44.0505054,-123.0950506,Eugene 
Eureka California United States of America,25,2019-07-01,40.8020712,-124.1636729,Eureka 
Evansville Indiana United States of America,30,2019-07-01,37.9747645,-87.5558483,Evansville 
Fairbanks Alaska United States of America,32,2019-07-01,64.837845,-147.716675,Fairbanks 
Fargo North Dakota United States of America,21,2019-07-01,46.877229,-96.789821,Fargo 
Flint Michigan United States of America,15,2019-07-01,43.0161693,-83.6900211,Flint 
Florence South Carolina United States of America,35,2019-07-01,34.1984435,-79.7671658,Florence 
Fresno California United States of America,9,2019-07-01,36.7295295,-119.70886126075588,Fresno 
Ft. Myers Florida United States of America,21,2019-07-01,26.640628,-81.8723084,Ft. Myers 
Ft. Smith Arkansas United States of America,12,2019-07-01,35.3872218,-94.4248983,Ft. Smith 
Ft. Wayne Indiana United States of America,19,2019-07-01,41.0799898,-85.1386015,Ft. Wayne 
Gainesville Florida United States of America,22,2019-07-01,29.6519684,-82.3249846,Gainesville 
Grand Junction Colorado United States of America,43,2019-07-01,39.063956,-108.5507317,Grand Junction 
Grand Rapids Michigan United States of America,23,2019-07-01,42.9632405,-85.6678639,Grand Rapids 
Green Bay Wisconsin United States of America,13,2019-07-01,44.5126379,-88.0125794,Green Bay 
Greensboro North Carolina United States of America,33,2019-07-01,36.0726355,-79.7919754,Greensboro 
Greenville North Carolina United States of America,18,2019-07-01,35.612661,-77.3663538,Greenville 
Greenville South Carolina United States of America,22,2019-07-01,34.851354,-82.3984882,Greenville 
Greenwood Mississippi United States of America,41,2019-07-01,33.5162315,-90.1795281,Greenwood 
Harlingen Texas United States of America,8,2019-07-01,26.1908241,-97.6959794,Harlingen 
Harrisburg Pennsylvania United States of America,19,2019-07-01,40.2663107,-76.8861122,Harrisburg 
Harrisonburg Virginia United States of America,52,2019-07-01,38.4493315,-78.8688833,Harrisonburg 
Hartford Connecticut United States of America,24,2019-07-01,41.764582,-72.6908547,Hartford 
Hattiesburg Mississippi United States of America,20,2019-07-01,31.3271189,-89.2903392,Hattiesburg 
Helena Montana United States of America,49,2019-07-01,46.5927425,-112.0362771,Helena 
Honolulu Hawaii United States of America,17,2019-07-01,21.304547,-157.8556764,Honolulu 
Houston Texas United States of America,25,2019-07-01,29.7589382,-95.3676974,Houston 
Huntsville Alabama United States of America,30,2019-07-01,34.729847,-86.5859011,Huntsville 
Idaho Falls Idaho United States of America,24,2019-07-01,43.4935245,-112.0400919,Idaho Falls 
Indianapolis Indiana United States of America,22,2019-07-01,39.7683331,-86.1583502,Indianapolis 
Jackson Mississippi United States of America,35,2019-07-01,32.2990384,-90.1847691,Jackson 
Jackson Tennessee United States of America,31,2019-07-01,35.6144446,-88.8177418,Jackson 
Jacksonville Florida United States of America,38,2019-07-01,30.3321838,-81.655651,Jacksonville 
Johnstown Pennsylvania United States of America,16,2019-07-01,40.3267407,-78.9219698,Johnstown 
Jonesboro Arkansas United States of America,24,2019-07-01,35.8428646,-90.7034522,Jonesboro 
Joplin Missouri United States of America,13,2019-07-01,37.08418,-94.51323,Joplin 
Juneau Alaska United States of America,46,2019-07-01,58.3019496,-134.419734,Juneau 
Kansas City Missouri United States of America,28,2019-07-01,39.100105,-94.5781416,Kansas City 
Knoxville Tennessee United States of America,19,2019-07-01,35.9603948,-83.9210261,Knoxville 
La Crosse Wisconsin United States of America,8,2019-07-01,43.8014053,-91.2395429,La Crosse 
Lafayette Indiana United States of America,31,2019-07-01,40.4167022,-86.8752869,Lafayette 
Lafayette Louisiana United States of America,27,2019-07-01,30.2240897,-92.0198427,Lafayette 
Lansing Michigan United States of America,17,2019-07-01,42.7337712,-84.5553805,Lansing 
Laredo Texas United States of America,16,2019-07-01,27.5199841,-99.4953764,Laredo 
Las Vegas Nevada United States of America,20,2019-07-01,36.1672559,-115.1485163,Las Vegas 
Lexington Kentucky United States of America,17,2019-07-01,38.0464066,-84.4970393,Lexington 
Lima Ohio United States of America,32,2019-07-01,40.7399785,-84.105006,Lima 
Lincoln Nebraska United States of America,14,2019-07-01,40.8088861,-96.7077751,Lincoln 
Little Rock Arkansas United States of America,26,2019-07-01,34.7464809,-92.2895948,Little Rock 
Los Angeles California United States of America,21,2019-07-01,34.0536909,-118.2427666,Los Angeles 
Louisville Kentucky United States of America,26,2019-07-01,38.2542376,-85.759407,Louisville 
Lubbock Texas United States of America,15,2019-07-01,33.5635206,-101.879336,Lubbock 
Macon Georgia United States of America,35,2019-07-01,32.8406946,-83.6324022,Macon 
Madison Wisconsin United States of America,24,2019-07-01,43.074761,-89.3837613,Madison 
Mankato Minnesota United States of America,62,2019-07-01,44.1634663,-93.9993505,Mankato 
Marquette Michigan United States of America,41,2019-07-01,46.4481521,-87.6305899,Marquette 
Medford Oregon United States of America,13,2019-07-01,42.3264181,-122.8718605,Medford 
Memphis Tennessee United States of America,24,2019-07-01,35.1490215,-90.0516285,Memphis 
Meridian Mississippi United States of America,100,2019-07-01,32.3643098,-88.703656,Meridian 
Miami Florida United States of America,36,2019-07-01,25.7742658,-80.1936589,Miami 
Milwaukee Wisconsin United States of America,21,2019-07-01,43.0349931,-87.922497,Milwaukee 
Minneapolis Minnesota United States of America,24,2019-07-01,44.9772995,-93.2654692,Minneapolis 
Minot North Dakota United States of America,11,2019-07-01,48.23251,-101.296273,Minot 
Missoula Montana United States of America,24,2019-07-01,46.8701049,-113.9952672,Missoula 
Mobile Alabama United States of America,22,2019-07-01,30.6943566,-88.0430541,Mobile 
Monroe Louisiana United States of America,13,2019-07-01,32.5093109,-92.1193012,Monroe 
Monterey California United States of America,17,2019-07-01,36.2231079,-121.3877428,Monterey 
Montgomery Alabama United States of America,20,2019-07-01,32.3669656,-86.3006485,Montgomery 
Nashville Tennessee United States of America,17,2019-07-01,36.1622296,-86.7743531,Nashville 
New Orleans Louisiana United States of America,46,2019-07-01,29.9499323,-90.0701156,New Orleans 
New York New York United States of America,30,2019-07-01,36.1021436,-115.17449463280128,New York 
Norfolk Virginia United States of America,31,2019-07-01,36.8462923,-76.2929252,Norfolk 
Odessa Texas United States of America,26,2019-07-01,31.8457149,-102.367687,Odessa 
Oklahoma City Oklahoma United States of America,24,2019-07-01,35.4729886,-97.5170536,Oklahoma City 
Omaha Nebraska United States of America,16,2019-07-01,41.2587459,-95.9383758,Omaha 
Orlando Florida United States of America,28,2019-07-01,28.5421109,-81.3790304,Orlando 
Ottumwa Iowa United States of America,45,2019-07-01,41.0200145,-92.4112963,Ottumwa 
Paducah Kentucky United States of America,18,2019-07-01,37.0833893,-88.6000478,Paducah 
Palm Springs California United States of America,21,2019-07-01,33.8246269,-116.540303,Palm Springs 
Panama City Florida United States of America,22,2019-07-01,30.1600827,-85.6545729,Panama City 
Parkersburg West Virginia United States of America,32,2019-07-01,39.2699565,-81.5506916,Parkersburg 
Peoria Illinois United States of America,16,2019-07-01,40.6938609,-89.5891008,Peoria 
Philadelphia Pennsylvania United States of America,31,2019-07-01,39.9527237,-75.1635262,Philadelphia 
Phoenix Arizona United States of America,17,2019-07-01,33.4484367,-112.0741417,Phoenix 
Pittsburgh Pennsylvania United States of America,24,2019-07-01,40.4416941,-79.9900861,Pittsburgh 
Portland Oregon United States of America,16,2019-07-01,45.5202471,-122.6741949,Portland 
Portland Maine United States of America,22,2019-07-01,43.6610277,-70.2548596,Portland 
Providence Rhode Island United States of America,24,2019-07-01,41.8239891,-71.4128343,Providence 
Quincy Illinois United States of America,21,2019-07-01,39.9356016,-91.4098727,Quincy 
Raleigh North Carolina United States of America,33,2019-07-01,35.7803977,-78.6390989,Raleigh 
Rapid City South Dakota United States of America,22,2019-07-01,44.081176,-103.228006,Rapid City 
Reno Nevada United States of America,21,2019-07-01,39.5261206,-119.8126581,Reno 
Richmond Virginia United States of America,37,2019-07-01,37.5385087,-77.43428,Richmond 
Roanoke Virginia United States of America,27,2019-07-01,37.270973,-79.9414313,Roanoke 
Rochester Minnesota United States of America,10,2019-07-01,44.0234387,-92.4630182,Rochester 
Rochester New York United States of America,28,2019-07-01,43.157285,-77.615214,Rochester 
Rockford Illinois United States of America,23,2019-07-01,42.2713945,-89.093966,Rockford 
Sacramento California United States of America,21,2019-07-01,38.5815719,-121.4943996,Sacramento 
Salisbury Maryland United States of America,39,2019-07-01,38.3662114,-75.6008881,Salisbury 
Salt Lake City Utah United States of America,18,2019-07-01,40.7596198,-111.8867975,Salt Lake City 
San Angelo Texas United States of America,48,2019-07-01,31.4648357,-100.4398442,San Angelo 
San Antonio Texas United States of America,15,2019-07-01,29.4246002,-98.4951405,San Antonio 
San Diego California United States of America,23,2019-07-01,32.7174209,-117.1627714,San Diego 
San Francisco California United States of America,26,2019-07-01,37.7790262,-122.4199061,San Francisco 
Santa Barbara California United States of America,21,2019-07-01,34.4221319,-119.7026673,Santa Barbara 
Savannah Georgia United States of America,29,2019-07-01,32.0809263,-81.0911768,Savannah 
Seattle Washington United States of America,17,2019-07-01,47.6038321,-122.3300624,Seattle 
Sherman Texas United States of America,14,2019-07-01,36.2452294,-101.8858689,Sherman 
Shreveport Louisiana United States of America,30,2019-07-01,32.5221828,-93.7651944,Shreveport 
Sioux City Iowa United States of America,28,2019-07-01,42.4966815,-96.4058782,Sioux City 
Sioux Falls South Dakota United States of America,9,2019-07-01,43.5499749,-96.700327,Sioux Falls 
South Bend Indiana United States of America,12,2019-07-01,41.6833813,-86.2500066,South Bend 
Spokane Washington United States of America,14,2019-07-01,47.6579425,-117.4212265,Spokane 
Springfield Missouri United States of America,23,2019-07-01,37.2166779,-93.2920373,Springfield 
Springfield Massachusetts United States of America,18,2019-07-01,42.1014831,-72.589811,Springfield 
St. Louis Missouri United States of America,20,2019-07-01,38.6529545,-90.24111656024635,St. Louis 
Syracuse New York United States of America,25,2019-07-01,43.0481221,-76.1474244,Syracuse 
Tallahassee Florida United States of America,22,2019-07-01,30.4380832,-84.2809332,Tallahassee 
Tampa Florida United States of America,30,2019-07-01,27.9477595,-82.458444,Tampa 
Terre Haute Indiana United States of America,29,2019-07-01,39.4667025,-87.4139119,Terre Haute 
Toledo Ohio United States of America,20,2019-07-01,41.6786754,-83.5127283,Toledo 
Topeka Kansas United States of America,19,2019-07-01,39.049011,-95.677556,Topeka 
Traverse City Michigan United States of America,32,2019-07-01,44.7606441,-85.6165301,Traverse City 
Tri Virginia United States of America,21,2019-07-01,38.5467876,-77.3366491,Tri 
Tucson Arizona United States of America,11,2019-07-01,32.2228765,-110.9748477,Tucson 
Tulsa Oklahoma United States of America,15,2019-07-01,36.1556805,-95.9929113,Tulsa 
Twin Falls Idaho United States of America,35,2019-07-01,42.5704219,-114.4603171,Twin Falls 
Tyler Texas United States of America,19,2019-07-01,32.3512601,-95.3010624,Tyler 
Utica New York United States of America,22,2019-07-01,43.1009031,-75.2326641,Utica 
Victoria Texas United States of America,52,2019-07-01,28.8026443,-96.9766308,Victoria 
Waco Texas United States of America,19,2019-07-01,31.549333,-97.1466695,Waco 
Washington District of Columbia United States of America,39,2019-07-01,38.8948932,-77.0365529,Washington 
Watertown New York United States of America,52,2019-07-01,43.9747838,-75.9107565,Watertown 
Wausau Wisconsin United States of America,23,2019-07-01,44.9596017,-89.6298239,Wausau 
West Palm Beach Florida United States of America,93,2019-07-01,26.715364,-80.0532942,West Palm Beach 
Wheeling West Virginia United States of America,15,2019-07-01,40.0639616,-80.7209149,Wheeling 
Wichita Falls Texas United States of America,18,2019-07-01,33.9137085,-98.4933873,Wichita Falls 
Wichita Kansas United States of America,20,2019-07-01,37.6922361,-97.3375448,Wichita 
Wilkes Barre Pennsylvania United States of America,18,2019-07-01,41.2464824,-75.8817316,Wilkes Barre 
Wilmington North Carolina United States of America,51,2019-07-01,34.2257282,-77.9447107,Wilmington 
Yakima Washington United States of America,8,2019-07-01,46.601557,-120.5108421,Yakima 
Youngstown Ohio United States of America,16,2019-07-01,41.1035786,-80.6520161,Youngstown 
Yuma Arizona United States of America,14,2019-07-01,32.6926588,-114.6276157,Yuma 
Abilene Texas United States of America,32,2019-07-08,32.44645,-99.7475905,Abilene 
Albany Georgia United States of America,79,2019-07-08,31.5782062,-84.1556809,Albany 
Albany New York United States of America,22,2019-07-08,42.6511674,-73.754968,Albany 
Albuquerque New Mexico United States of America,12,2019-07-08,35.0841034,-106.6509851,Albuquerque 
Alexandria Louisiana United States of America,47,2019-07-08,31.311248,-92.4449087,Alexandria 
Amarillo Texas United States of America,19,2019-07-08,35.2072185,-101.8338246,Amarillo 
Anchorage Alaska United States of America,47,2019-07-08,61.2163129,-149.8948523,Anchorage 
Atlanta Georgia United States of America,45,2019-07-08,33.7490987,-84.3901849,Atlanta 
Augusta Georgia United States of America,36,2019-07-08,33.4709714,-81.9748429,Augusta 
Austin Texas United States of America,19,2019-07-08,30.2711286,-97.7436995,Austin 
Bakersfield California United States of America,17,2019-07-08,35.3738712,-119.0194639,Bakersfield 
Baltimore Maryland United States of America,26,2019-07-08,39.2908816,-76.610759,Baltimore 
Bangor Maine United States of America,33,2019-07-08,44.8011821,-68.7778138,Bangor 
Baton Rouge Louisiana United States of America,22,2019-07-08,30.4459596,-91.18738,Baton Rouge 
Beaumont Texas United States of America,21,2019-07-08,30.0860459,-94.1018461,Beaumont 
Bend Oregon United States of America,34,2019-07-08,44.0581728,-121.3153096,Bend 
"Billings, Montana United States of America",31,2019-07-08,45.7874957,-108.49607,"Billings, "
Binghamton New York United States of America,46,2019-07-08,42.096968,-75.914341,Binghamton 
Birmingham Alabama United States of America,28,2019-07-08,33.5206824,-86.8024326,Birmingham 
Boise Idaho United States of America,18,2019-07-08,43.6166163,-116.200886,Boise 
Boston Massachusetts United States of America,27,2019-07-08,42.3602534,-71.0582912,Boston 
Bowling Green Kentucky United States of America,41,2019-07-08,36.9903199,-86.4436018,Bowling Green 
Buffalo New York United States of America,22,2019-07-08,42.8867166,-78.8783922,Buffalo 
Burlington Vermont United States of America,24,2019-07-08,44.4762975,-73.2135472,Burlington 
Butte Montana United States of America,36,2019-07-08,46.0131505,-112.5365089,Butte 
Cedar Rapids Iowa United States of America,31,2019-07-08,41.9758872,-91.6704053,Cedar Rapids 
Champaign Illinois United States of America,34,2019-07-08,40.1164205,-88.2433829,Champaign 
Charleston South Carolina United States of America,15,2019-07-08,32.7876012,-79.9402728,Charleston 
Charleston West Virginia United States of America,23,2019-07-08,38.3505995,-81.6332812,Charleston 
Charlotte North Carolina United States of America,38,2019-07-08,35.2270869,-80.8431268,Charlotte 
Charlottesville Virginia United States of America,31,2019-07-08,38.029306,-78.4766781,Charlottesville 
Chattanooga Tennessee United States of America,25,2019-07-08,35.0457219,-85.3094883,Chattanooga 
Cheyenne Wyoming United States of America,59,2019-07-08,38.040803,-121.336657,Cheyenne 
Chicago Illinois United States of America,19,2019-07-08,41.8755616,-87.6244212,Chicago 
Chico California United States of America,18,2019-07-08,39.7284945,-121.8374777,Chico 
Cincinnati Ohio United States of America,34,2019-07-08,39.1014537,-84.5124602,Cincinnati 
Clarksburg West Virginia United States of America,43,2019-07-08,39.2806451,-80.3445341,Clarksburg 
Cleveland Ohio United States of America,21,2019-07-08,41.5051613,-81.6934446,Cleveland 
Colorado Springs Colorado United States of America,29,2019-07-08,38.8339578,-104.8253485,Colorado Springs 
Columbia South Carolina United States of America,56,2019-07-08,34.0007493,-81.0343313,Columbia 
Columbia Missouri United States of America,38,2019-07-08,38.951883,-92.3337366,Columbia 
Columbus Georgia United States of America,35,2019-07-08,32.4609764,-84.9877094,Columbus 
Columbus Ohio United States of America,20,2019-07-08,39.9622601,-83.0007065,Columbus 
Columbus Mississippi United States of America,27,2019-07-08,33.4956744,-88.4272627,Columbus 
Corpus Christi Texas United States of America,21,2019-07-08,27.7477253,-97.4014129,Corpus Christi 
Dallas Texas United States of America,20,2019-07-08,32.7762719,-96.7968559,Dallas 
Davenport Iowa United States of America,12,2019-07-08,41.5236436,-90.5776368,Davenport 
Dayton Ohio United States of America,18,2019-07-08,39.7589478,-84.1916069,Dayton 
Denver Colorado United States of America,19,2019-07-08,39.7392364,-104.9848623,Denver 
Des Moines Iowa United States of America,11,2019-07-08,41.5910641,-93.6037149,Des Moines 
Detroit Michigan United States of America,30,2019-07-08,42.3315509,-83.0466403,Detroit 
Duluth Minnesota United States of America,41,2019-07-08,46.7729322,-92.1251218,Duluth 
El Paso Texas United States of America,8,2019-07-08,31.7754152,-106.4646348,El Paso 
Elmira New York United States of America,39,2019-07-08,42.0897965,-76.8077338,Elmira 
Erie Pennsylvania United States of America,23,2019-07-08,42.1294712,-80.0852695,Erie 
Eugene Oregon United States of America,25,2019-07-08,44.0505054,-123.0950506,Eugene 
Evansville Indiana United States of America,34,2019-07-08,37.9747645,-87.5558483,Evansville 
Fargo North Dakota United States of America,26,2019-07-08,46.877229,-96.789821,Fargo 
Flint Michigan United States of America,21,2019-07-08,43.0161693,-83.6900211,Flint 
Florence South Carolina United States of America,28,2019-07-08,34.1984435,-79.7671658,Florence 
Fresno California United States of America,14,2019-07-08,36.7295295,-119.70886126075588,Fresno 
Ft. Myers Florida United States of America,16,2019-07-08,26.640628,-81.8723084,Ft. Myers 
Ft. Smith Arkansas United States of America,17,2019-07-08,35.3872218,-94.4248983,Ft. Smith 
Ft. Wayne Indiana United States of America,21,2019-07-08,41.0799898,-85.1386015,Ft. Wayne 
Gainesville Florida United States of America,48,2019-07-08,29.6519684,-82.3249846,Gainesville 
Grand Rapids Michigan United States of America,26,2019-07-08,42.9632405,-85.6678639,Grand Rapids 
Green Bay Wisconsin United States of America,22,2019-07-08,44.5126379,-88.0125794,Green Bay 
Greensboro North Carolina United States of America,32,2019-07-08,36.0726355,-79.7919754,Greensboro 
Greenville North Carolina United States of America,15,2019-07-08,35.612661,-77.3663538,Greenville 
Greenville South Carolina United States of America,18,2019-07-08,34.851354,-82.3984882,Greenville 
Harlingen Texas United States of America,13,2019-07-08,26.1908241,-97.6959794,Harlingen 
Harrisburg Pennsylvania United States of America,38,2019-07-08,40.2663107,-76.8861122,Harrisburg 
Harrisonburg Virginia United States of America,37,2019-07-08,38.4493315,-78.8688833,Harrisonburg 
Hartford Connecticut United States of America,27,2019-07-08,41.764582,-72.6908547,Hartford 
Hattiesburg Mississippi United States of America,38,2019-07-08,31.3271189,-89.2903392,Hattiesburg 
Honolulu Hawaii United States of America,23,2019-07-08,21.304547,-157.8556764,Honolulu 
Houston Texas United States of America,21,2019-07-08,29.7589382,-95.3676974,Houston 
Huntsville Alabama United States of America,17,2019-07-08,34.729847,-86.5859011,Huntsville 
Idaho Falls Idaho United States of America,21,2019-07-08,43.4935245,-112.0400919,Idaho Falls 
Indianapolis Indiana United States of America,22,2019-07-08,39.7683331,-86.1583502,Indianapolis 
Jackson Mississippi United States of America,31,2019-07-08,32.2990384,-90.1847691,Jackson 
Jackson Tennessee United States of America,42,2019-07-08,35.6144446,-88.8177418,Jackson 
Jacksonville Florida United States of America,28,2019-07-08,30.3321838,-81.655651,Jacksonville 
Johnstown Pennsylvania United States of America,18,2019-07-08,40.3267407,-78.9219698,Johnstown 
Kansas City Missouri United States of America,21,2019-07-08,39.100105,-94.5781416,Kansas City 
Knoxville Tennessee United States of America,15,2019-07-08,35.9603948,-83.9210261,Knoxville 
La Crosse Wisconsin United States of America,27,2019-07-08,43.8014053,-91.2395429,La Crosse 
Lafayette Louisiana United States of America,16,2019-07-08,30.2240897,-92.0198427,Lafayette 
Lake Charles Louisiana United States of America,33,2019-07-08,30.2265949,-93.2173759,Lake Charles 
Lansing Michigan United States of America,19,2019-07-08,42.7337712,-84.5553805,Lansing 
Laredo Texas United States of America,100,2019-07-08,27.5199841,-99.4953764,Laredo 
Las Vegas Nevada United States of America,14,2019-07-08,36.1672559,-115.1485163,Las Vegas 
Lexington Kentucky United States of America,18,2019-07-08,38.0464066,-84.4970393,Lexington 
Lima Ohio United States of America,64,2019-07-08,40.7399785,-84.105006,Lima 
Lincoln Nebraska United States of America,24,2019-07-08,40.8088861,-96.7077751,Lincoln 
Little Rock Arkansas United States of America,20,2019-07-08,34.7464809,-92.2895948,Little Rock 
Los Angeles California United States of America,17,2019-07-08,34.0536909,-118.2427666,Los Angeles 
Louisville Kentucky United States of America,16,2019-07-08,38.2542376,-85.759407,Louisville 
Lubbock Texas United States of America,20,2019-07-08,33.5635206,-101.879336,Lubbock 
Macon Georgia United States of America,35,2019-07-08,32.8406946,-83.6324022,Macon 
Madison Wisconsin United States of America,29,2019-07-08,43.074761,-89.3837613,Madison 
Mankato Minnesota United States of America,59,2019-07-08,44.1634663,-93.9993505,Mankato 
Marquette Michigan United States of America,44,2019-07-08,46.4481521,-87.6305899,Marquette 
Medford Oregon United States of America,27,2019-07-08,42.3264181,-122.8718605,Medford 
Memphis Tennessee United States of America,19,2019-07-08,35.1490215,-90.0516285,Memphis 
Miami Florida United States of America,32,2019-07-08,25.7742658,-80.1936589,Miami 
Milwaukee Wisconsin United States of America,18,2019-07-08,43.0349931,-87.922497,Milwaukee 
Minneapolis Minnesota United States of America,21,2019-07-08,44.9772995,-93.2654692,Minneapolis 
Minot North Dakota United States of America,21,2019-07-08,48.23251,-101.296273,Minot 
Mobile Alabama United States of America,11,2019-07-08,30.6943566,-88.0430541,Mobile 
Monroe Louisiana United States of America,26,2019-07-08,32.5093109,-92.1193012,Monroe 
Monterey California United States of America,11,2019-07-08,36.2231079,-121.3877428,Monterey 
Montgomery Alabama United States of America,20,2019-07-08,32.3669656,-86.3006485,Montgomery 
Nashville Tennessee United States of America,15,2019-07-08,36.1622296,-86.7743531,Nashville 
New Orleans Louisiana United States of America,28,2019-07-08,29.9499323,-90.0701156,New Orleans 
New York New York United States of America,24,2019-07-08,36.1021436,-115.17449463280128,New York 
Norfolk Virginia United States of America,38,2019-07-08,36.8462923,-76.2929252,Norfolk 
Odessa Texas United States of America,22,2019-07-08,31.8457149,-102.367687,Odessa 
Oklahoma City Oklahoma United States of America,15,2019-07-08,35.4729886,-97.5170536,Oklahoma City 
Omaha Nebraska United States of America,14,2019-07-08,41.2587459,-95.9383758,Omaha 
Orlando Florida United States of America,29,2019-07-08,28.5421109,-81.3790304,Orlando 
Ottumwa Iowa United States of America,93,2019-07-08,41.0200145,-92.4112963,Ottumwa 
Paducah Kentucky United States of America,23,2019-07-08,37.0833893,-88.6000478,Paducah 
Palm Springs California United States of America,30,2019-07-08,33.8246269,-116.540303,Palm Springs 
Panama City Florida United States of America,36,2019-07-08,30.1600827,-85.6545729,Panama City 
Peoria Illinois United States of America,24,2019-07-08,40.6938609,-89.5891008,Peoria 
Philadelphia Pennsylvania United States of America,28,2019-07-08,39.9527237,-75.1635262,Philadelphia 
Phoenix Arizona United States of America,12,2019-07-08,33.4484367,-112.0741417,Phoenix 
Pittsburgh Pennsylvania United States of America,32,2019-07-08,40.4416941,-79.9900861,Pittsburgh 
Portland Oregon United States of America,20,2019-07-08,45.5202471,-122.6741949,Portland 
Portland Maine United States of America,16,2019-07-08,43.6610277,-70.2548596,Portland 
Providence Rhode Island United States of America,26,2019-07-08,41.8239891,-71.4128343,Providence 
Quincy Illinois United States of America,43,2019-07-08,39.9356016,-91.4098727,Quincy 
Raleigh North Carolina United States of America,29,2019-07-08,35.7803977,-78.6390989,Raleigh 
Reno Nevada United States of America,10,2019-07-08,39.5261206,-119.8126581,Reno 
Richmond Virginia United States of America,35,2019-07-08,37.5385087,-77.43428,Richmond 
Roanoke Virginia United States of America,32,2019-07-08,37.270973,-79.9414313,Roanoke 
Rochester Minnesota United States of America,41,2019-07-08,44.0234387,-92.4630182,Rochester 
Rochester New York United States of America,21,2019-07-08,43.157285,-77.615214,Rochester 
Rockford Illinois United States of America,18,2019-07-08,42.2713945,-89.093966,Rockford 
Sacramento California United States of America,8,2019-07-08,38.5815719,-121.4943996,Sacramento 
Salisbury Maryland United States of America,58,2019-07-08,38.3662114,-75.6008881,Salisbury 
Salt Lake City Utah United States of America,14,2019-07-08,40.7596198,-111.8867975,Salt Lake City 
San Angelo Texas United States of America,47,2019-07-08,31.4648357,-100.4398442,San Angelo 
San Antonio Texas United States of America,21,2019-07-08,29.4246002,-98.4951405,San Antonio 
San Diego California United States of America,18,2019-07-08,32.7174209,-117.1627714,San Diego 
San Francisco California United States of America,22,2019-07-08,37.7790262,-122.4199061,San Francisco 
Santa Barbara California United States of America,10,2019-07-08,34.4221319,-119.7026673,Santa Barbara 
Savannah Georgia United States of America,34,2019-07-08,32.0809263,-81.0911768,Savannah 
Seattle Washington United States of America,16,2019-07-08,47.6038321,-122.3300624,Seattle 
Shreveport Louisiana United States of America,21,2019-07-08,32.5221828,-93.7651944,Shreveport 
Sioux City Iowa United States of America,49,2019-07-08,42.4966815,-96.4058782,Sioux City 
Sioux Falls South Dakota United States of America,22,2019-07-08,43.5499749,-96.700327,Sioux Falls 
South Bend Indiana United States of America,40,2019-07-08,41.6833813,-86.2500066,South Bend 
Spokane Washington United States of America,12,2019-07-08,47.6579425,-117.4212265,Spokane 
Springfield Missouri United States of America,16,2019-07-08,37.2166779,-93.2920373,Springfield 
Springfield Massachusetts United States of America,29,2019-07-08,42.1014831,-72.589811,Springfield 
St. Louis Missouri United States of America,22,2019-07-08,38.6529545,-90.24111656024635,St. Louis 
Syracuse New York United States of America,19,2019-07-08,43.0481221,-76.1474244,Syracuse 
Tallahassee Florida United States of America,18,2019-07-08,30.4380832,-84.2809332,Tallahassee 
Tampa Florida United States of America,22,2019-07-08,27.9477595,-82.458444,Tampa 
Terre Haute Indiana United States of America,31,2019-07-08,39.4667025,-87.4139119,Terre Haute 
Toledo Ohio United States of America,16,2019-07-08,41.6786754,-83.5127283,Toledo 
Traverse City Michigan United States of America,21,2019-07-08,44.7606441,-85.6165301,Traverse City 
Tri Virginia United States of America,12,2019-07-08,38.5467876,-77.3366491,Tri 
Tucson Arizona United States of America,14,2019-07-08,32.2228765,-110.9748477,Tucson 
Tulsa Oklahoma United States of America,17,2019-07-08,36.1556805,-95.9929113,Tulsa 
Twin Falls Idaho United States of America,47,2019-07-08,42.5704219,-114.4603171,Twin Falls 
Tyler Texas United States of America,13,2019-07-08,32.3512601,-95.3010624,Tyler 
Utica New York United States of America,34,2019-07-08,43.1009031,-75.2326641,Utica 
Waco Texas United States of America,18,2019-07-08,31.549333,-97.1466695,Waco 
Washington District of Columbia United States of America,31,2019-07-08,38.8948932,-77.0365529,Washington 
Watertown New York United States of America,36,2019-07-08,43.9747838,-75.9107565,Watertown 
Wausau Wisconsin United States of America,19,2019-07-08,44.9596017,-89.6298239,Wausau 
West Palm Beach Florida United States of America,83,2019-07-08,26.715364,-80.0532942,West Palm Beach 
Wheeling West Virginia United States of America,48,2019-07-08,40.0639616,-80.7209149,Wheeling 
Wichita Falls Texas United States of America,24,2019-07-08,33.9137085,-98.4933873,Wichita Falls 
Wichita Kansas United States of America,7,2019-07-08,37.6922361,-97.3375448,Wichita 
Wilkes Barre Pennsylvania United States of America,18,2019-07-08,41.2464824,-75.8817316,Wilkes Barre 
Wilmington North Carolina United States of America,40,2019-07-08,34.2257282,-77.9447107,Wilmington 
Yakima Washington United States of America,37,2019-07-08,46.601557,-120.5108421,Yakima 
Youngstown Ohio United States of America,43,2019-07-08,41.1035786,-80.6520161,Youngstown 
Yuma Arizona United States of America,42,2019-07-08,32.6926588,-114.6276157,Yuma 
Alexandria Louisiana United States of America,75,2019-07-15,31.311248,-92.4449087,Alexandria 
Atlanta Georgia United States of America,3,2019-07-15,33.7490987,-84.3901849,Atlanta 
Augusta Georgia United States of America,19,2019-07-15,33.4709714,-81.9748429,Augusta 
Austin Texas United States of America,7,2019-07-15,30.2711286,-97.7436995,Austin 
Baltimore Maryland United States of America,4,2019-07-15,39.2908816,-76.610759,Baltimore 
Baton Rouge Louisiana United States of America,15,2019-07-15,30.4459596,-91.18738,Baton Rouge 
Binghamton New York United States of America,41,2019-07-15,42.096968,-75.914341,Binghamton 
Buffalo New York United States of America,7,2019-07-15,42.8867166,-78.8783922,Buffalo 
Charlotte North Carolina United States of America,4,2019-07-15,35.2270869,-80.8431268,Charlotte 
Chicago Illinois United States of America,1,2019-07-15,41.8755616,-87.6244212,Chicago 
Cincinnati Ohio United States of America,4,2019-07-15,39.1014537,-84.5124602,Cincinnati 
Colorado Springs Colorado United States of America,11,2019-07-15,38.8339578,-104.8253485,Colorado Springs 
Columbia Missouri United States of America,29,2019-07-15,38.951883,-92.3337366,Columbia 
Columbus Ohio United States of America,4,2019-07-15,39.9622601,-83.0007065,Columbus 
Dallas Texas United States of America,1,2019-07-15,32.7762719,-96.7968559,Dallas 
Des Moines Iowa United States of America,10,2019-07-15,41.5910641,-93.6037149,Des Moines 
Ft. Myers Florida United States of America,5,2019-07-15,26.640628,-81.8723084,Ft. Myers 
Greensboro North Carolina United States of America,7,2019-07-15,36.0726355,-79.7919754,Greensboro 
Harrisburg Pennsylvania United States of America,6,2019-07-15,40.2663107,-76.8861122,Harrisburg 
Hartford Connecticut United States of America,4,2019-07-15,41.764582,-72.6908547,Hartford 
Honolulu Hawaii United States of America,8,2019-07-15,21.304547,-157.8556764,Honolulu 
Houston Texas United States of America,1,2019-07-15,29.7589382,-95.3676974,Houston 
Los Angeles California United States of America,2,2019-07-15,34.0536909,-118.2427666,Los Angeles 
Macon Georgia United States of America,21,2019-07-15,32.8406946,-83.6324022,Macon 
Memphis Tennessee United States of America,7,2019-07-15,35.1490215,-90.0516285,Memphis 
Miami Florida United States of America,2,2019-07-15,25.7742658,-80.1936589,Miami 
Minneapolis Minnesota United States of America,4,2019-07-15,44.9772995,-93.2654692,Minneapolis 
Monterey California United States of America,17,2019-07-15,36.2231079,-121.3877428,Monterey 
Montgomery Alabama United States of America,24,2019-07-15,32.3669656,-86.3006485,Montgomery 
Nashville Tennessee United States of America,3,2019-07-15,36.1622296,-86.7743531,Nashville 
New Orleans Louisiana United States of America,6,2019-07-15,29.9499323,-90.0701156,New Orleans 
New York New York United States of America,1,2019-07-15,36.1021436,-115.17449463280128,New York 
Norfolk Virginia United States of America,5,2019-07-15,36.8462923,-76.2929252,Norfolk 
Oklahoma City Oklahoma United States of America,6,2019-07-15,35.4729886,-97.5170536,Oklahoma City 
Omaha Nebraska United States of America,8,2019-07-15,41.2587459,-95.9383758,Omaha 
Orlando Florida United States of America,2,2019-07-15,28.5421109,-81.3790304,Orlando 
Parkersburg West Virginia United States of America,100,2019-07-15,39.2699565,-81.5506916,Parkersburg 
Peoria Illinois United States of America,18,2019-07-15,40.6938609,-89.5891008,Peoria 
Philadelphia Pennsylvania United States of America,1,2019-07-15,39.9527237,-75.1635262,Philadelphia 
Portland Oregon United States of America,3,2019-07-15,45.5202471,-122.6741949,Portland 
Providence Rhode Island United States of America,6,2019-07-15,41.8239891,-71.4128343,Providence 
Raleigh North Carolina United States of America,3,2019-07-15,35.7803977,-78.6390989,Raleigh 
Richmond Virginia United States of America,7,2019-07-15,37.5385087,-77.43428,Richmond 
Rochester New York United States of America,11,2019-07-15,43.157285,-77.615214,Rochester 
San Antonio Texas United States of America,4,2019-07-15,29.4246002,-98.4951405,San Antonio 
San Diego California United States of America,3,2019-07-15,32.7174209,-117.1627714,San Diego 
San Francisco California United States of America,1,2019-07-15,37.7790262,-122.4199061,San Francisco 
Seattle Washington United States of America,2,2019-07-15,47.6038321,-122.3300624,Seattle 
South Bend Indiana United States of America,15,2019-07-15,41.6833813,-86.2500066,South Bend 
Springfield Missouri United States of America,12,2019-07-15,37.2166779,-93.2920373,Springfield 
Tallahassee Florida United States of America,17,2019-07-15,30.4380832,-84.2809332,Tallahassee 
Tampa Florida United States of America,2,2019-07-15,27.9477595,-82.458444,Tampa 
Toledo Ohio United States of America,12,2019-07-15,41.6786754,-83.5127283,Toledo 
Twin Falls Idaho United States of America,74,2019-07-15,42.5704219,-114.4603171,Twin Falls 
Washington District of Columbia United States of America,2,2019-07-15,38.8948932,-77.0365529,Washington 
West Palm Beach Florida United States of America,8,2019-07-15,26.715364,-80.0532942,West Palm Beach 
Albany New York United States of America,12,2019-07-22,42.6511674,-73.754968,Albany 
Albuquerque New Mexico United States of America,10,2019-07-22,35.0841034,-106.6509851,Albuquerque 
Atlanta Georgia United States of America,3,2019-07-22,33.7490987,-84.3901849,Atlanta 
Austin Texas United States of America,6,2019-07-22,30.2711286,-97.7436995,Austin 
Baltimore Maryland United States of America,6,2019-07-22,39.2908816,-76.610759,Baltimore 
Boston Massachusetts United States of America,4,2019-07-22,42.3602534,-71.0582912,Boston 
Buffalo New York United States of America,11,2019-07-22,42.8867166,-78.8783922,Buffalo 
Champaign Illinois United States of America,50,2019-07-22,40.1164205,-88.2433829,Champaign 
Charlottesville Virginia United States of America,83,2019-07-22,38.029306,-78.4766781,Charlottesville 
Chicago Illinois United States of America,3,2019-07-22,41.8755616,-87.6244212,Chicago 
Cleveland Ohio United States of America,4,2019-07-22,41.5051613,-81.6934446,Cleveland 
Columbia South Carolina United States of America,19,2019-07-22,34.0007493,-81.0343313,Columbia 
Dallas Texas United States of America,3,2019-07-22,32.7762719,-96.7968559,Dallas 
Dayton Ohio United States of America,19,2019-07-22,39.7589478,-84.1916069,Dayton 
Denver Colorado United States of America,6,2019-07-22,39.7392364,-104.9848623,Denver 
Elmira New York United States of America,100,2019-07-22,42.0897965,-76.8077338,Elmira 
Eugene Oregon United States of America,32,2019-07-22,44.0505054,-123.0950506,Eugene 
Fresno California United States of America,12,2019-07-22,36.7295295,-119.70886126075588,Fresno 
Greensboro North Carolina United States of America,12,2019-07-22,36.0726355,-79.7919754,Greensboro 
Greenville South Carolina United States of America,9,2019-07-22,34.851354,-82.3984882,Greenville 
Harrisburg Pennsylvania United States of America,11,2019-07-22,40.2663107,-76.8861122,Harrisburg 
Hartford Connecticut United States of America,12,2019-07-22,41.764582,-72.6908547,Hartford 
Houston Texas United States of America,3,2019-07-22,29.7589382,-95.3676974,Houston 
Huntsville Alabama United States of America,22,2019-07-22,34.729847,-86.5859011,Huntsville 
Kansas City Missouri United States of America,7,2019-07-22,39.100105,-94.5781416,Kansas City 
Las Vegas Nevada United States of America,7,2019-07-22,36.1672559,-115.1485163,Las Vegas 
Los Angeles California United States of America,1,2019-07-22,34.0536909,-118.2427666,Los Angeles 
Louisville Kentucky United States of America,21,2019-07-22,38.2542376,-85.759407,Louisville 
Macon Georgia United States of America,37,2019-07-22,32.8406946,-83.6324022,Macon 
Medford Oregon United States of America,45,2019-07-22,42.3264181,-122.8718605,Medford 
Miami Florida United States of America,3,2019-07-22,25.7742658,-80.1936589,Miami 
Mobile Alabama United States of America,13,2019-07-22,30.6943566,-88.0430541,Mobile 
Nashville Tennessee United States of America,5,2019-07-22,36.1622296,-86.7743531,Nashville 
New Orleans Louisiana United States of America,11,2019-07-22,29.9499323,-90.0701156,New Orleans 
New York New York United States of America,3,2019-07-22,36.1021436,-115.17449463280128,New York 
Orlando Florida United States of America,3,2019-07-22,28.5421109,-81.3790304,Orlando 
Philadelphia Pennsylvania United States of America,4,2019-07-22,39.9527237,-75.1635262,Philadelphia 
Pittsburgh Pennsylvania United States of America,7,2019-07-22,40.4416941,-79.9900861,Pittsburgh 
Portland Oregon United States of America,5,2019-07-22,45.5202471,-122.6741949,Portland 
Raleigh North Carolina United States of America,4,2019-07-22,35.7803977,-78.6390989,Raleigh 
Roanoke Virginia United States of America,18,2019-07-22,37.270973,-79.9414313,Roanoke 
San Diego California United States of America,4,2019-07-22,32.7174209,-117.1627714,San Diego 
San Francisco California United States of America,2,2019-07-22,37.7790262,-122.4199061,San Francisco 
Seattle Washington United States of America,3,2019-07-22,47.6038321,-122.3300624,Seattle 
Tallahassee Florida United States of America,30,2019-07-22,30.4380832,-84.2809332,Tallahassee 
Tri Virginia United States of America,32,2019-07-22,38.5467876,-77.3366491,Tri 
Washington District of Columbia United States of America,16,2019-07-22,38.8948932,-77.0365529,Washington 
West Palm Beach Florida United States of America,16,2019-07-22,26.715364,-80.0532942,West Palm Beach 
Wichita Kansas United States of America,20,2019-07-22,37.6922361,-97.3375448,Wichita 
Albany New York United States of America,12,2019-07-29,42.6511674,-73.754968,Albany 
Atlanta Georgia United States of America,9,2019-07-29,33.7490987,-84.3901849,Atlanta 
Augusta Georgia United States of America,33,2019-07-29,33.4709714,-81.9748429,Augusta 
Austin Texas United States of America,13,2019-07-29,30.2711286,-97.7436995,Austin 
Bakersfield California United States of America,33,2019-07-29,35.3738712,-119.0194639,Bakersfield 
Baltimore Maryland United States of America,23,2019-07-29,39.2908816,-76.610759,Baltimore 
Biloxi Mississippi United States of America,63,2019-07-29,30.374673,-88.84594333482862,Biloxi 
Boston Massachusetts United States of America,5,2019-07-29,42.3602534,-71.0582912,Boston 
Burlington Vermont United States of America,25,2019-07-29,44.4762975,-73.2135472,Burlington 
Butte Montana United States of America,100,2019-07-29,46.0131505,-112.5365089,Butte 
Charlotte North Carolina United States of America,11,2019-07-29,35.2270869,-80.8431268,Charlotte 
Charlottesville Virginia United States of America,88,2019-07-29,38.029306,-78.4766781,Charlottesville 
Chicago Illinois United States of America,4,2019-07-29,41.8755616,-87.6244212,Chicago 
Cincinnati Ohio United States of America,8,2019-07-29,39.1014537,-84.5124602,Cincinnati 
Cleveland Ohio United States of America,5,2019-07-29,41.5051613,-81.6934446,Cleveland 
Colorado Springs Colorado United States of America,20,2019-07-29,38.8339578,-104.8253485,Colorado Springs 
Columbus Georgia United States of America,42,2019-07-29,32.4609764,-84.9877094,Columbus 
Columbus Ohio United States of America,8,2019-07-29,39.9622601,-83.0007065,Columbus 
Corpus Christi Texas United States of America,40,2019-07-29,27.7477253,-97.4014129,Corpus Christi 
Dallas Texas United States of America,5,2019-07-29,32.7762719,-96.7968559,Dallas 
Davenport Iowa United States of America,34,2019-07-29,41.5236436,-90.5776368,Davenport 
Denver Colorado United States of America,4,2019-07-29,39.7392364,-104.9848623,Denver 
Detroit Michigan United States of America,11,2019-07-29,42.3315509,-83.0466403,Detroit 
Evansville Indiana United States of America,37,2019-07-29,37.9747645,-87.5558483,Evansville 
Florence South Carolina United States of America,26,2019-07-29,34.1984435,-79.7671658,Florence 
Fresno California United States of America,13,2019-07-29,36.7295295,-119.70886126075588,Fresno 
Ft. Myers Florida United States of America,17,2019-07-29,26.640628,-81.8723084,Ft. Myers 
Ft. Smith Arkansas United States of America,28,2019-07-29,35.3872218,-94.4248983,Ft. Smith 
Gainesville Florida United States of America,56,2019-07-29,29.6519684,-82.3249846,Gainesville 
Grand Rapids Michigan United States of America,20,2019-07-29,42.9632405,-85.6678639,Grand Rapids 
Greensboro North Carolina United States of America,19,2019-07-29,36.0726355,-79.7919754,Greensboro 
Greenville North Carolina United States of America,26,2019-07-29,35.612661,-77.3663538,Greenville 
Harlingen Texas United States of America,18,2019-07-29,26.1908241,-97.6959794,Harlingen 
Hartford Connecticut United States of America,7,2019-07-29,41.764582,-72.6908547,Hartford 
Houston Texas United States of America,5,2019-07-29,29.7589382,-95.3676974,Houston 
Indianapolis Indiana United States of America,10,2019-07-29,39.7683331,-86.1583502,Indianapolis 
Jacksonville Florida United States of America,21,2019-07-29,30.3321838,-81.655651,Jacksonville 
Kansas City Missouri United States of America,8,2019-07-29,39.100105,-94.5781416,Kansas City 
Las Vegas Nevada United States of America,16,2019-07-29,36.1672559,-115.1485163,Las Vegas 
Lexington Kentucky United States of America,19,2019-07-29,38.0464066,-84.4970393,Lexington 
Lincoln Nebraska United States of America,33,2019-07-29,40.8088861,-96.7077751,Lincoln 
Los Angeles California United States of America,4,2019-07-29,34.0536909,-118.2427666,Los Angeles 
Madison Wisconsin United States of America,19,2019-07-29,43.074761,-89.3837613,Madison 
Medford Oregon United States of America,49,2019-07-29,42.3264181,-122.8718605,Medford 
Memphis Tennessee United States of America,13,2019-07-29,35.1490215,-90.0516285,Memphis 
Miami Florida United States of America,16,2019-07-29,25.7742658,-80.1936589,Miami 
Minot North Dakota United States of America,59,2019-07-29,48.23251,-101.296273,Minot 
Monterey California United States of America,30,2019-07-29,36.2231079,-121.3877428,Monterey 
Nashville Tennessee United States of America,5,2019-07-29,36.1622296,-86.7743531,Nashville 
New York New York United States of America,4,2019-07-29,36.1021436,-115.17449463280128,New York 
Norfolk Virginia United States of America,13,2019-07-29,36.8462923,-76.2929252,Norfolk 
Oklahoma City Oklahoma United States of America,17,2019-07-29,35.4729886,-97.5170536,Oklahoma City 
Orlando Florida United States of America,3,2019-07-29,28.5421109,-81.3790304,Orlando 
Philadelphia Pennsylvania United States of America,4,2019-07-29,39.9527237,-75.1635262,Philadelphia 
Phoenix Arizona United States of America,5,2019-07-29,33.4484367,-112.0741417,Phoenix 
Pittsburgh Pennsylvania United States of America,7,2019-07-29,40.4416941,-79.9900861,Pittsburgh 
Portland Oregon United States of America,5,2019-07-29,45.5202471,-122.6741949,Portland 
Portland Maine United States of America,18,2019-07-29,43.6610277,-70.2548596,Portland 
Providence Rhode Island United States of America,12,2019-07-29,41.8239891,-71.4128343,Providence 
Raleigh North Carolina United States of America,12,2019-07-29,35.7803977,-78.6390989,Raleigh 
Richmond Virginia United States of America,20,2019-07-29,37.5385087,-77.43428,Richmond 
Roanoke Virginia United States of America,19,2019-07-29,37.270973,-79.9414313,Roanoke 
Sacramento California United States of America,5,2019-07-29,38.5815719,-121.4943996,Sacramento 
Salisbury Maryland United States of America,57,2019-07-29,38.3662114,-75.6008881,Salisbury 
San Antonio Texas United States of America,11,2019-07-29,29.4246002,-98.4951405,San Antonio 
San Diego California United States of America,5,2019-07-29,32.7174209,-117.1627714,San Diego 
San Francisco California United States of America,5,2019-07-29,37.7790262,-122.4199061,San Francisco 
Santa Barbara California United States of America,57,2019-07-29,34.4221319,-119.7026673,Santa Barbara 
Savannah Georgia United States of America,22,2019-07-29,32.0809263,-81.0911768,Savannah 
Seattle Washington United States of America,3,2019-07-29,47.6038321,-122.3300624,Seattle 
Sioux City Iowa United States of America,69,2019-07-29,42.4966815,-96.4058782,Sioux City 
St. Louis Missouri United States of America,6,2019-07-29,38.6529545,-90.24111656024635,St. Louis 
Syracuse New York United States of America,23,2019-07-29,43.0481221,-76.1474244,Syracuse 
Tallahassee Florida United States of America,32,2019-07-29,30.4380832,-84.2809332,Tallahassee 
Tampa Florida United States of America,4,2019-07-29,27.9477595,-82.458444,Tampa 
Toledo Ohio United States of America,22,2019-07-29,41.6786754,-83.5127283,Toledo 
Traverse City Michigan United States of America,36,2019-07-29,44.7606441,-85.6165301,Traverse City 
Tyler Texas United States of America,38,2019-07-29,32.3512601,-95.3010624,Tyler 
Washington District of Columbia United States of America,29,2019-07-29,38.8948932,-77.0365529,Washington 
West Palm Beach Florida United States of America,20,2019-07-29,26.715364,-80.0532942,West Palm Beach 
Wilmington North Carolina United States of America,38,2019-07-29,34.2257282,-77.9447107,Wilmington 
Yakima Washington United States of America,35,2019-07-29,46.601557,-120.5108421,Yakima 
Atlanta Georgia United States of America,9,2019-08-05,33.7490987,-84.3901849,Atlanta 
Birmingham Alabama United States of America,28,2019-08-05,33.5206824,-86.8024326,Birmingham 
Boston Massachusetts United States of America,6,2019-08-05,42.3602534,-71.0582912,Boston 
Charlotte North Carolina United States of America,15,2019-08-05,35.2270869,-80.8431268,Charlotte 
Chicago Illinois United States of America,4,2019-08-05,41.8755616,-87.6244212,Chicago 
Cincinnati Ohio United States of America,30,2019-08-05,39.1014537,-84.5124602,Cincinnati 
Columbus Ohio United States of America,42,2019-08-05,39.9622601,-83.0007065,Columbus 
Dallas Texas United States of America,7,2019-08-05,32.7762719,-96.7968559,Dallas 
Detroit Michigan United States of America,10,2019-08-05,42.3315509,-83.0466403,Detroit 
Eugene Oregon United States of America,88,2019-08-05,44.0505054,-123.0950506,Eugene 
Ft. Myers Florida United States of America,88,2019-08-05,26.640628,-81.8723084,Ft. Myers 
Greensboro North Carolina United States of America,33,2019-08-05,36.0726355,-79.7919754,Greensboro 
Hartford Connecticut United States of America,17,2019-08-05,41.764582,-72.6908547,Hartford 
Houston Texas United States of America,6,2019-08-05,29.7589382,-95.3676974,Houston 
Jackson Mississippi United States of America,69,2019-08-05,32.2990384,-90.1847691,Jackson 
Las Vegas Nevada United States of America,20,2019-08-05,36.1672559,-115.1485163,Las Vegas 
Los Angeles California United States of America,5,2019-08-05,34.0536909,-118.2427666,Los Angeles 
Macon Georgia United States of America,100,2019-08-05,32.8406946,-83.6324022,Macon 
Milwaukee Wisconsin United States of America,20,2019-08-05,43.0349931,-87.922497,Milwaukee 
New Orleans Louisiana United States of America,29,2019-08-05,29.9499323,-90.0701156,New Orleans 
New York New York United States of America,5,2019-08-05,36.1021436,-115.17449463280128,New York 
Orlando Florida United States of America,17,2019-08-05,28.5421109,-81.3790304,Orlando 
Philadelphia Pennsylvania United States of America,5,2019-08-05,39.9527237,-75.1635262,Philadelphia 
Phoenix Arizona United States of America,9,2019-08-05,33.4484367,-112.0741417,Phoenix 
Pittsburgh Pennsylvania United States of America,18,2019-08-05,40.4416941,-79.9900861,Pittsburgh 
Raleigh North Carolina United States of America,12,2019-08-05,35.7803977,-78.6390989,Raleigh 
Reno Nevada United States of America,70,2019-08-05,39.5261206,-119.8126581,Reno 
San Francisco California United States of America,7,2019-08-05,37.7790262,-122.4199061,San Francisco 
Springfield Massachusetts United States of America,79,2019-08-05,42.1014831,-72.589811,Springfield 
Tampa Florida United States of America,20,2019-08-05,27.9477595,-82.458444,Tampa 
Washington District of Columbia United States of America,16,2019-08-05,38.8948932,-77.0365529,Washington 
West Palm Beach Florida United States of America,26,2019-08-05,26.715364,-80.0532942,West Palm Beach 
Yakima Washington United States of America,89,2019-08-05,46.601557,-120.5108421,Yakima 
Albany New York United States of America,12,2019-08-12,42.6511674,-73.754968,Albany 
Atlanta Georgia United States of America,5,2019-08-12,33.7490987,-84.3901849,Atlanta 
Bluefield West Virginia United States of America,96,2019-08-12,37.2698395,-81.2223195,Bluefield 
Boston Massachusetts United States of America,2,2019-08-12,42.3602534,-71.0582912,Boston 
Charleston West Virginia United States of America,26,2019-08-12,38.3505995,-81.6332812,Charleston 
Chicago Illinois United States of America,2,2019-08-12,41.8755616,-87.6244212,Chicago 
Cincinnati Ohio United States of America,11,2019-08-12,39.1014537,-84.5124602,Cincinnati 
Cleveland Ohio United States of America,4,2019-08-12,41.5051613,-81.6934446,Cleveland 
Dallas Texas United States of America,5,2019-08-12,32.7762719,-96.7968559,Dallas 
Dayton Ohio United States of America,19,2019-08-12,39.7589478,-84.1916069,Dayton 
Denver Colorado United States of America,3,2019-08-12,39.7392364,-104.9848623,Denver 
Detroit Michigan United States of America,4,2019-08-12,42.3315509,-83.0466403,Detroit 
Grand Rapids Michigan United States of America,10,2019-08-12,42.9632405,-85.6678639,Grand Rapids 
Greensboro North Carolina United States of America,12,2019-08-12,36.0726355,-79.7919754,Greensboro 
Harrisburg Pennsylvania United States of America,11,2019-08-12,40.2663107,-76.8861122,Harrisburg 
Hartford Connecticut United States of America,6,2019-08-12,41.764582,-72.6908547,Hartford 
Hattiesburg Mississippi United States of America,100,2019-08-12,31.3271189,-89.2903392,Hattiesburg 
Houston Texas United States of America,2,2019-08-12,29.7589382,-95.3676974,Houston 
Indianapolis Indiana United States of America,10,2019-08-12,39.7683331,-86.1583502,Indianapolis 
Las Vegas Nevada United States of America,7,2019-08-12,36.1672559,-115.1485163,Las Vegas 
Los Angeles California United States of America,2,2019-08-12,34.0536909,-118.2427666,Los Angeles 
Memphis Tennessee United States of America,13,2019-08-12,35.1490215,-90.0516285,Memphis 
Miami Florida United States of America,3,2019-08-12,25.7742658,-80.1936589,Miami 
Milwaukee Wisconsin United States of America,7,2019-08-12,43.0349931,-87.922497,Milwaukee 
Mobile Alabama United States of America,14,2019-08-12,30.6943566,-88.0430541,Mobile 
Monterey California United States of America,28,2019-08-12,36.2231079,-121.3877428,Monterey 
Nashville Tennessee United States of America,5,2019-08-12,36.1622296,-86.7743531,Nashville 
New York New York United States of America,2,2019-08-12,36.1021436,-115.17449463280128,New York 
Norfolk Virginia United States of America,8,2019-08-12,36.8462923,-76.2929252,Norfolk 
Oklahoma City Oklahoma United States of America,11,2019-08-12,35.4729886,-97.5170536,Oklahoma City 
Orlando Florida United States of America,3,2019-08-12,28.5421109,-81.3790304,Orlando 
Philadelphia Pennsylvania United States of America,4,2019-08-12,39.9527237,-75.1635262,Philadelphia 
Portland Oregon United States of America,5,2019-08-12,45.5202471,-122.6741949,Portland 
Raleigh North Carolina United States of America,9,2019-08-12,35.7803977,-78.6390989,Raleigh 
Richmond Virginia United States of America,13,2019-08-12,37.5385087,-77.43428,Richmond 
Rochester New York United States of America,19,2019-08-12,43.157285,-77.615214,Rochester 
Salisbury Maryland United States of America,37,2019-08-12,38.3662114,-75.6008881,Salisbury 
San Antonio Texas United States of America,7,2019-08-12,29.4246002,-98.4951405,San Antonio 
San Diego California United States of America,5,2019-08-12,32.7174209,-117.1627714,San Diego 
San Francisco California United States of America,2,2019-08-12,37.7790262,-122.4199061,San Francisco 
St. Louis Missouri United States of America,12,2019-08-12,38.6529545,-90.24111656024635,St. Louis 
Tallahassee Florida United States of America,31,2019-08-12,30.4380832,-84.2809332,Tallahassee 
Tampa Florida United States of America,4,2019-08-12,27.9477595,-82.458444,Tampa 
Tucson Arizona United States of America,18,2019-08-12,32.2228765,-110.9748477,Tucson 
Washington District of Columbia United States of America,7,2019-08-12,38.8948932,-77.0365529,Washington 
West Palm Beach Florida United States of America,10,2019-08-12,26.715364,-80.0532942,West Palm Beach 
Youngstown Ohio United States of America,37,2019-08-12,41.1035786,-80.6520161,Youngstown 
Atlanta Georgia United States of America,3,2019-08-19,33.7490987,-84.3901849,Atlanta 
Augusta Georgia United States of America,11,2019-08-19,33.4709714,-81.9748429,Augusta 
Austin Texas United States of America,3,2019-08-19,30.2711286,-97.7436995,Austin 
Baltimore Maryland United States of America,6,2019-08-19,39.2908816,-76.610759,Baltimore 
Baton Rouge Louisiana United States of America,9,2019-08-19,30.4459596,-91.18738,Baton Rouge 
"Billings, Montana United States of America",30,2019-08-19,45.7874957,-108.49607,"Billings, "
Birmingham Alabama United States of America,3,2019-08-19,33.5206824,-86.8024326,Birmingham 
Boston Massachusetts United States of America,2,2019-08-19,42.3602534,-71.0582912,Boston 
Buffalo New York United States of America,4,2019-08-19,42.8867166,-78.8783922,Buffalo 
Burlington Vermont United States of America,9,2019-08-19,44.4762975,-73.2135472,Burlington 
Champaign Illinois United States of America,8,2019-08-19,40.1164205,-88.2433829,Champaign 
Charleston South Carolina United States of America,7,2019-08-19,32.7876012,-79.9402728,Charleston 
Charlotte North Carolina United States of America,2,2019-08-19,35.2270869,-80.8431268,Charlotte 
Chicago Illinois United States of America,2,2019-08-19,41.8755616,-87.6244212,Chicago 
Cincinnati Ohio United States of America,3,2019-08-19,39.1014537,-84.5124602,Cincinnati 
Cleveland Ohio United States of America,2,2019-08-19,41.5051613,-81.6934446,Cleveland 
Colorado Springs Colorado United States of America,7,2019-08-19,38.8339578,-104.8253485,Colorado Springs 
Corpus Christi Texas United States of America,14,2019-08-19,27.7477253,-97.4014129,Corpus Christi 
Dallas Texas United States of America,1,2019-08-19,32.7762719,-96.7968559,Dallas 
Denver Colorado United States of America,3,2019-08-19,39.7392364,-104.9848623,Denver 
Detroit Michigan United States of America,2,2019-08-19,42.3315509,-83.0466403,Detroit 
Duluth Minnesota United States of America,20,2019-08-19,46.7729322,-92.1251218,Duluth 
Florence South Carolina United States of America,9,2019-08-19,34.1984435,-79.7671658,Florence 
Fresno California United States of America,4,2019-08-19,36.7295295,-119.70886126075588,Fresno 
Gainesville Florida United States of America,24,2019-08-19,29.6519684,-82.3249846,Gainesville 
Greensboro North Carolina United States of America,21,2019-08-19,36.0726355,-79.7919754,Greensboro 
Greenville North Carolina United States of America,9,2019-08-19,35.612661,-77.3663538,Greenville 
Greenville South Carolina United States of America,3,2019-08-19,34.851354,-82.3984882,Greenville 
Harrisburg Pennsylvania United States of America,8,2019-08-19,40.2663107,-76.8861122,Harrisburg 
Hartford Connecticut United States of America,3,2019-08-19,41.764582,-72.6908547,Hartford 
Hattiesburg Mississippi United States of America,35,2019-08-19,31.3271189,-89.2903392,Hattiesburg 
Helena Montana United States of America,100,2019-08-19,46.5927425,-112.0362771,Helena 
Honolulu Hawaii United States of America,10,2019-08-19,21.304547,-157.8556764,Honolulu 
Houston Texas United States of America,1,2019-08-19,29.7589382,-95.3676974,Houston 
Indianapolis Indiana United States of America,3,2019-08-19,39.7683331,-86.1583502,Indianapolis 
Jackson Mississippi United States of America,9,2019-08-19,32.2990384,-90.1847691,Jackson 
Jacksonville Florida United States of America,4,2019-08-19,30.3321838,-81.655651,Jacksonville 
Johnstown Pennsylvania United States of America,10,2019-08-19,40.3267407,-78.9219698,Johnstown 
Jonesboro Arkansas United States of America,42,2019-08-19,35.8428646,-90.7034522,Jonesboro 
Kansas City Missouri United States of America,2,2019-08-19,39.100105,-94.5781416,Kansas City 
Knoxville Tennessee United States of America,5,2019-08-19,35.9603948,-83.9210261,Knoxville 
La Crosse Wisconsin United States of America,15,2019-08-19,43.8014053,-91.2395429,La Crosse 
Lansing Michigan United States of America,12,2019-08-19,42.7337712,-84.5553805,Lansing 
Las Vegas Nevada United States of America,3,2019-08-19,36.1672559,-115.1485163,Las Vegas 
Lexington Kentucky United States of America,6,2019-08-19,38.0464066,-84.4970393,Lexington 
Little Rock Arkansas United States of America,11,2019-08-19,34.7464809,-92.2895948,Little Rock 
Los Angeles California United States of America,1,2019-08-19,34.0536909,-118.2427666,Los Angeles 
Louisville Kentucky United States of America,4,2019-08-19,38.2542376,-85.759407,Louisville 
Memphis Tennessee United States of America,5,2019-08-19,35.1490215,-90.0516285,Memphis 
Miami Florida United States of America,2,2019-08-19,25.7742658,-80.1936589,Miami 
Milwaukee Wisconsin United States of America,3,2019-08-19,43.0349931,-87.922497,Milwaukee 
Minneapolis Minnesota United States of America,1,2019-08-19,44.9772995,-93.2654692,Minneapolis 
Mobile Alabama United States of America,5,2019-08-19,30.6943566,-88.0430541,Mobile 
Monroe Louisiana United States of America,51,2019-08-19,32.5093109,-92.1193012,Monroe 
Monterey California United States of America,10,2019-08-19,36.2231079,-121.3877428,Monterey 
Nashville Tennessee United States of America,2,2019-08-19,36.1622296,-86.7743531,Nashville 
New Orleans Louisiana United States of America,4,2019-08-19,29.9499323,-90.0701156,New Orleans 
New York New York United States of America,3,2019-08-19,36.1021436,-115.17449463280128,New York 
Norfolk Virginia United States of America,3,2019-08-19,36.8462923,-76.2929252,Norfolk 
Odessa Texas United States of America,16,2019-08-19,31.8457149,-102.367687,Odessa 
Orlando Florida United States of America,3,2019-08-19,28.5421109,-81.3790304,Orlando 
Panama City Florida United States of America,21,2019-08-19,30.1600827,-85.6545729,Panama City 
Philadelphia Pennsylvania United States of America,2,2019-08-19,39.9527237,-75.1635262,Philadelphia 
Phoenix Arizona United States of America,1,2019-08-19,33.4484367,-112.0741417,Phoenix 
Pittsburgh Pennsylvania United States of America,2,2019-08-19,40.4416941,-79.9900861,Pittsburgh 
Portland Oregon United States of America,5,2019-08-19,45.5202471,-122.6741949,Portland 
Raleigh North Carolina United States of America,3,2019-08-19,35.7803977,-78.6390989,Raleigh 
Richmond Virginia United States of America,7,2019-08-19,37.5385087,-77.43428,Richmond 
Sacramento California United States of America,5,2019-08-19,38.5815719,-121.4943996,Sacramento 
Salt Lake City Utah United States of America,3,2019-08-19,40.7596198,-111.8867975,Salt Lake City 
San Diego California United States of America,2,2019-08-19,32.7174209,-117.1627714,San Diego 
San Francisco California United States of America,1,2019-08-19,37.7790262,-122.4199061,San Francisco 
Savannah Georgia United States of America,7,2019-08-19,32.0809263,-81.0911768,Savannah 
Seattle Washington United States of America,1,2019-08-19,47.6038321,-122.3300624,Seattle 
Springfield Massachusetts United States of America,11,2019-08-19,42.1014831,-72.589811,Springfield 
St. Louis Missouri United States of America,4,2019-08-19,38.6529545,-90.24111656024635,St. Louis 
Syracuse New York United States of America,7,2019-08-19,43.0481221,-76.1474244,Syracuse 
Tallahassee Florida United States of America,15,2019-08-19,30.4380832,-84.2809332,Tallahassee 
Tampa Florida United States of America,2,2019-08-19,27.9477595,-82.458444,Tampa 
Toledo Ohio United States of America,7,2019-08-19,41.6786754,-83.5127283,Toledo 
Traverse City Michigan United States of America,13,2019-08-19,44.7606441,-85.6165301,Traverse City 
Washington District of Columbia United States of America,3,2019-08-19,38.8948932,-77.0365529,Washington 
West Palm Beach Florida United States of America,7,2019-08-19,26.715364,-80.0532942,West Palm Beach 
Abilene Texas United States of America,29,2019-08-26,32.44645,-99.7475905,Abilene 
Albany Georgia United States of America,26,2019-08-26,31.5782062,-84.1556809,Albany 
Albany New York United States of America,39,2019-08-26,42.6511674,-73.754968,Albany 
Albuquerque New Mexico United States of America,22,2019-08-26,35.0841034,-106.6509851,Albuquerque 
Alexandria Louisiana United States of America,31,2019-08-26,31.311248,-92.4449087,Alexandria 
Amarillo Texas United States of America,11,2019-08-26,35.2072185,-101.8338246,Amarillo 
Anchorage Alaska United States of America,20,2019-08-26,61.2163129,-149.8948523,Anchorage 
Atlanta Georgia United States of America,68,2019-08-26,33.7490987,-84.3901849,Atlanta 
Augusta Georgia United States of America,51,2019-08-26,33.4709714,-81.9748429,Augusta 
Austin Texas United States of America,38,2019-08-26,30.2711286,-97.7436995,Austin 
Bakersfield California United States of America,7,2019-08-26,35.3738712,-119.0194639,Bakersfield 
Baltimore Maryland United States of America,66,2019-08-26,39.2908816,-76.610759,Baltimore 
Bangor Maine United States of America,29,2019-08-26,44.8011821,-68.7778138,Bangor 
Baton Rouge Louisiana United States of America,36,2019-08-26,30.4459596,-91.18738,Baton Rouge 
Beaumont Texas United States of America,36,2019-08-26,30.0860459,-94.1018461,Beaumont 
Bend Oregon United States of America,82,2019-08-26,44.0581728,-121.3153096,Bend 
"Billings, Montana United States of America",31,2019-08-26,45.7874957,-108.49607,"Billings, "
Biloxi Mississippi United States of America,48,2019-08-26,30.374673,-88.84594333482862,Biloxi 
Binghamton New York United States of America,37,2019-08-26,42.096968,-75.914341,Binghamton 
Birmingham Alabama United States of America,33,2019-08-26,33.5206824,-86.8024326,Birmingham 
Bluefield West Virginia United States of America,22,2019-08-26,37.2698395,-81.2223195,Bluefield 
Boise Idaho United States of America,24,2019-08-26,43.6166163,-116.200886,Boise 
Boston Massachusetts United States of America,48,2019-08-26,42.3602534,-71.0582912,Boston 
Bowling Green Kentucky United States of America,24,2019-08-26,36.9903199,-86.4436018,Bowling Green 
Buffalo New York United States of America,34,2019-08-26,42.8867166,-78.8783922,Buffalo 
Burlington Vermont United States of America,48,2019-08-26,44.4762975,-73.2135472,Burlington 
Butte Montana United States of America,22,2019-08-26,46.0131505,-112.5365089,Butte 
Casper Wyoming United States of America,42,2019-08-26,42.866632,-106.313081,Casper 
Cedar Rapids Iowa United States of America,12,2019-08-26,41.9758872,-91.6704053,Cedar Rapids 
Champaign Illinois United States of America,21,2019-08-26,40.1164205,-88.2433829,Champaign 
Charleston South Carolina United States of America,39,2019-08-26,32.7876012,-79.9402728,Charleston 
Charleston West Virginia United States of America,16,2019-08-26,38.3505995,-81.6332812,Charleston 
Charlotte North Carolina United States of America,50,2019-08-26,35.2270869,-80.8431268,Charlotte 
Charlottesville Virginia United States of America,54,2019-08-26,38.029306,-78.4766781,Charlottesville 
Chattanooga Tennessee United States of America,24,2019-08-26,35.0457219,-85.3094883,Chattanooga 
Cheyenne Wyoming United States of America,55,2019-08-26,38.040803,-121.336657,Cheyenne 
Chicago Illinois United States of America,29,2019-08-26,41.8755616,-87.6244212,Chicago 
Chico California United States of America,21,2019-08-26,39.7284945,-121.8374777,Chico 
Cincinnati Ohio United States of America,37,2019-08-26,39.1014537,-84.5124602,Cincinnati 
Clarksburg West Virginia United States of America,26,2019-08-26,39.2806451,-80.3445341,Clarksburg 
Cleveland Ohio United States of America,30,2019-08-26,41.5051613,-81.6934446,Cleveland 
Colorado Springs Colorado United States of America,23,2019-08-26,38.8339578,-104.8253485,Colorado Springs 
Columbia South Carolina United States of America,37,2019-08-26,34.0007493,-81.0343313,Columbia 
Columbia Missouri United States of America,21,2019-08-26,38.951883,-92.3337366,Columbia 
Columbus Georgia United States of America,34,2019-08-26,32.4609764,-84.9877094,Columbus 
Columbus Ohio United States of America,34,2019-08-26,39.9622601,-83.0007065,Columbus 
Columbus Mississippi United States of America,32,2019-08-26,33.4956744,-88.4272627,Columbus 
Corpus Christi Texas United States of America,28,2019-08-26,27.7477253,-97.4014129,Corpus Christi 
Dallas Texas United States of America,29,2019-08-26,32.7762719,-96.7968559,Dallas 
Davenport Iowa United States of America,24,2019-08-26,41.5236436,-90.5776368,Davenport 
Dayton Ohio United States of America,24,2019-08-26,39.7589478,-84.1916069,Dayton 
Denver Colorado United States of America,29,2019-08-26,39.7392364,-104.9848623,Denver 
Des Moines Iowa United States of America,12,2019-08-26,41.5910641,-93.6037149,Des Moines 
Detroit Michigan United States of America,37,2019-08-26,42.3315509,-83.0466403,Detroit 
Dothan Alabama United States of America,38,2019-08-26,31.2237434,-85.3933906,Dothan 
Duluth Minnesota United States of America,32,2019-08-26,46.7729322,-92.1251218,Duluth 
El Paso Texas United States of America,19,2019-08-26,31.7754152,-106.4646348,El Paso 
Elmira New York United States of America,25,2019-08-26,42.0897965,-76.8077338,Elmira 
Erie Pennsylvania United States of America,27,2019-08-26,42.1294712,-80.0852695,Erie 
Eugene Oregon United States of America,35,2019-08-26,44.0505054,-123.0950506,Eugene 
Evansville Indiana United States of America,16,2019-08-26,37.9747645,-87.5558483,Evansville 
Fairbanks Alaska United States of America,42,2019-08-26,64.837845,-147.716675,Fairbanks 
Fargo North Dakota United States of America,33,2019-08-26,46.877229,-96.789821,Fargo 
Flint Michigan United States of America,38,2019-08-26,43.0161693,-83.6900211,Flint 
Florence South Carolina United States of America,23,2019-08-26,34.1984435,-79.7671658,Florence 
Fresno California United States of America,17,2019-08-26,36.7295295,-119.70886126075588,Fresno 
Ft. Myers Florida United States of America,52,2019-08-26,26.640628,-81.8723084,Ft. Myers 
Ft. Smith Arkansas United States of America,23,2019-08-26,35.3872218,-94.4248983,Ft. Smith 
Ft. Wayne Indiana United States of America,22,2019-08-26,41.0799898,-85.1386015,Ft. Wayne 
Gainesville Florida United States of America,30,2019-08-26,29.6519684,-82.3249846,Gainesville 
Grand Rapids Michigan United States of America,33,2019-08-26,42.9632405,-85.6678639,Grand Rapids 
Great Falls Montana United States of America,41,2019-08-26,47.5048851,-111.2918908,Great Falls 
Green Bay Wisconsin United States of America,22,2019-08-26,44.5126379,-88.0125794,Green Bay 
Greensboro North Carolina United States of America,48,2019-08-26,36.0726355,-79.7919754,Greensboro 
Greenville North Carolina United States of America,32,2019-08-26,35.612661,-77.3663538,Greenville 
Greenville South Carolina United States of America,35,2019-08-26,34.851354,-82.3984882,Greenville 
Greenwood Mississippi United States of America,100,2019-08-26,33.5162315,-90.1795281,Greenwood 
Harlingen Texas United States of America,11,2019-08-26,26.1908241,-97.6959794,Harlingen 
Harrisburg Pennsylvania United States of America,24,2019-08-26,40.2663107,-76.8861122,Harrisburg 
Harrisonburg Virginia United States of America,37,2019-08-26,38.4493315,-78.8688833,Harrisonburg 
Hartford Connecticut United States of America,57,2019-08-26,41.764582,-72.6908547,Hartford 
Hattiesburg Mississippi United States of America,40,2019-08-26,31.3271189,-89.2903392,Hattiesburg 
Helena Montana United States of America,69,2019-08-26,46.5927425,-112.0362771,Helena 
Honolulu Hawaii United States of America,35,2019-08-26,21.304547,-157.8556764,Honolulu 
Houston Texas United States of America,39,2019-08-26,29.7589382,-95.3676974,Houston 
Huntsville Alabama United States of America,23,2019-08-26,34.729847,-86.5859011,Huntsville 
Idaho Falls Idaho United States of America,36,2019-08-26,43.4935245,-112.0400919,Idaho Falls 
Indianapolis Indiana United States of America,31,2019-08-26,39.7683331,-86.1583502,Indianapolis 
Jackson Mississippi United States of America,46,2019-08-26,32.2990384,-90.1847691,Jackson 
Jackson Tennessee United States of America,26,2019-08-26,35.6144446,-88.8177418,Jackson 
Jacksonville Florida United States of America,29,2019-08-26,30.3321838,-81.655651,Jacksonville 
Johnstown Pennsylvania United States of America,25,2019-08-26,40.3267407,-78.9219698,Johnstown 
Jonesboro Arkansas United States of America,28,2019-08-26,35.8428646,-90.7034522,Jonesboro 
Kansas City Missouri United States of America,24,2019-08-26,39.100105,-94.5781416,Kansas City 
Knoxville Tennessee United States of America,29,2019-08-26,35.9603948,-83.9210261,Knoxville 
La Crosse Wisconsin United States of America,20,2019-08-26,43.8014053,-91.2395429,La Crosse 
Lafayette Indiana United States of America,25,2019-08-26,40.4167022,-86.8752869,Lafayette 
Lafayette Louisiana United States of America,30,2019-08-26,30.2240897,-92.0198427,Lafayette 
Lake Charles Louisiana United States of America,44,2019-08-26,30.2265949,-93.2173759,Lake Charles 
Lansing Michigan United States of America,26,2019-08-26,42.7337712,-84.5553805,Lansing 
Las Vegas Nevada United States of America,39,2019-08-26,36.1672559,-115.1485163,Las Vegas 
Lexington Kentucky United States of America,29,2019-08-26,38.0464066,-84.4970393,Lexington 
Lima Ohio United States of America,38,2019-08-26,40.7399785,-84.105006,Lima 
Lincoln Nebraska United States of America,13,2019-08-26,40.8088861,-96.7077751,Lincoln 
Little Rock Arkansas United States of America,32,2019-08-26,34.7464809,-92.2895948,Little Rock 
Los Angeles California United States of America,28,2019-08-26,34.0536909,-118.2427666,Los Angeles 
Louisville Kentucky United States of America,40,2019-08-26,38.2542376,-85.759407,Louisville 
Lubbock Texas United States of America,18,2019-08-26,33.5635206,-101.879336,Lubbock 
Macon Georgia United States of America,65,2019-08-26,32.8406946,-83.6324022,Macon 
Madison Wisconsin United States of America,29,2019-08-26,43.074761,-89.3837613,Madison 
Mankato Minnesota United States of America,53,2019-08-26,44.1634663,-93.9993505,Mankato 
Marquette Michigan United States of America,26,2019-08-26,46.4481521,-87.6305899,Marquette 
Medford Oregon United States of America,19,2019-08-26,42.3264181,-122.8718605,Medford 
Memphis Tennessee United States of America,40,2019-08-26,35.1490215,-90.0516285,Memphis 
Miami Florida United States of America,44,2019-08-26,25.7742658,-80.1936589,Miami 
Milwaukee Wisconsin United States of America,26,2019-08-26,43.0349931,-87.922497,Milwaukee 
Minneapolis Minnesota United States of America,23,2019-08-26,44.9772995,-93.2654692,Minneapolis 
Minot North Dakota United States of America,13,2019-08-26,48.23251,-101.296273,Minot 
Missoula Montana United States of America,33,2019-08-26,46.8701049,-113.9952672,Missoula 
Mobile Alabama United States of America,29,2019-08-26,30.6943566,-88.0430541,Mobile 
Monroe Louisiana United States of America,40,2019-08-26,32.5093109,-92.1193012,Monroe 
Monterey California United States of America,9,2019-08-26,36.2231079,-121.3877428,Monterey 
Montgomery Alabama United States of America,47,2019-08-26,32.3669656,-86.3006485,Montgomery 
Nashville Tennessee United States of America,30,2019-08-26,36.1622296,-86.7743531,Nashville 
New Orleans Louisiana United States of America,44,2019-08-26,29.9499323,-90.0701156,New Orleans 
New York New York United States of America,76,2019-08-26,36.1021436,-115.17449463280128,New York 
Norfolk Virginia United States of America,56,2019-08-26,36.8462923,-76.2929252,Norfolk 
Odessa Texas United States of America,16,2019-08-26,31.8457149,-102.367687,Odessa 
Oklahoma City Oklahoma United States of America,19,2019-08-26,35.4729886,-97.5170536,Oklahoma City 
Omaha Nebraska United States of America,39,2019-08-26,41.2587459,-95.9383758,Omaha 
Orlando Florida United States of America,34,2019-08-26,28.5421109,-81.3790304,Orlando 
Ottumwa Iowa United States of America,52,2019-08-26,41.0200145,-92.4112963,Ottumwa 
Paducah Kentucky United States of America,14,2019-08-26,37.0833893,-88.6000478,Paducah 
Palm Springs California United States of America,59,2019-08-26,33.8246269,-116.540303,Palm Springs 
Panama City Florida United States of America,51,2019-08-26,30.1600827,-85.6545729,Panama City 
Parkersburg West Virginia United States of America,43,2019-08-26,39.2699565,-81.5506916,Parkersburg 
Peoria Illinois United States of America,28,2019-08-26,40.6938609,-89.5891008,Peoria 
Philadelphia Pennsylvania United States of America,49,2019-08-26,39.9527237,-75.1635262,Philadelphia 
Phoenix Arizona United States of America,23,2019-08-26,33.4484367,-112.0741417,Phoenix 
Pittsburgh Pennsylvania United States of America,29,2019-08-26,40.4416941,-79.9900861,Pittsburgh 
Portland Oregon United States of America,25,2019-08-26,45.5202471,-122.6741949,Portland 
Portland Maine United States of America,44,2019-08-26,43.6610277,-70.2548596,Portland 
Providence Rhode Island United States of America,39,2019-08-26,41.8239891,-71.4128343,Providence 
Raleigh North Carolina United States of America,49,2019-08-26,35.7803977,-78.6390989,Raleigh 
Rapid City South Dakota United States of America,41,2019-08-26,44.081176,-103.228006,Rapid City 
Reno Nevada United States of America,31,2019-08-26,39.5261206,-119.8126581,Reno 
Richmond Virginia United States of America,65,2019-08-26,37.5385087,-77.43428,Richmond 
Roanoke Virginia United States of America,24,2019-08-26,37.270973,-79.9414313,Roanoke 
Rochester Minnesota United States of America,31,2019-08-26,44.0234387,-92.4630182,Rochester 
Rochester New York United States of America,43,2019-08-26,43.157285,-77.615214,Rochester 
Rockford Illinois United States of America,30,2019-08-26,42.2713945,-89.093966,Rockford 
Sacramento California United States of America,21,2019-08-26,38.5815719,-121.4943996,Sacramento 
Salisbury Maryland United States of America,47,2019-08-26,38.3662114,-75.6008881,Salisbury 
Salt Lake City Utah United States of America,26,2019-08-26,40.7596198,-111.8867975,Salt Lake City 
San Angelo Texas United States of America,29,2019-08-26,31.4648357,-100.4398442,San Angelo 
San Antonio Texas United States of America,32,2019-08-26,29.4246002,-98.4951405,San Antonio 
San Diego California United States of America,27,2019-08-26,32.7174209,-117.1627714,San Diego 
San Francisco California United States of America,33,2019-08-26,37.7790262,-122.4199061,San Francisco 
Santa Barbara California United States of America,39,2019-08-26,34.4221319,-119.7026673,Santa Barbara 
Savannah Georgia United States of America,53,2019-08-26,32.0809263,-81.0911768,Savannah 
Seattle Washington United States of America,25,2019-08-26,47.6038321,-122.3300624,Seattle 
Sherman Texas United States of America,43,2019-08-26,36.2452294,-101.8858689,Sherman 
Shreveport Louisiana United States of America,30,2019-08-26,32.5221828,-93.7651944,Shreveport 
Sioux City Iowa United States of America,23,2019-08-26,42.4966815,-96.4058782,Sioux City 
Sioux Falls South Dakota United States of America,13,2019-08-26,43.5499749,-96.700327,Sioux Falls 
South Bend Indiana United States of America,21,2019-08-26,41.6833813,-86.2500066,South Bend 
Spokane Washington United States of America,21,2019-08-26,47.6579425,-117.4212265,Spokane 
Springfield Missouri United States of America,20,2019-08-26,37.2166779,-93.2920373,Springfield 
Springfield Massachusetts United States of America,34,2019-08-26,42.1014831,-72.589811,Springfield 
St. Louis Missouri United States of America,26,2019-08-26,38.6529545,-90.24111656024635,St. Louis 
Syracuse New York United States of America,45,2019-08-26,43.0481221,-76.1474244,Syracuse 
Tallahassee Florida United States of America,51,2019-08-26,30.4380832,-84.2809332,Tallahassee 
Tampa Florida United States of America,41,2019-08-26,27.9477595,-82.458444,Tampa 
Terre Haute Indiana United States of America,18,2019-08-26,39.4667025,-87.4139119,Terre Haute 
Toledo Ohio United States of America,37,2019-08-26,41.6786754,-83.5127283,Toledo 
Topeka Kansas United States of America,33,2019-08-26,39.049011,-95.677556,Topeka 
Traverse City Michigan United States of America,36,2019-08-26,44.7606441,-85.6165301,Traverse City 
Tri Virginia United States of America,15,2019-08-26,38.5467876,-77.3366491,Tri 
Tucson Arizona United States of America,23,2019-08-26,32.2228765,-110.9748477,Tucson 
Tulsa Oklahoma United States of America,19,2019-08-26,36.1556805,-95.9929113,Tulsa 
Twin Falls Idaho United States of America,61,2019-08-26,42.5704219,-114.4603171,Twin Falls 
Tyler Texas United States of America,19,2019-08-26,32.3512601,-95.3010624,Tyler 
Utica New York United States of America,33,2019-08-26,43.1009031,-75.2326641,Utica 
Waco Texas United States of America,32,2019-08-26,31.549333,-97.1466695,Waco 
Washington District of Columbia United States of America,56,2019-08-26,38.8948932,-77.0365529,Washington 
Watertown New York United States of America,23,2019-08-26,43.9747838,-75.9107565,Watertown 
Wausau Wisconsin United States of America,32,2019-08-26,44.9596017,-89.6298239,Wausau 
West Palm Beach Florida United States of America,99,2019-08-26,26.715364,-80.0532942,West Palm Beach 
Wheeling West Virginia United States of America,30,2019-08-26,40.0639616,-80.7209149,Wheeling 
Wichita Falls Texas United States of America,14,2019-08-26,33.9137085,-98.4933873,Wichita Falls 
Wichita Kansas United States of America,18,2019-08-26,37.6922361,-97.3375448,Wichita 
Wilkes Barre Pennsylvania United States of America,25,2019-08-26,41.2464824,-75.8817316,Wilkes Barre 
Wilmington North Carolina United States of America,61,2019-08-26,34.2257282,-77.9447107,Wilmington 
Yakima Washington United States of America,24,2019-08-26,46.601557,-120.5108421,Yakima 
Youngstown Ohio United States of America,36,2019-08-26,41.1035786,-80.6520161,Youngstown 
Abilene Texas United States of America,37,2019-09-02,32.44645,-99.7475905,Abilene 
Albany Georgia United States of America,29,2019-09-02,31.5782062,-84.1556809,Albany 
Albany New York United States of America,11,2019-09-02,42.6511674,-73.754968,Albany 
Albuquerque New Mexico United States of America,5,2019-09-02,35.0841034,-106.6509851,Albuquerque 
Alexandria Louisiana United States of America,60,2019-09-02,31.311248,-92.4449087,Alexandria 
Anchorage Alaska United States of America,20,2019-09-02,61.2163129,-149.8948523,Anchorage 
Atlanta Georgia United States of America,17,2019-09-02,33.7490987,-84.3901849,Atlanta 
Augusta Georgia United States of America,14,2019-09-02,33.4709714,-81.9748429,Augusta 
Austin Texas United States of America,14,2019-09-02,30.2711286,-97.7436995,Austin 
Baltimore Maryland United States of America,14,2019-09-02,39.2908816,-76.610759,Baltimore 
Bangor Maine United States of America,26,2019-09-02,44.8011821,-68.7778138,Bangor 
