geoName,interest,date,lat,long
Boston MA,4,2019-01-01,42.3602534,-71.0582912
Chicago IL,3,2019-01-01,41.8755616,-87.6244212
Dallas,3,2019-01-01,32.7762719,-96.7968559
Grand Rapids,18,2019-01-01,42.9632405,-85.6678639
Rochester NY,34,2019-01-01,43.157285,-77.615214
Sacramento,8,2019-01-01,38.5815719,-121.4943996
South Bend,100,2019-01-01,41.6833813,-86.2500066
St. Louis MO,10,2019-01-01,38.6529545,-90.24111656024635
Wilkes Barre,28,2019-01-01,41.2464824,-75.8817316
Paducah KY,100,2019-01-07,37.0833893,-88.6000478
Wilkes Barre,54,2019-01-07,41.2464824,-75.8817316
Indianapolis IN,7,2019-01-14,39.7683331,-86.1583502
Utica NY,100,2019-01-14,43.1009031,-75.2326641
Austin TX,24,2019-01-21,30.2711286,-97.7436995
Milwaukee WI,27,2019-01-21,43.0349931,-87.922497
New York NY,3,2019-01-21,40.7127281,-74.0060152
South Bend,100,2019-01-21,41.6833813,-86.2500066
Tampa,14,2019-01-21,27.9477595,-82.458444
West Palm Beach,36,2019-01-21,26.7153425,-80.0533746
Fresno,48,2019-01-28,36.7295295,-119.70886126075588
Indianapolis IN,24,2019-01-28,39.7683331,-86.1583502
Knoxville TN,62,2019-01-28,35.9603948,-83.9210261
South Bend,100,2019-01-28,41.6833813,-86.2500066
Chicago IL,5,2019-02-04,41.8755616,-87.6244212
Monterey,100,2019-02-04,36.2231079,-121.3877428
New York NY,2,2019-02-04,40.7127281,-74.0060152
Philadelphia PA,7,2019-02-04,39.9527237,-75.1635262
San Diego CA,16,2019-02-04,32.7174209,-117.1627714
South Bend,93,2019-02-04,41.6833813,-86.2500066
Washington DC,7,2019-02-04,38.8948932,-77.0365529
Charleston SC,100,2019-02-11,32.7876012,-79.9402728
Chicago IL,7,2019-02-11,41.8755616,-87.6244212
Seattle,14,2019-02-11,47.6038321,-122.3300624
Atlanta GA,15,2019-02-18,33.7490987,-84.3901849
Chicago IL,10,2019-02-18,41.8755616,-87.6244212
New York NY,4,2019-02-18,40.7127281,-74.0060152
Providence RI,74,2019-02-18,51.4325409,-2.6642358
Wilkes Barre,100,2019-02-18,41.2464824,-75.8817316
Johnstown,100,2019-02-25,40.3267407,-78.9219698
Nashville TN,20,2019-02-25,36.1622296,-86.7743531
South Bend,94,2019-02-25,41.6833813,-86.2500066
Atlanta GA,10,2019-03-04,33.7490987,-84.3901849
Dallas,8,2019-03-04,32.7762719,-96.7968559
Huntsville,100,2019-03-04,34.729847,-86.5859011
New York NY,3,2019-03-04,40.7127281,-74.0060152
Roanoke,78,2019-03-04,37.270973,-79.9414313
Boston MA,9,2019-03-11,42.3602534,-71.0582912
New York NY,2,2019-03-11,40.7127281,-74.0060152
South Bend,100,2019-03-11,41.6833813,-86.2500066
Norfolk,35,2019-03-18,52.666667,1.0
San Francisco,7,2019-03-18,37.7790262,-122.4199061
South Bend,100,2019-03-18,41.6833813,-86.2500066
Chicago IL,6,2019-03-25,41.8755616,-87.6244212
New Orleans LA,41,2019-03-25,29.9499323,-90.0701156
New York NY,2,2019-03-25,40.7127281,-74.0060152
South Bend,100,2019-03-25,41.6833813,-86.2500066
Los Angeles CA,21,2019-04-01,34.0536909,-118.2427666
New York NY,14,2019-04-01,40.7127281,-74.0060152
Raleigh,100,2019-04-01,35.7803977,-78.6390989
Baltimore MD,16,2019-04-08,39.2908816,-76.610759
Cleveland,11,2019-04-08,41.5051613,-81.6934446
Houston TX,6,2019-04-08,29.7589382,-95.3676974
Indianapolis IN,16,2019-04-08,39.7683331,-86.1583502
La Crosse,100,2019-04-08,43.8014053,-91.2395429
Las Vegas NV,20,2019-04-08,36.1672559,-115.1485163
Milwaukee WI,17,2019-04-08,43.0349931,-87.922497
Nashville TN,14,2019-04-08,36.1622296,-86.7743531
Raleigh,10,2019-04-08,35.7803977,-78.6390989
Abilene,11,2019-04-15,32.44645,-99.7475905
Albany GA,9,2019-04-15,51.7468576,-0.3383107
Albany,17,2019-04-15,42.6511674,-73.754968
Albuquerque,16,2019-04-15,35.0841034,-106.6509851
Alexandria LA,10,2019-04-15,31.199004,29.894378
Alpena MI,13,2019-04-15,45.0176181,-83.6670019
Amarillo TX,14,2019-04-15,35.2072185,-101.8338246
Anchorage AK,13,2019-04-15,61.2163129,-149.8948523
Atlanta GA,12,2019-04-15,33.7490987,-84.3901849
Augusta GA,10,2019-04-15,33.4709714,-81.9748429
Austin TX,14,2019-04-15,30.2711286,-97.7436995
Bakersfield CA,11,2019-04-15,35.3738712,-119.0194639
Baltimore MD,13,2019-04-15,39.2908816,-76.610759
Bangor ME,12,2019-04-15,29.0659229,-110.97133
Baton Rouge LA,13,2019-04-15,30.4459596,-91.18738
Beaumont,8,2019-04-15,30.0860459,-94.1018461
Bend OR,19,2019-04-15,44.0581728,-121.3153096
"Billings, MT",18,2019-04-15,45.7874957,-108.49607
Biloxi,10,2019-04-15,30.374673,-88.84594333482862
Binghamton NY,17,2019-04-15,42.096968,-75.914341
Birmingham AL,10,2019-04-15,33.570499,-86.765783
Bluefield,12,2019-04-15,37.2698395,-81.2223195
Boise ID,17,2019-04-15,43.6166163,-116.200886
Boston MA,14,2019-04-15,42.3602534,-71.0582912
Bowling Green KY,14,2019-04-15,36.9903199,-86.4436018
Buffalo NY,15,2019-04-15,42.8867166,-78.8783922
Burlington VT,20,2019-04-15,44.4762975,-73.2135472
Butte,16,2019-04-15,39.6519275,-121.5858444
Casper,11,2019-04-15,42.866632,-106.313081
Cedar Rapids,15,2019-04-15,41.9758872,-91.6704053
Champaign,16,2019-04-15,40.1164205,-88.2433829
Charleston SC,15,2019-04-15,32.7876012,-79.9402728
Charleston,8,2019-04-15,32.7876012,-79.9402728
Charlotte NC,14,2019-04-15,35.2270869,-80.8431268
Charlottesville VA,20,2019-04-15,38.029306,-78.4766781
Chattanooga TN,13,2019-04-15,35.0457219,-85.3094883
Cheyenne WY,17,2019-04-15,45.2519491,-75.7306849
Chicago IL,15,2019-04-15,41.8755616,-87.6244212
Chico,12,2019-04-15,39.7284945,-121.8374777
Cincinnati OH,15,2019-04-15,39.1014537,-84.5124602
Clarksburg,13,2019-04-15,39.2806451,-80.3445341
Cleveland,15,2019-04-15,41.5051613,-81.6934446
Colorado Springs,15,2019-04-15,38.8339578,-104.8253485
Columbia SC,12,2019-04-15,34.0007493,-81.0343313
Columbia,12,2019-04-15,2.8894434,-73.783892
Columbus GA,11,2019-04-15,43.1830762,-79.8147518
Columbus OH,15,2019-04-15,39.9622601,-83.0007065
Columbus,7,2019-04-15,39.9622601,-83.0007065
Corpus Christi TX,7,2019-04-15,27.7477253,-97.4014129
Dallas,12,2019-04-15,32.7762719,-96.7968559
Davenport IA,13,2019-04-15,41.5236436,-90.5776368
Dayton OH,13,2019-04-15,39.7589478,-84.1916069
Denver CO,18,2019-04-15,39.7348381,-104.9653271
Des Moines,14,2019-04-15,41.5910641,-93.6037149
Detroit MI,15,2019-04-15,42.3315509,-83.0466403
Dothan AL,9,2019-04-15,31.2237434,-85.3933906
Duluth MN,16,2019-04-15,46.7729322,-92.1251218
El Paso TX,9,2019-04-15,31.7754152,-106.4646348
Elmira NY,11,2019-04-15,42.0897965,-76.8077338
Erie PA,14,2019-04-15,42.1294712,-80.0852695
Eugene OR,18,2019-04-15,44.0505054,-123.0950506
Eureka CA,17,2019-04-15,45.4985271,-62.6816736
Evansville IN,15,2019-04-15,4.5777639,-7.6472486
Fairbanks AK,12,2019-04-15,64.837845,-147.716675
Fargo,13,2019-04-15,46.877229,-96.789821
Flint,14,2019-04-15,43.0161693,-83.6900211
Florence,9,2019-04-15,43.7698712,11.2555757
Fresno,9,2019-04-15,36.7295295,-119.70886126075588
Ft. Myers,13,2019-04-15,26.640628,-81.8723084
Ft. Smith,15,2019-04-15,35.3872218,-94.4248983
Ft. Wayne IN,14,2019-04-15,41.0799898,-85.1386015
Gainesville FL,14,2019-04-15,29.67357765,-82.32337460192167
Glendive MT,100,2019-04-15,47.10529,-104.71246
Grand Junction,16,2019-04-15,39.063956,-108.5507317
Grand Rapids,15,2019-04-15,42.9632405,-85.6678639
Great Falls MT,13,2019-04-15,47.5048851,-111.2918908
Green Bay,15,2019-04-15,44.5126379,-88.0125794
Greensboro,13,2019-04-15,36.0726355,-79.7919754
Greenville,11,2019-04-15,34.851354,-82.3984882
Greenville,15,2019-04-15,34.851354,-82.3984882
Greenwood,8,2019-04-15,37.8709542,-96.2471338
Harlingen,5,2019-04-15,26.1908241,-97.6959794
Harrisburg,16,2019-04-15,40.2663107,-76.8861122
Harrisonburg VA,14,2019-04-15,38.4493315,-78.8688833
Hartford,14,2019-04-15,41.764582,-72.6908547
Hattiesburg,8,2019-04-15,31.3271189,-89.2903392
Helena MT,18,2019-04-15,46.5927425,-112.0362771
Honolulu HI,15,2019-04-15,21.304547,-157.8556764
Houston TX,11,2019-04-15,29.7589382,-95.3676974
Huntsville,11,2019-04-15,34.729847,-86.5859011
Idaho Falls,20,2019-04-15,43.4935245,-112.0400919
Indianapolis IN,16,2019-04-15,39.7683331,-86.1583502
Jackson MS,9,2019-04-15,28.530801699999998,-81.30324431076107
Jackson TN,9,2019-04-15,35.6144446,-88.8177418
Jacksonville FL,13,2019-04-15,30.3321838,-81.655651
Johnstown,14,2019-04-15,40.3267407,-78.9219698
Jonesboro AR,10,2019-04-15,35.8428646,-90.7034522
Joplin MO,14,2019-04-15,37.08418,-94.51323
Juneau AK,22,2019-04-15,58.3019496,-134.419734
Kansas City MO,14,2019-04-15,39.100105,-94.5781416
Knoxville TN,13,2019-04-15,35.9603948,-83.9210261
La Crosse,13,2019-04-15,43.8014053,-91.2395429
Lafayette IN,19,2019-04-15,40.4167022,-86.8752869
Lafayette LA,9,2019-04-15,30.2240897,-92.0198427
Lake Charles LA,16,2019-04-15,30.2265949,-93.2173759
Lansing MI,12,2019-04-15,42.7338147,-84.5207088
Laredo TX,7,2019-04-15,27.5199841,-99.4953764
Las Vegas NV,10,2019-04-15,36.1672559,-115.1485163
Lexington KY,13,2019-04-15,38.0464066,-84.4970393
Lima OH,11,2019-04-15,40.7399785,-84.105006
Lincoln,16,2019-04-15,47.8299069,-118.414727
Little Rock,11,2019-04-15,34.7464809,-92.2895948
Los Angeles CA,13,2019-04-15,34.0536909,-118.2427666
Louisville KY,12,2019-04-15,38.2542376,-85.759407
Lubbock TX,12,2019-04-15,33.5635206,-101.879336
Macon GA,11,2019-04-15,32.8406946,-83.6324022
Madison WI,17,2019-04-15,43.074761,-89.3837613
Mankato MN,15,2019-04-15,44.1634663,-93.9993505
Marquette MI,15,2019-04-15,46.4481521,-87.6305899
Medford,14,2019-04-15,42.4184296,-71.1061639
Memphis TN,12,2019-04-15,35.1490215,-90.0516285
Meridian MS,11,2019-04-15,43.61732135,-116.40613112241579
Miami,12,2019-04-15,25.7742658,-80.1936589
Milwaukee WI,14,2019-04-15,43.0349931,-87.922497
Minneapolis,15,2019-04-15,44.9772995,-93.2654692
Minot,12,2019-04-15,47.6698594,4.8786165
Missoula MT,19,2019-04-15,46.8701049,-113.9952672
Mobile AL,12,2019-04-15,39.092585,-84.853229
Monroe LA,9,2019-04-15,38.2722313,-90.1792484
Monterey,14,2019-04-15,36.2231079,-121.3877428
Montgomery,10,2019-04-15,32.3669656,-86.3006485
Nashville TN,12,2019-04-15,36.1622296,-86.7743531
New Orleans LA,12,2019-04-15,29.9499323,-90.0701156
New York NY,14,2019-04-15,40.7127281,-74.0060152
Norfolk,11,2019-04-15,52.666667,1.0
North Platte NE,20,2019-04-15,41.1238873,-100.7654232
Odessa,7,2019-04-15,46.4873195,30.7392776
Oklahoma City OK,17,2019-04-15,35.4729886,-97.5170536
Omaha NE,12,2019-04-15,41.2587459,-95.9383758
Orlando,13,2019-04-15,28.5421109,-81.3790304
Ottumwa IA,11,2019-04-15,41.0200145,-92.4112963
Paducah KY,13,2019-04-15,37.0833893,-88.6000478
Palm Springs CA,13,2019-04-15,33.8246269,-116.540303
Panama City FL,12,2019-04-15,30.1600827,-85.6545729
Parkersburg WV,7,2019-04-15,39.2699565,-81.5506916
Peoria,17,2019-04-15,40.6938609,-89.5891008
Philadelphia PA,14,2019-04-15,39.9527237,-75.1635262
Phoenix AZ,13,2019-04-15,33.4484367,-112.0741417
Pittsburgh PA,16,2019-04-15,40.4416941,-79.9900861
Portland OR,18,2019-04-15,45.5202471,-122.6741949
Portland,15,2019-04-15,45.5202471,-122.6741949
Presque Isle ME,30,2019-04-15,46.681479,-68.016357
Providence RI,18,2019-04-15,51.4325409,-2.6642358
Quincy IL,15,2019-04-15,39.9368363,-120.9471764
Raleigh,12,2019-04-15,35.7803977,-78.6390989
Rapid City SD,9,2019-04-15,44.081176,-103.228006
Reno NV,15,2019-04-15,39.5261206,-119.8126581
Richmond,15,2019-04-15,37.5385087,-77.43428
Roanoke,14,2019-04-15,37.270973,-79.9414313
Rochester MN,16,2019-04-15,44.0234387,-92.4630182
Rochester NY,16,2019-04-15,43.157285,-77.615214
Rockford IL,13,2019-04-15,42.2713945,-89.093966
Sacramento,12,2019-04-15,38.5815719,-121.4943996
Salisbury MD,9,2019-04-15,38.3662114,-75.6008881
Salt Lake City UT,19,2019-04-15,40.7596198,-111.8867975
San Angelo TX,9,2019-04-15,31.4648357,-100.4398442
San Antonio TX,11,2019-04-15,29.4246002,-98.4951405
San Diego CA,15,2019-04-15,32.7174209,-117.1627714
San Francisco,15,2019-04-15,37.7790262,-122.4199061
Santa Barbara,18,2019-04-15,34.4221319,-119.7026673
Savannah GA,12,2019-04-15,43.4129206,-79.7028276
Seattle,18,2019-04-15,47.6038321,-122.3300624
Sherman TX,10,2019-04-15,36.2452294,-101.8858689
Shreveport LA,7,2019-04-15,32.5221828,-93.7651944
Sioux City IA,13,2019-04-15,42.4966815,-96.4058782
Sioux Fall,15,2019-04-15,46.737158,-90.8801835
South Bend,20,2019-04-15,41.6833813,-86.2500066
Spokane WA,17,2019-04-15,47.6579425,-117.4212265
Springfield MO,13,2019-04-15,37.2166779,-93.2920373
Springfield,17,2019-04-15,39.7990175,-89.6439575
St. Joseph MO,11,2019-04-15,39.7686055,-94.8466322
St. Louis MO,15,2019-04-15,38.6529545,-90.24111656024635
Syracuse NY,16,2019-04-15,43.0481221,-76.1474244
Tallahassee FL,14,2019-04-15,30.4380832,-84.2809332
Tampa,14,2019-04-15,27.9477595,-82.458444
Terre Haute IN,12,2019-04-15,39.4667025,-87.4139119
Toledo OH,12,2019-04-15,41.6786754,-83.5127283
Topeka KS,15,2019-04-15,39.049011,-95.677556
Traverse City,18,2019-04-15,44.7606441,-85.6165301
Tri,12,2019-04-15,35.875259,-78.7751271
Tucson,16,2019-04-15,32.2228765,-110.9748477
Tulsa OK,13,2019-04-15,36.1556805,-95.9929113
Twin Falls ID,16,2019-04-15,42.5704219,-114.4603171
Tyler,9,2019-04-15,32.3512601,-95.3010624
Utica NY,11,2019-04-15,43.1009031,-75.2326641
Victoria TX,13,2019-04-15,28.8026443,-96.9766308
Waco,13,2019-04-15,31.549333,-97.1466695
Washington DC,16,2019-04-15,38.8948932,-77.0365529
Watertown NY,16,2019-04-15,43.9747838,-75.9107565
Wausau,13,2019-04-15,44.9596017,-89.6298239
West Palm Beach,13,2019-04-15,26.7153425,-80.0533746
Wheeling WV,14,2019-04-15,40.0639616,-80.7209149
Wichita Falls TX,8,2019-04-15,33.9137085,-98.4933873
Wichita,14,2019-04-15,37.6922361,-97.3375448
Wilkes Barre,12,2019-04-15,41.2464824,-75.8817316
Wilmington NC,22,2019-04-15,34.2257282,-77.9447107
Yakima,15,2019-04-15,46.601557,-120.5108421
Youngstown OH,13,2019-04-15,41.1035786,-80.6520161
Yuma AZ,5,2019-04-15,32.6926588,-114.6276157
Zanesville OH,21,2019-04-15,39.9403453,-82.0131924
Albany GA,18,2019-04-22,51.7468576,-0.3383107
Albany,14,2019-04-22,42.6511674,-73.754968
Albuquerque,9,2019-04-22,35.0841034,-106.6509851
Amarillo TX,12,2019-04-22,35.2072185,-101.8338246
Anchorage AK,11,2019-04-22,61.2163129,-149.8948523
Atlanta GA,7,2019-04-22,33.7490987,-84.3901849
Augusta GA,11,2019-04-22,33.4709714,-81.9748429
Austin TX,9,2019-04-22,30.2711286,-97.7436995
Bakersfield CA,8,2019-04-22,35.3738712,-119.0194639
Baltimore MD,7,2019-04-22,39.2908816,-76.610759
Bangor ME,36,2019-04-22,29.0659229,-110.97133
Baton Rouge LA,6,2019-04-22,30.4459596,-91.18738
Bend OR,23,2019-04-22,44.0581728,-121.3153096
"Billings, MT",22,2019-04-22,45.7874957,-108.49607
Biloxi,16,2019-04-22,30.374673,-88.84594333482862
Birmingham AL,7,2019-04-22,33.570499,-86.765783
Boise ID,18,2019-04-22,43.6166163,-116.200886
Boston MA,7,2019-04-22,42.3602534,-71.0582912
Buffalo NY,13,2019-04-22,42.8867166,-78.8783922
Burlington VT,14,2019-04-22,44.4762975,-73.2135472
Cedar Rapids,11,2019-04-22,41.9758872,-91.6704053
Champaign,8,2019-04-22,40.1164205,-88.2433829
Charleston SC,5,2019-04-22,32.7876012,-79.9402728
Charleston,6,2019-04-22,32.7876012,-79.9402728
Charlotte NC,3,2019-04-22,35.2270869,-80.8431268
Charlottesville VA,16,2019-04-22,38.029306,-78.4766781
Chattanooga TN,11,2019-04-22,35.0457219,-85.3094883
Chicago IL,6,2019-04-22,41.8755616,-87.6244212
Chico,27,2019-04-22,39.7284945,-121.8374777
Cincinnati OH,7,2019-04-22,39.1014537,-84.5124602
Cleveland,9,2019-04-22,41.5051613,-81.6934446
Colorado Springs,10,2019-04-22,38.8339578,-104.8253485
Columbia SC,4,2019-04-22,34.0007493,-81.0343313
Columbia,11,2019-04-22,2.8894434,-73.783892
Columbus GA,19,2019-04-22,43.1830762,-79.8147518
Columbus OH,8,2019-04-22,39.9622601,-83.0007065
Columbus,25,2019-04-22,39.9622601,-83.0007065
Corpus Christi TX,10,2019-04-22,27.7477253,-97.4014129
Dallas,5,2019-04-22,32.7762719,-96.7968559
Davenport IA,15,2019-04-22,41.5236436,-90.5776368
Dayton OH,9,2019-04-22,39.7589478,-84.1916069
Denver CO,7,2019-04-22,39.7348381,-104.9653271
Des Moines,8,2019-04-22,41.5910641,-93.6037149
Detroit MI,6,2019-04-22,42.3315509,-83.0466403
Duluth MN,28,2019-04-22,46.7729322,-92.1251218
El Paso TX,12,2019-04-22,31.7754152,-106.4646348
Elmira NY,50,2019-04-22,42.0897965,-76.8077338
Erie PA,23,2019-04-22,42.1294712,-80.0852695
Eugene OR,10,2019-04-22,44.0505054,-123.0950506
Eureka CA,34,2019-04-22,45.4985271,-62.6816736
Evansville IN,8,2019-04-22,4.5777639,-7.6472486
Fairbanks AK,44,2019-04-22,64.837845,-147.716675
Fargo,13,2019-04-22,46.877229,-96.789821
Flint,15,2019-04-22,43.0161693,-83.6900211
Florence,9,2019-04-22,43.7698712,11.2555757
Fresno,5,2019-04-22,36.7295295,-119.70886126075588
Ft. Myers,8,2019-04-22,26.640628,-81.8723084
Ft. Smith,9,2019-04-22,35.3872218,-94.4248983
Ft. Wayne IN,13,2019-04-22,41.0799898,-85.1386015
Grand Rapids,7,2019-04-22,42.9632405,-85.6678639
Green Bay,9,2019-04-22,44.5126379,-88.0125794
Greensboro,6,2019-04-22,36.0726355,-79.7919754
Greenville,13,2019-04-22,34.851354,-82.3984882
Greenville,17,2019-04-22,34.851354,-82.3984882
Greenwood,55,2019-04-22,37.8709542,-96.2471338
Harlingen,9,2019-04-22,26.1908241,-97.6959794
Harrisburg,8,2019-04-22,40.2663107,-76.8861122
Hartford,10,2019-04-22,41.764582,-72.6908547
Honolulu HI,3,2019-04-22,21.304547,-157.8556764
Houston TX,4,2019-04-22,29.7589382,-95.3676974
Huntsville,5,2019-04-22,34.729847,-86.5859011
Indianapolis IN,6,2019-04-22,39.7683331,-86.1583502
Jackson MS,8,2019-04-22,28.530801699999998,-81.30324431076107
Jacksonville FL,10,2019-04-22,30.3321838,-81.655651
Johnstown,19,2019-04-22,40.3267407,-78.9219698
Jonesboro AR,29,2019-04-22,35.8428646,-90.7034522
Joplin MO,17,2019-04-22,37.08418,-94.51323
Kansas City MO,7,2019-04-22,39.100105,-94.5781416
Knoxville TN,8,2019-04-22,35.9603948,-83.9210261
La Crosse,9,2019-04-22,43.8014053,-91.2395429
Lafayette LA,11,2019-04-22,30.2240897,-92.0198427
Lansing MI,9,2019-04-22,42.7338147,-84.5207088
Las Vegas NV,6,2019-04-22,36.1672559,-115.1485163
Lexington KY,8,2019-04-22,38.0464066,-84.4970393
Lincoln,12,2019-04-22,47.8299069,-118.414727
Little Rock,6,2019-04-22,34.7464809,-92.2895948
Los Angeles CA,6,2019-04-22,34.0536909,-118.2427666
Louisville KY,4,2019-04-22,38.2542376,-85.759407
Lubbock TX,11,2019-04-22,33.5635206,-101.879336
Macon GA,19,2019-04-22,32.8406946,-83.6324022
Madison WI,6,2019-04-22,43.074761,-89.3837613
Mankato MN,35,2019-04-22,44.1634663,-93.9993505
Medford,24,2019-04-22,42.4184296,-71.1061639
Memphis TN,5,2019-04-22,35.1490215,-90.0516285
Miami,6,2019-04-22,25.7742658,-80.1936589
Milwaukee WI,10,2019-04-22,43.0349931,-87.922497
Minneapolis,8,2019-04-22,44.9772995,-93.2654692
Minot,14,2019-04-22,47.6698594,4.8786165
Missoula MT,18,2019-04-22,46.8701049,-113.9952672
Mobile AL,8,2019-04-22,39.092585,-84.853229
Monterey,7,2019-04-22,36.2231079,-121.3877428
Nashville TN,6,2019-04-22,36.1622296,-86.7743531
New Orleans LA,6,2019-04-22,29.9499323,-90.0701156
New York NY,6,2019-04-22,40.7127281,-74.0060152
Norfolk,8,2019-04-22,52.666667,1.0
Odessa,22,2019-04-22,46.4873195,30.7392776
Oklahoma City OK,8,2019-04-22,35.4729886,-97.5170536
Omaha NE,8,2019-04-22,41.2587459,-95.9383758
Orlando,6,2019-04-22,28.5421109,-81.3790304
Ottumwa IA,51,2019-04-22,41.0200145,-92.4112963
Paducah KY,17,2019-04-22,37.0833893,-88.6000478
Palm Springs CA,12,2019-04-22,33.8246269,-116.540303
Parkersburg WV,43,2019-04-22,39.2699565,-81.5506916
Peoria,29,2019-04-22,40.6938609,-89.5891008
Philadelphia PA,8,2019-04-22,39.9527237,-75.1635262
Phoenix AZ,8,2019-04-22,33.4484367,-112.0741417
Pittsburgh PA,7,2019-04-22,40.4416941,-79.9900861
Portland OR,9,2019-04-22,45.5202471,-122.6741949
Portland,7,2019-04-22,45.5202471,-122.6741949
Presque Isle ME,100,2019-04-22,46.681479,-68.016357
Providence RI,13,2019-04-22,51.4325409,-2.6642358
Raleigh,10,2019-04-22,35.7803977,-78.6390989
Reno NV,13,2019-04-22,39.5261206,-119.8126581
Richmond,3,2019-04-22,37.5385087,-77.43428
Roanoke,8,2019-04-22,37.270973,-79.9414313
Rochester MN,13,2019-04-22,44.0234387,-92.4630182
Rochester NY,4,2019-04-22,43.157285,-77.615214
Rockford IL,17,2019-04-22,42.2713945,-89.093966
Sacramento,6,2019-04-22,38.5815719,-121.4943996
Salisbury MD,13,2019-04-22,38.3662114,-75.6008881
Salt Lake City UT,9,2019-04-22,40.7596198,-111.8867975
San Antonio TX,5,2019-04-22,29.4246002,-98.4951405
San Diego CA,10,2019-04-22,32.7174209,-117.1627714
San Francisco,7,2019-04-22,37.7790262,-122.4199061
Santa Barbara,6,2019-04-22,34.4221319,-119.7026673
Savannah GA,10,2019-04-22,43.4129206,-79.7028276
Seattle,9,2019-04-22,47.6038321,-122.3300624
Sherman TX,20,2019-04-22,36.2452294,-101.8858689
Shreveport LA,7,2019-04-22,32.5221828,-93.7651944
Sioux City IA,15,2019-04-22,42.4966815,-96.4058782
South Bend,18,2019-04-22,41.6833813,-86.2500066
Spokane WA,9,2019-04-22,47.6579425,-117.4212265
Springfield MO,19,2019-04-22,37.2166779,-93.2920373
Springfield,6,2019-04-22,39.7990175,-89.6439575
St. Louis MO,7,2019-04-22,38.6529545,-90.24111656024635
Syracuse NY,26,2019-04-22,43.0481221,-76.1474244
Tallahassee FL,12,2019-04-22,30.4380832,-84.2809332
Tampa,7,2019-04-22,27.9477595,-82.458444
Toledo OH,5,2019-04-22,41.6786754,-83.5127283
Topeka KS,11,2019-04-22,39.049011,-95.677556
Traverse City,26,2019-04-22,44.7606441,-85.6165301
Tri,8,2019-04-22,35.875259,-78.7751271
Tucson,10,2019-04-22,32.2228765,-110.9748477
Tulsa OK,4,2019-04-22,36.1556805,-95.9929113
Twin Falls ID,33,2019-04-22,42.5704219,-114.4603171
Tyler,9,2019-04-22,32.3512601,-95.3010624
Utica NY,20,2019-04-22,43.1009031,-75.2326641
Victoria TX,68,2019-04-22,28.8026443,-96.9766308
Waco,4,2019-04-22,31.549333,-97.1466695
Washington DC,6,2019-04-22,38.8948932,-77.0365529
Watertown NY,23,2019-04-22,43.9747838,-75.9107565
Wausau,12,2019-04-22,44.9596017,-89.6298239
West Palm Beach,11,2019-04-22,26.7153425,-80.0533746
Wheeling WV,41,2019-04-22,40.0639616,-80.7209149
Wichita Falls TX,15,2019-04-22,33.9137085,-98.4933873
Wichita,11,2019-04-22,37.6922361,-97.3375448
Wilkes Barre,6,2019-04-22,41.2464824,-75.8817316
Wilmington NC,10,2019-04-22,34.2257282,-77.9447107
Yakima,8,2019-04-22,46.601557,-120.5108421
Youngstown OH,9,2019-04-22,41.1035786,-80.6520161
Yuma AZ,18,2019-04-22,32.6926588,-114.6276157
Zanesville OH,74,2019-04-22,39.9403453,-82.0131924
Albany GA,12,2019-04-29,51.7468576,-0.3383107
Albany,2,2019-04-29,42.6511674,-73.754968
Albuquerque,2,2019-04-29,35.0841034,-106.6509851
Amarillo TX,8,2019-04-29,35.2072185,-101.8338246
Anchorage AK,8,2019-04-29,61.2163129,-149.8948523
Atlanta GA,1,2019-04-29,33.7490987,-84.3901849
Austin TX,1,2019-04-29,30.2711286,-97.7436995
Bakersfield CA,11,2019-04-29,35.3738712,-119.0194639
Baltimore MD,1,2019-04-29,39.2908816,-76.610759
Bend OR,17,2019-04-29,44.0581728,-121.3153096
Birmingham AL,3,2019-04-29,33.570499,-86.765783
Bluefield,16,2019-04-29,37.2698395,-81.2223195
Boise ID,8,2019-04-29,43.6166163,-116.200886
Boston MA,1,2019-04-29,42.3602534,-71.0582912
Buffalo NY,2,2019-04-29,42.8867166,-78.8783922
Burlington VT,4,2019-04-29,44.4762975,-73.2135472
Cedar Rapids,6,2019-04-29,41.9758872,-91.6704053
Champaign,4,2019-04-29,40.1164205,-88.2433829
Charleston SC,4,2019-04-29,32.7876012,-79.9402728
Chattanooga TN,4,2019-04-29,35.0457219,-85.3094883
Chicago IL,1,2019-04-29,41.8755616,-87.6244212
Cincinnati OH,4,2019-04-29,39.1014537,-84.5124602
Cleveland,2,2019-04-29,41.5051613,-81.6934446
Colorado Springs,3,2019-04-29,38.8339578,-104.8253485
Columbia SC,3,2019-04-29,34.0007493,-81.0343313
Columbia,8,2019-04-29,2.8894434,-73.783892
Columbus OH,2,2019-04-29,39.9622601,-83.0007065
Corpus Christi TX,7,2019-04-29,27.7477253,-97.4014129
Dallas,1,2019-04-29,32.7762719,-96.7968559
Dayton OH,3,2019-04-29,39.7589478,-84.1916069
Denver CO,3,2019-04-29,39.7348381,-104.9653271
Des Moines,3,2019-04-29,41.5910641,-93.6037149
Detroit MI,2,2019-04-29,42.3315509,-83.0466403
Elmira NY,18,2019-04-29,42.0897965,-76.8077338
Fargo,6,2019-04-29,46.877229,-96.789821
Florence,5,2019-04-29,43.7698712,11.2555757
Ft. Myers,4,2019-04-29,26.640628,-81.8723084
Ft. Smith,4,2019-04-29,35.3872218,-94.4248983
Ft. Wayne IN,5,2019-04-29,41.0799898,-85.1386015
Gainesville FL,8,2019-04-29,29.67357765,-82.32337460192167
Grand Rapids,3,2019-04-29,42.9632405,-85.6678639
Great Falls MT,29,2019-04-29,47.5048851,-111.2918908
Green Bay,3,2019-04-29,44.5126379,-88.0125794
Greensboro,3,2019-04-29,36.0726355,-79.7919754
Greenville,4,2019-04-29,34.851354,-82.3984882
Greenville,3,2019-04-29,34.851354,-82.3984882
Greenwood,38,2019-04-29,37.8709542,-96.2471338
Harlingen,3,2019-04-29,26.1908241,-97.6959794
Harrisburg,3,2019-04-29,40.2663107,-76.8861122
Hartford,2,2019-04-29,41.764582,-72.6908547
Honolulu HI,2,2019-04-29,21.304547,-157.8556764
Houston TX,2,2019-04-29,29.7589382,-95.3676974
Huntsville,4,2019-04-29,34.729847,-86.5859011
Indianapolis IN,1,2019-04-29,39.7683331,-86.1583502
Jacksonville FL,4,2019-04-29,30.3321838,-81.655651
Jonesboro AR,20,2019-04-29,35.8428646,-90.7034522
Kansas City MO,2,2019-04-29,39.100105,-94.5781416
Knoxville TN,5,2019-04-29,35.9603948,-83.9210261
Lafayette LA,7,2019-04-29,30.2240897,-92.0198427
Lansing MI,5,2019-04-29,42.7338147,-84.5207088
Laredo TX,15,2019-04-29,27.5199841,-99.4953764
Las Vegas NV,1,2019-04-29,36.1672559,-115.1485163
Lexington KY,3,2019-04-29,38.0464066,-84.4970393
Lincoln,7,2019-04-29,47.8299069,-118.414727
Little Rock,3,2019-04-29,34.7464809,-92.2895948
Los Angeles CA,1,2019-04-29,34.0536909,-118.2427666
Louisville KY,3,2019-04-29,38.2542376,-85.759407
Lubbock TX,8,2019-04-29,33.5635206,-101.879336
Macon GA,7,2019-04-29,32.8406946,-83.6324022
Madison WI,3,2019-04-29,43.074761,-89.3837613
Mankato MN,25,2019-04-29,44.1634663,-93.9993505
Medford,9,2019-04-29,42.4184296,-71.1061639
Miami,1,2019-04-29,25.7742658,-80.1936589
Milwaukee WI,2,2019-04-29,43.0349931,-87.922497
Minneapolis,2,2019-04-29,44.9772995,-93.2654692
Mobile AL,2,2019-04-29,39.092585,-84.853229
Montgomery,7,2019-04-29,32.3669656,-86.3006485
Nashville TN,2,2019-04-29,36.1622296,-86.7743531
New Orleans LA,4,2019-04-29,29.9499323,-90.0701156
New York NY,1,2019-04-29,40.7127281,-74.0060152
Norfolk,2,2019-04-29,52.666667,1.0
North Platte NE,100,2019-04-29,41.1238873,-100.7654232
Oklahoma City OK,4,2019-04-29,35.4729886,-97.5170536
Omaha NE,2,2019-04-29,41.2587459,-95.9383758
Orlando,1,2019-04-29,28.5421109,-81.3790304
Palm Springs CA,9,2019-04-29,33.8246269,-116.540303
Panama City FL,10,2019-04-29,30.1600827,-85.6545729
Peoria,10,2019-04-29,40.6938609,-89.5891008
Philadelphia PA,2,2019-04-29,39.9527237,-75.1635262
Phoenix AZ,2,2019-04-29,33.4484367,-112.0741417
Pittsburgh PA,3,2019-04-29,40.4416941,-79.9900861
Portland OR,3,2019-04-29,45.5202471,-122.6741949
Portland,3,2019-04-29,45.5202471,-122.6741949
Presque Isle ME,77,2019-04-29,46.681479,-68.016357
Providence RI,2,2019-04-29,51.4325409,-2.6642358
Quincy IL,18,2019-04-29,39.9368363,-120.9471764
Raleigh,3,2019-04-29,35.7803977,-78.6390989
Reno NV,5,2019-04-29,39.5261206,-119.8126581
Richmond,2,2019-04-29,37.5385087,-77.43428
Roanoke,4,2019-04-29,37.270973,-79.9414313
Rochester NY,9,2019-04-29,43.157285,-77.615214
Rockford IL,8,2019-04-29,42.2713945,-89.093966
Sacramento,2,2019-04-29,38.5815719,-121.4943996
Salt Lake City UT,1,2019-04-29,40.7596198,-111.8867975
San Antonio TX,1,2019-04-29,29.4246002,-98.4951405
San Diego CA,3,2019-04-29,32.7174209,-117.1627714
San Francisco,2,2019-04-29,37.7790262,-122.4199061
Santa Barbara,4,2019-04-29,34.4221319,-119.7026673
Savannah GA,4,2019-04-29,43.4129206,-79.7028276
Seattle,2,2019-04-29,47.6038321,-122.3300624
Shreveport LA,5,2019-04-29,32.5221828,-93.7651944
Sioux City IA,11,2019-04-29,42.4966815,-96.4058782
Sioux Fall,6,2019-04-29,46.737158,-90.8801835
South Bend,4,2019-04-29,41.6833813,-86.2500066
Spokane WA,3,2019-04-29,47.6579425,-117.4212265
Springfield MO,6,2019-04-29,37.2166779,-93.2920373
Springfield,4,2019-04-29,39.7990175,-89.6439575
St. Louis MO,2,2019-04-29,38.6529545,-90.24111656024635
Syracuse NY,5,2019-04-29,43.0481221,-76.1474244
Tallahassee FL,7,2019-04-29,30.4380832,-84.2809332
Tampa,1,2019-04-29,27.9477595,-82.458444
Toledo OH,3,2019-04-29,41.6786754,-83.5127283
Tri,6,2019-04-29,35.875259,-78.7751271
Tucson,3,2019-04-29,32.2228765,-110.9748477
Tulsa OK,5,2019-04-29,36.1556805,-95.9929113
Utica NY,14,2019-04-29,43.1009031,-75.2326641
Waco,3,2019-04-29,31.549333,-97.1466695
Washington DC,2,2019-04-29,38.8948932,-77.0365529
Watertown NY,16,2019-04-29,43.9747838,-75.9107565
Wausau,9,2019-04-29,44.9596017,-89.6298239
West Palm Beach,2,2019-04-29,26.7153425,-80.0533746
Wheeling WV,14,2019-04-29,40.0639616,-80.7209149
Wichita Falls TX,10,2019-04-29,33.9137085,-98.4933873
Wichita,6,2019-04-29,37.6922361,-97.3375448
Wilkes Barre,3,2019-04-29,41.2464824,-75.8817316
Wilmington NC,14,2019-04-29,34.2257282,-77.9447107
Youngstown OH,12,2019-04-29,41.1035786,-80.6520161
Albany GA,47,2019-05-06,51.7468576,-0.3383107
Albany,8,2019-05-06,42.6511674,-73.754968
Albuquerque,11,2019-05-06,35.0841034,-106.6509851
Atlanta GA,3,2019-05-06,33.7490987,-84.3901849
Austin TX,6,2019-05-06,30.2711286,-97.7436995
Bakersfield CA,20,2019-05-06,35.3738712,-119.0194639
Baltimore MD,6,2019-05-06,39.2908816,-76.610759
Baton Rouge LA,16,2019-05-06,30.4459596,-91.18738
Biloxi,43,2019-05-06,30.374673,-88.84594333482862
Birmingham AL,7,2019-05-06,33.570499,-86.765783
Boston MA,4,2019-05-06,42.3602534,-71.0582912
Buffalo NY,8,2019-05-06,42.8867166,-78.8783922
Cedar Rapids,23,2019-05-06,41.9758872,-91.6704053
Charleston SC,21,2019-05-06,32.7876012,-79.9402728
Charlotte NC,5,2019-05-06,35.2270869,-80.8431268
Chicago IL,4,2019-05-06,41.8755616,-87.6244212
Cincinnati OH,5,2019-05-06,39.1014537,-84.5124602
Cleveland,7,2019-05-06,41.5051613,-81.6934446
Colorado Springs,13,2019-05-06,38.8339578,-104.8253485
Columbus OH,11,2019-05-06,39.9622601,-83.0007065
Corpus Christi TX,26,2019-05-06,27.7477253,-97.4014129
Dallas,5,2019-05-06,32.7762719,-96.7968559
Dayton OH,17,2019-05-06,39.7589478,-84.1916069
Denver CO,10,2019-05-06,39.7348381,-104.9653271
Des Moines,11,2019-05-06,41.5910641,-93.6037149
Detroit MI,7,2019-05-06,42.3315509,-83.0466403
El Paso TX,14,2019-05-06,31.7754152,-106.4646348
Eugene OR,21,2019-05-06,44.0505054,-123.0950506
Eureka CA,91,2019-05-06,45.4985271,-62.6816736
Evansville IN,23,2019-05-06,4.5777639,-7.6472486
Fargo,23,2019-05-06,46.877229,-96.789821
Grand Rapids,10,2019-05-06,42.9632405,-85.6678639
Green Bay,13,2019-05-06,44.5126379,-88.0125794
Greensboro,8,2019-05-06,36.0726355,-79.7919754
Greenville,17,2019-05-06,34.851354,-82.3984882
Greenville,12,2019-05-06,34.851354,-82.3984882
Harlingen,12,2019-05-06,26.1908241,-97.6959794
Harrisburg,7,2019-05-06,40.2663107,-76.8861122
Hartford,8,2019-05-06,41.764582,-72.6908547
Honolulu HI,10,2019-05-06,21.304547,-157.8556764
Houston TX,3,2019-05-06,29.7589382,-95.3676974
Huntsville,22,2019-05-06,34.729847,-86.5859011
Indianapolis IN,7,2019-05-06,39.7683331,-86.1583502
Jackson MS,17,2019-05-06,28.530801699999998,-81.30324431076107
Jonesboro AR,81,2019-05-06,35.8428646,-90.7034522
Joplin MO,46,2019-05-06,37.08418,-94.51323
Knoxville TN,11,2019-05-06,35.9603948,-83.9210261
La Crosse,26,2019-05-06,43.8014053,-91.2395429
Las Vegas NV,5,2019-05-06,36.1672559,-115.1485163
Lincoln,20,2019-05-06,47.8299069,-118.414727
Los Angeles CA,3,2019-05-06,34.0536909,-118.2427666
Louisville KY,7,2019-05-06,38.2542376,-85.759407
Madison WI,18,2019-05-06,43.074761,-89.3837613
Mankato MN,100,2019-05-06,44.1634663,-93.9993505
Marquette MI,85,2019-05-06,46.4481521,-87.6305899
Medford,66,2019-05-06,42.4184296,-71.1061639
Miami,5,2019-05-06,25.7742658,-80.1936589
Milwaukee WI,7,2019-05-06,43.0349931,-87.922497
Minneapolis,5,2019-05-06,44.9772995,-93.2654692
Minot,38,2019-05-06,47.6698594,4.8786165
Mobile AL,10,2019-05-06,39.092585,-84.853229
Nashville TN,4,2019-05-06,36.1622296,-86.7743531
New Orleans LA,7,2019-05-06,29.9499323,-90.0701156
New York NY,3,2019-05-06,40.7127281,-74.0060152
Norfolk,6,2019-05-06,52.666667,1.0
Oklahoma City OK,7,2019-05-06,35.4729886,-97.5170536
Omaha NE,18,2019-05-06,41.2587459,-95.9383758
Orlando,3,2019-05-06,28.5421109,-81.3790304
Paducah KY,20,2019-05-06,37.0833893,-88.6000478
Palm Springs CA,35,2019-05-06,33.8246269,-116.540303
Philadelphia PA,3,2019-05-06,39.9527237,-75.1635262
Phoenix AZ,5,2019-05-06,33.4484367,-112.0741417
Pittsburgh PA,13,2019-05-06,40.4416941,-79.9900861
Portland OR,7,2019-05-06,45.5202471,-122.6741949
Portland,17,2019-05-06,45.5202471,-122.6741949
Providence RI,7,2019-05-06,51.4325409,-2.6642358
Raleigh,4,2019-05-06,35.7803977,-78.6390989
Rapid City SD,63,2019-05-06,44.081176,-103.228006
Reno NV,18,2019-05-06,39.5261206,-119.8126581
Richmond,8,2019-05-06,37.5385087,-77.43428
Rochester MN,36,2019-05-06,44.0234387,-92.4630182
Rochester NY,12,2019-05-06,43.157285,-77.615214
Rockford IL,31,2019-05-06,42.2713945,-89.093966
Sacramento,4,2019-05-06,38.5815719,-121.4943996
Salt Lake City UT,5,2019-05-06,40.7596198,-111.8867975
San Antonio TX,9,2019-05-06,29.4246002,-98.4951405
San Diego CA,8,2019-05-06,32.7174209,-117.1627714
San Francisco,4,2019-05-06,37.7790262,-122.4199061
Santa Barbara,17,2019-05-06,34.4221319,-119.7026673
Savannah GA,14,2019-05-06,43.4129206,-79.7028276
Seattle,5,2019-05-06,47.6038321,-122.3300624
South Bend,17,2019-05-06,41.6833813,-86.2500066
Springfield MO,15,2019-05-06,37.2166779,-93.2920373
St. Louis MO,6,2019-05-06,38.6529545,-90.24111656024635
Syracuse NY,13,2019-05-06,43.0481221,-76.1474244
Tampa,3,2019-05-06,27.9477595,-82.458444
Toledo OH,13,2019-05-06,41.6786754,-83.5127283
Tucson,12,2019-05-06,32.2228765,-110.9748477
Waco,25,2019-05-06,31.549333,-97.1466695
Washington DC,6,2019-05-06,38.8948932,-77.0365529
West Palm Beach,13,2019-05-06,26.7153425,-80.0533746
Wheeling WV,58,2019-05-06,40.0639616,-80.7209149
Wichita,13,2019-05-06,37.6922361,-97.3375448
Wilkes Barre,22,2019-05-06,41.2464824,-75.8817316
Albany,9,2019-05-13,42.6511674,-73.754968
Albuquerque,8,2019-05-13,35.0841034,-106.6509851
Alexandria LA,100,2019-05-13,31.199004,29.894378
Amarillo TX,39,2019-05-13,35.2072185,-101.8338246
Atlanta GA,4,2019-05-13,33.7490987,-84.3901849
Augusta GA,26,2019-05-13,33.4709714,-81.9748429
Austin TX,5,2019-05-13,30.2711286,-97.7436995
Bakersfield CA,23,2019-05-13,35.3738712,-119.0194639
Baltimore MD,5,2019-05-13,39.2908816,-76.610759
Boston MA,3,2019-05-13,42.3602534,-71.0582912
Burlington VT,19,2019-05-13,44.4762975,-73.2135472
Charleston SC,16,2019-05-13,32.7876012,-79.9402728
Charlotte NC,6,2019-05-13,35.2270869,-80.8431268
Chicago IL,6,2019-05-13,41.8755616,-87.6244212
Cincinnati OH,13,2019-05-13,39.1014537,-84.5124602
Cleveland,3,2019-05-13,41.5051613,-81.6934446
Columbia SC,15,2019-05-13,34.0007493,-81.0343313
Columbus GA,31,2019-05-13,43.1830762,-79.8147518
Columbus OH,5,2019-05-13,39.9622601,-83.0007065
Corpus Christi TX,31,2019-05-13,27.7477253,-97.4014129
Dallas,6,2019-05-13,32.7762719,-96.7968559
Dayton OH,14,2019-05-13,39.7589478,-84.1916069
Denver CO,6,2019-05-13,39.7348381,-104.9653271
Detroit MI,6,2019-05-13,42.3315509,-83.0466403
El Paso TX,16,2019-05-13,31.7754152,-106.4646348
Elmira NY,78,2019-05-13,42.0897965,-76.8077338
Evansville IN,27,2019-05-13,4.5777639,-7.6472486
Flint,16,2019-05-13,43.0161693,-83.6900211
Fresno,9,2019-05-13,36.7295295,-119.70886126075588
Ft. Smith,20,2019-05-13,35.3872218,-94.4248983
Gainesville FL,41,2019-05-13,29.67357765,-82.32337460192167
Grand Rapids,7,2019-05-13,42.9632405,-85.6678639
Green Bay,14,2019-05-13,44.5126379,-88.0125794
Greenville,19,2019-05-13,34.851354,-82.3984882
Harrisburg,8,2019-05-13,40.2663107,-76.8861122
Hartford,7,2019-05-13,41.764582,-72.6908547
Honolulu HI,10,2019-05-13,21.304547,-157.8556764
Houston TX,4,2019-05-13,29.7589382,-95.3676974
Idaho Falls,43,2019-05-13,43.4935245,-112.0400919
Indianapolis IN,14,2019-05-13,39.7683331,-86.1583502
Jackson MS,20,2019-05-13,28.530801699999998,-81.30324431076107
Jackson TN,87,2019-05-13,35.6144446,-88.8177418
Jacksonville FL,8,2019-05-13,30.3321838,-81.655651
Kansas City MO,11,2019-05-13,39.100105,-94.5781416
Knoxville TN,25,2019-05-13,35.9603948,-83.9210261
Lafayette LA,34,2019-05-13,30.2240897,-92.0198427
Las Vegas NV,6,2019-05-13,36.1672559,-115.1485163
Lexington KY,14,2019-05-13,38.0464066,-84.4970393
Little Rock,12,2019-05-13,34.7464809,-92.2895948
Los Angeles CA,3,2019-05-13,34.0536909,-118.2427666
Louisville KY,16,2019-05-13,38.2542376,-85.759407
Madison WI,14,2019-05-13,43.074761,-89.3837613
Memphis TN,10,2019-05-13,35.1490215,-90.0516285
Miami,3,2019-05-13,25.7742658,-80.1936589
Milwaukee WI,5,2019-05-13,43.0349931,-87.922497
Minneapolis,5,2019-05-13,44.9772995,-93.2654692
Mobile AL,11,2019-05-13,39.092585,-84.853229
Montgomery,33,2019-05-13,32.3669656,-86.3006485
New Orleans LA,8,2019-05-13,29.9499323,-90.0701156
New York NY,2,2019-05-13,40.7127281,-74.0060152
Norfolk,13,2019-05-13,52.666667,1.0
Oklahoma City OK,9,2019-05-13,35.4729886,-97.5170536
Omaha NE,10,2019-05-13,41.2587459,-95.9383758
Orlando,3,2019-05-13,28.5421109,-81.3790304
Paducah KY,24,2019-05-13,37.0833893,-88.6000478
Philadelphia PA,5,2019-05-13,39.9527237,-75.1635262
Phoenix AZ,3,2019-05-13,33.4484367,-112.0741417
Pittsburgh PA,8,2019-05-13,40.4416941,-79.9900861
Portland OR,7,2019-05-13,45.5202471,-122.6741949
Providence RI,13,2019-05-13,51.4325409,-2.6642358
Raleigh,3,2019-05-13,35.7803977,-78.6390989
Reno NV,20,2019-05-13,39.5261206,-119.8126581
Richmond,10,2019-05-13,37.5385087,-77.43428
Roanoke,14,2019-05-13,37.270973,-79.9414313
Rochester MN,40,2019-05-13,44.0234387,-92.4630182
Rochester NY,21,2019-05-13,43.157285,-77.615214
Sacramento,5,2019-05-13,38.5815719,-121.4943996
Salt Lake City UT,8,2019-05-13,40.7596198,-111.8867975
San Antonio TX,5,2019-05-13,29.4246002,-98.4951405
San Diego CA,8,2019-05-13,32.7174209,-117.1627714
San Francisco,3,2019-05-13,37.7790262,-122.4199061
Santa Barbara,19,2019-05-13,34.4221319,-119.7026673
Seattle,4,2019-05-13,47.6038321,-122.3300624
Springfield MO,17,2019-05-13,37.2166779,-93.2920373
St. Louis MO,13,2019-05-13,38.6529545,-90.24111656024635
Tallahassee FL,48,2019-05-13,30.4380832,-84.2809332
Tampa,10,2019-05-13,27.9477595,-82.458444
Topeka KS,37,2019-05-13,39.049011,-95.677556
Tulsa OK,12,2019-05-13,36.1556805,-95.9929113
Tyler,27,2019-05-13,32.3512601,-95.3010624
Washington DC,3,2019-05-13,38.8948932,-77.0365529
Wheeling WV,67,2019-05-13,40.0639616,-80.7209149
Wilkes Barre,13,2019-05-13,41.2464824,-75.8817316
Youngstown OH,28,2019-05-13,41.1035786,-80.6520161
Albany,14,2019-05-20,42.6511674,-73.754968
Albuquerque,13,2019-05-20,35.0841034,-106.6509851
Amarillo TX,56,2019-05-20,35.2072185,-101.8338246
Anchorage AK,52,2019-05-20,61.2163129,-149.8948523
Atlanta GA,6,2019-05-20,33.7490987,-84.3901849
Austin TX,7,2019-05-20,30.2711286,-97.7436995
Baltimore MD,7,2019-05-20,39.2908816,-76.610759
Bangor ME,71,2019-05-20,29.0659229,-110.97133
Biloxi,71,2019-05-20,30.374673,-88.84594333482862
Birmingham AL,12,2019-05-20,33.570499,-86.765783
Boise ID,54,2019-05-20,43.6166163,-116.200886
Boston MA,4,2019-05-20,42.3602534,-71.0582912
Buffalo NY,13,2019-05-20,42.8867166,-78.8783922
Cedar Rapids,54,2019-05-20,41.9758872,-91.6704053
Charlotte NC,18,2019-05-20,35.2270869,-80.8431268
Chattanooga TN,27,2019-05-20,35.0457219,-85.3094883
Chicago IL,4,2019-05-20,41.8755616,-87.6244212
Chico,50,2019-05-20,39.7284945,-121.8374777
Cincinnati OH,17,2019-05-20,39.1014537,-84.5124602
Cleveland,7,2019-05-20,41.5051613,-81.6934446
Columbus OH,12,2019-05-20,39.9622601,-83.0007065
Dallas,4,2019-05-20,32.7762719,-96.7968559
Dayton OH,32,2019-05-20,39.7589478,-84.1916069
Denver CO,4,2019-05-20,39.7348381,-104.9653271
Des Moines,20,2019-05-20,41.5910641,-93.6037149
Detroit MI,4,2019-05-20,42.3315509,-83.0466403
El Paso TX,24,2019-05-20,31.7754152,-106.4646348
Evansville IN,42,2019-05-20,4.5777639,-7.6472486
Grand Rapids,11,2019-05-20,42.9632405,-85.6678639
Greenville,11,2019-05-20,34.851354,-82.3984882
Harrisburg,24,2019-05-20,40.2663107,-76.8861122
Hartford,28,2019-05-20,41.764582,-72.6908547
Houston TX,3,2019-05-20,29.7589382,-95.3676974
Idaho Falls,63,2019-05-20,43.4935245,-112.0400919
Indianapolis IN,7,2019-05-20,39.7683331,-86.1583502
Johnstown,33,2019-05-20,40.3267407,-78.9219698
Kansas City MO,23,2019-05-20,39.100105,-94.5781416
Las Vegas NV,8,2019-05-20,36.1672559,-115.1485163
Lexington KY,43,2019-05-20,38.0464066,-84.4970393
Los Angeles CA,3,2019-05-20,34.0536909,-118.2427666
Louisville KY,12,2019-05-20,38.2542376,-85.759407
Madison WI,21,2019-05-20,43.074761,-89.3837613
Medford,54,2019-05-20,42.4184296,-71.1061639
Memphis TN,15,2019-05-20,35.1490215,-90.0516285
Miami,8,2019-05-20,25.7742658,-80.1936589
Milwaukee WI,11,2019-05-20,43.0349931,-87.922497
Minneapolis,7,2019-05-20,44.9772995,-93.2654692
Minot,65,2019-05-20,47.6698594,4.8786165
Monroe LA,83,2019-05-20,38.2722313,-90.1792484
Nashville TN,10,2019-05-20,36.1622296,-86.7743531
New Orleans LA,12,2019-05-20,29.9499323,-90.0701156
New York NY,5,2019-05-20,40.7127281,-74.0060152
Norfolk,10,2019-05-20,52.666667,1.0
Oklahoma City OK,12,2019-05-20,35.4729886,-97.5170536
Orlando,4,2019-05-20,28.5421109,-81.3790304
Peoria,35,2019-05-20,40.6938609,-89.5891008
Philadelphia PA,3,2019-05-20,39.9527237,-75.1635262
Phoenix AZ,4,2019-05-20,33.4484367,-112.0741417
Portland OR,11,2019-05-20,45.5202471,-122.6741949
Providence RI,26,2019-05-20,51.4325409,-2.6642358
Raleigh,5,2019-05-20,35.7803977,-78.6390989
Richmond,15,2019-05-20,37.5385087,-77.43428
Sacramento,5,2019-05-20,38.5815719,-121.4943996
Salt Lake City UT,6,2019-05-20,40.7596198,-111.8867975
San Antonio TX,8,2019-05-20,29.4246002,-98.4951405
San Diego CA,7,2019-05-20,32.7174209,-117.1627714
San Francisco,3,2019-05-20,37.7790262,-122.4199061
Savannah GA,25,2019-05-20,43.4129206,-79.7028276
Seattle,9,2019-05-20,47.6038321,-122.3300624
South Bend,28,2019-05-20,41.6833813,-86.2500066
St. Louis MO,8,2019-05-20,38.6529545,-90.24111656024635
Tallahassee FL,36,2019-05-20,30.4380832,-84.2809332
Tampa,4,2019-05-20,27.9477595,-82.458444
Terre Haute IN,92,2019-05-20,39.4667025,-87.4139119
Tri,38,2019-05-20,35.875259,-78.7751271
Tyler,41,2019-05-20,32.3512601,-95.3010624
Washington DC,5,2019-05-20,38.8948932,-77.0365529
West Palm Beach,11,2019-05-20,26.7153425,-80.0533746
Wheeling WV,100,2019-05-20,40.0639616,-80.7209149
Wichita,22,2019-05-20,37.6922361,-97.3375448
Albuquerque,15,2019-05-27,35.0841034,-106.6509851
Atlanta GA,5,2019-05-27,33.7490987,-84.3901849
Augusta GA,46,2019-05-27,33.4709714,-81.9748429
Austin TX,9,2019-05-27,30.2711286,-97.7436995
Baltimore MD,9,2019-05-27,39.2908816,-76.610759
Baton Rouge LA,37,2019-05-27,30.4459596,-91.18738
Beaumont,81,2019-05-27,30.0860459,-94.1018461
Boston MA,6,2019-05-27,42.3602534,-71.0582912
Burlington VT,34,2019-05-27,44.4762975,-73.2135472
Charleston SC,28,2019-05-27,32.7876012,-79.9402728
Charlotte NC,7,2019-05-27,35.2270869,-80.8431268
Chicago IL,4,2019-05-27,41.8755616,-87.6244212
Cleveland,9,2019-05-27,41.5051613,-81.6934446
Colorado Springs,28,2019-05-27,38.8339578,-104.8253485
Columbia SC,27,2019-05-27,34.0007493,-81.0343313
Columbus OH,10,2019-05-27,39.9622601,-83.0007065
Dallas,2,2019-05-27,32.7762719,-96.7968559
Davenport IA,42,2019-05-27,41.5236436,-90.5776368
Denver CO,7,2019-05-27,39.7348381,-104.9653271
Des Moines,25,2019-05-27,41.5910641,-93.6037149
Detroit MI,12,2019-05-27,42.3315509,-83.0466403
El Paso TX,30,2019-05-27,31.7754152,-106.4646348
Ft. Myers,23,2019-05-27,26.640628,-81.8723084
Greenville,34,2019-05-27,34.851354,-82.3984882
Greenville,19,2019-05-27,34.851354,-82.3984882
Harrisburg,15,2019-05-27,40.2663107,-76.8861122
Hartford,8,2019-05-27,41.764582,-72.6908547
Houston TX,5,2019-05-27,29.7589382,-95.3676974
Huntsville,32,2019-05-27,34.729847,-86.5859011
Idaho Falls,80,2019-05-27,43.4935245,-112.0400919
Indianapolis IN,9,2019-05-27,39.7683331,-86.1583502
Jacksonville FL,14,2019-05-27,30.3321838,-81.655651
Kansas City MO,10,2019-05-27,39.100105,-94.5781416
Knoxville TN,45,2019-05-27,35.9603948,-83.9210261
Las Vegas NV,11,2019-05-27,36.1672559,-115.1485163
Los Angeles CA,4,2019-05-27,34.0536909,-118.2427666
Memphis TN,36,2019-05-27,35.1490215,-90.0516285
Miami,5,2019-05-27,25.7742658,-80.1936589
Minneapolis,10,2019-05-27,44.9772995,-93.2654692
Monterey,37,2019-05-27,36.2231079,-121.3877428
New York NY,5,2019-05-27,40.7127281,-74.0060152
Norfolk,12,2019-05-27,52.666667,1.0
Oklahoma City OK,16,2019-05-27,35.4729886,-97.5170536
Omaha NE,19,2019-05-27,41.2587459,-95.9383758
Palm Springs CA,69,2019-05-27,33.8246269,-116.540303
Panama City FL,73,2019-05-27,30.1600827,-85.6545729
Philadelphia PA,4,2019-05-27,39.9527237,-75.1635262
Phoenix AZ,9,2019-05-27,33.4484367,-112.0741417
Pittsburgh PA,9,2019-05-27,40.4416941,-79.9900861
Portland OR,14,2019-05-27,45.5202471,-122.6741949
Providence RI,15,2019-05-27,51.4325409,-2.6642358
Raleigh,6,2019-05-27,35.7803977,-78.6390989
Richmond,35,2019-05-27,37.5385087,-77.43428
Rochester NY,26,2019-05-27,43.157285,-77.615214
Sacramento,6,2019-05-27,38.5815719,-121.4943996
Salt Lake City UT,8,2019-05-27,40.7596198,-111.8867975
San Antonio TX,9,2019-05-27,29.4246002,-98.4951405
San Diego CA,6,2019-05-27,32.7174209,-117.1627714
San Francisco,2,2019-05-27,37.7790262,-122.4199061
Seattle,4,2019-05-27,47.6038321,-122.3300624
Shreveport LA,42,2019-05-27,32.5221828,-93.7651944
South Bend,72,2019-05-27,41.6833813,-86.2500066
Springfield MO,32,2019-05-27,37.2166779,-93.2920373
St. Louis MO,8,2019-05-27,38.6529545,-90.24111656024635
Tampa,5,2019-05-27,27.9477595,-82.458444
Toledo OH,29,2019-05-27,41.6786754,-83.5127283
Tri,48,2019-05-27,35.875259,-78.7751271
Washington DC,3,2019-05-27,38.8948932,-77.0365529
Wausau,68,2019-05-27,44.9596017,-89.6298239
West Palm Beach,13,2019-05-27,26.7153425,-80.0533746
Yuma AZ,100,2019-05-27,32.6926588,-114.6276157
Albany,13,2019-06-03,42.6511674,-73.754968
Atlanta GA,2,2019-06-03,33.7490987,-84.3901849
Augusta GA,36,2019-06-03,33.4709714,-81.9748429
Baltimore MD,7,2019-06-03,39.2908816,-76.610759
Binghamton NY,80,2019-06-03,42.096968,-75.914341
Birmingham AL,11,2019-06-03,33.570499,-86.765783
Boston MA,5,2019-06-03,42.3602534,-71.0582912
Buffalo NY,19,2019-06-03,42.8867166,-78.8783922
Chattanooga TN,26,2019-06-03,35.0457219,-85.3094883
Chicago IL,3,2019-06-03,41.8755616,-87.6244212
Cincinnati OH,8,2019-06-03,39.1014537,-84.5124602
Colorado Springs,22,2019-06-03,38.8339578,-104.8253485
Dallas,3,2019-06-03,32.7762719,-96.7968559
Dayton OH,22,2019-06-03,39.7589478,-84.1916069
Denver CO,4,2019-06-03,39.7348381,-104.9653271
Detroit MI,4,2019-06-03,42.3315509,-83.0466403
Ft. Wayne IN,39,2019-06-03,41.0799898,-85.1386015
Grand Rapids,11,2019-06-03,42.9632405,-85.6678639
Harrisburg,12,2019-06-03,40.2663107,-76.8861122
Houston TX,3,2019-06-03,29.7589382,-95.3676974
Indianapolis IN,7,2019-06-03,39.7683331,-86.1583502
Jackson MS,28,2019-06-03,28.530801699999998,-81.30324431076107
Johnstown,34,2019-06-03,40.3267407,-78.9219698
Kansas City MO,8,2019-06-03,39.100105,-94.5781416
Knoxville TN,17,2019-06-03,35.9603948,-83.9210261
La Crosse,47,2019-06-03,43.8014053,-91.2395429
Lansing MI,36,2019-06-03,42.7338147,-84.5207088
Los Angeles CA,3,2019-06-03,34.0536909,-118.2427666
Miami,4,2019-06-03,25.7742658,-80.1936589
Milwaukee WI,7,2019-06-03,43.0349931,-87.922497
Minneapolis,12,2019-06-03,44.9772995,-93.2654692
Mobile AL,15,2019-06-03,39.092585,-84.853229
New Orleans LA,12,2019-06-03,29.9499323,-90.0701156
New York NY,2,2019-06-03,40.7127281,-74.0060152
Omaha NE,15,2019-06-03,41.2587459,-95.9383758
Orlando,16,2019-06-03,28.5421109,-81.3790304
Philadelphia PA,4,2019-06-03,39.9527237,-75.1635262
Phoenix AZ,4,2019-06-03,33.4484367,-112.0741417
Pittsburgh PA,7,2019-06-03,40.4416941,-79.9900861
Portland OR,11,2019-06-03,45.5202471,-122.6741949
Portland,40,2019-06-03,45.5202471,-122.6741949
Providence RI,12,2019-06-03,51.4325409,-2.6642358
Raleigh,5,2019-06-03,35.7803977,-78.6390989
Richmond,20,2019-06-03,37.5385087,-77.43428
Salt Lake City UT,6,2019-06-03,40.7596198,-111.8867975
San Diego CA,5,2019-06-03,32.7174209,-117.1627714
San Francisco,2,2019-06-03,37.7790262,-122.4199061
Seattle,3,2019-06-03,47.6038321,-122.3300624
Syracuse NY,23,2019-06-03,43.0481221,-76.1474244
Tampa,8,2019-06-03,27.9477595,-82.458444
Traverse City,44,2019-06-03,44.7606441,-85.6165301
Tri,37,2019-06-03,35.875259,-78.7751271
Washington DC,6,2019-06-03,38.8948932,-77.0365529
West Palm Beach,11,2019-06-03,26.7153425,-80.0533746
Wheeling WV,100,2019-06-03,40.0639616,-80.7209149
Albany,7,2019-06-10,42.6511674,-73.754968
Albuquerque,6,2019-06-10,35.0841034,-106.6509851
Atlanta GA,2,2019-06-10,33.7490987,-84.3901849
Austin TX,4,2019-06-10,30.2711286,-97.7436995
Baltimore MD,12,2019-06-10,39.2908816,-76.610759
Beaumont,34,2019-06-10,30.0860459,-94.1018461
Bluefield,55,2019-06-10,37.2698395,-81.2223195
Boise ID,14,2019-06-10,43.6166163,-116.200886
Boston MA,4,2019-06-10,42.3602534,-71.0582912
Buffalo NY,12,2019-06-10,42.8867166,-78.8783922
Butte,58,2019-06-10,39.6519275,-121.5858444
Charleston SC,12,2019-06-10,32.7876012,-79.9402728
Charlotte NC,6,2019-06-10,35.2270869,-80.8431268
Cheyenne WY,90,2019-06-10,45.2519491,-75.7306849
Chicago IL,2,2019-06-10,41.8755616,-87.6244212
Cincinnati OH,4,2019-06-10,39.1014537,-84.5124602
Columbus OH,6,2019-06-10,39.9622601,-83.0007065
Dallas,2,2019-06-10,32.7762719,-96.7968559
Denver CO,3,2019-06-10,39.7348381,-104.9653271
Detroit MI,2,2019-06-10,42.3315509,-83.0466403
Eugene OR,17,2019-06-10,44.0505054,-123.0950506
Fresno,7,2019-06-10,36.7295295,-119.70886126075588
Grand Rapids,5,2019-06-10,42.9632405,-85.6678639
Great Falls MT,100,2019-06-10,47.5048851,-111.2918908
Green Bay,11,2019-06-10,44.5126379,-88.0125794
Harrisburg,6,2019-06-10,40.2663107,-76.8861122
Hartford,4,2019-06-10,41.764582,-72.6908547
Honolulu HI,8,2019-06-10,21.304547,-157.8556764
Houston TX,2,2019-06-10,29.7589382,-95.3676974
Indianapolis IN,4,2019-06-10,39.7683331,-86.1583502
Jacksonville FL,6,2019-06-10,30.3321838,-81.655651
Joplin MO,42,2019-06-10,37.08418,-94.51323
Kansas City MO,4,2019-06-10,39.100105,-94.5781416
Knoxville TN,9,2019-06-10,35.9603948,-83.9210261
La Crosse,24,2019-06-10,43.8014053,-91.2395429
Las Vegas NV,4,2019-06-10,36.1672559,-115.1485163
Los Angeles CA,2,2019-06-10,34.0536909,-118.2427666
Medford,27,2019-06-10,42.4184296,-71.1061639
Memphis TN,8,2019-06-10,35.1490215,-90.0516285
Miami,2,2019-06-10,25.7742658,-80.1936589
Milwaukee WI,4,2019-06-10,43.0349931,-87.922497
Minneapolis,2,2019-06-10,44.9772995,-93.2654692
Nashville TN,6,2019-06-10,36.1622296,-86.7743531
New Orleans LA,6,2019-06-10,29.9499323,-90.0701156
New York NY,2,2019-06-10,40.7127281,-74.0060152
Norfolk,5,2019-06-10,52.666667,1.0
Omaha NE,8,2019-06-10,41.2587459,-95.9383758
Orlando,3,2019-06-10,28.5421109,-81.3790304
Philadelphia PA,2,2019-06-10,39.9527237,-75.1635262
Phoenix AZ,5,2019-06-10,33.4484367,-112.0741417
Pittsburgh PA,4,2019-06-10,40.4416941,-79.9900861
Portland OR,3,2019-06-10,45.5202471,-122.6741949
Portland,10,2019-06-10,45.5202471,-122.6741949
Rapid City SD,52,2019-06-10,44.081176,-103.228006
Richmond,7,2019-06-10,37.5385087,-77.43428
Salt Lake City UT,3,2019-06-10,40.7596198,-111.8867975
San Antonio TX,4,2019-06-10,29.4246002,-98.4951405
San Diego CA,2,2019-06-10,32.7174209,-117.1627714
San Francisco,2,2019-06-10,37.7790262,-122.4199061
Seattle,2,2019-06-10,47.6038321,-122.3300624
Springfield,16,2019-06-10,39.7990175,-89.6439575
Tampa,4,2019-06-10,27.9477595,-82.458444
Tulsa OK,9,2019-06-10,36.1556805,-95.9929113
Utica NY,49,2019-06-10,43.1009031,-75.2326641
Washington DC,1,2019-06-10,38.8948932,-77.0365529
Wilkes Barre,9,2019-06-10,41.2464824,-75.8817316
Abilene,59,2019-06-17,32.44645,-99.7475905
Albany,8,2019-06-17,42.6511674,-73.754968
Atlanta GA,1,2019-06-17,33.7490987,-84.3901849
Austin TX,4,2019-06-17,30.2711286,-97.7436995
Baltimore MD,8,2019-06-17,39.2908816,-76.610759
Boise ID,17,2019-06-17,43.6166163,-116.200886
Boston MA,2,2019-06-17,42.3602534,-71.0582912
Buffalo NY,8,2019-06-17,42.8867166,-78.8783922
Champaign,17,2019-06-17,40.1164205,-88.2433829
Charleston SC,14,2019-06-17,32.7876012,-79.9402728
Charlotte NC,4,2019-06-17,35.2270869,-80.8431268
Cheyenne WY,100,2019-06-17,45.2519491,-75.7306849
Chicago IL,2,2019-06-17,41.8755616,-87.6244212
Cincinnati OH,5,2019-06-17,39.1014537,-84.5124602
Cleveland,6,2019-06-17,41.5051613,-81.6934446
Colorado Springs,13,2019-06-17,38.8339578,-104.8253485
Columbus OH,5,2019-06-17,39.9622601,-83.0007065
Dallas,2,2019-06-17,32.7762719,-96.7968559
Denver CO,2,2019-06-17,39.7348381,-104.9653271
Detroit MI,2,2019-06-17,42.3315509,-83.0466403
Eugene OR,23,2019-06-17,44.0505054,-123.0950506
Fresno,8,2019-06-17,36.7295295,-119.70886126075588
Greenville,10,2019-06-17,34.851354,-82.3984882
Hartford,4,2019-06-17,41.764582,-72.6908547
Houston TX,3,2019-06-17,29.7589382,-95.3676974
Johnstown,20,2019-06-17,40.3267407,-78.9219698
Lexington KY,12,2019-06-17,38.0464066,-84.4970393
Los Angeles CA,2,2019-06-17,34.0536909,-118.2427666
Lubbock TX,36,2019-06-17,33.5635206,-101.879336
Madison WI,13,2019-06-17,43.074761,-89.3837613
Miami,2,2019-06-17,25.7742658,-80.1936589
Milwaukee WI,5,2019-06-17,43.0349931,-87.922497
Minneapolis,2,2019-06-17,44.9772995,-93.2654692
Nashville TN,4,2019-06-17,36.1622296,-86.7743531
New York NY,1,2019-06-17,40.7127281,-74.0060152
Norfolk,6,2019-06-17,52.666667,1.0
Oklahoma City OK,7,2019-06-17,35.4729886,-97.5170536
Omaha NE,9,2019-06-17,41.2587459,-95.9383758
Orlando,5,2019-06-17,28.5421109,-81.3790304
Palm Springs CA,36,2019-06-17,33.8246269,-116.540303
Philadelphia PA,2,2019-06-17,39.9527237,-75.1635262
Phoenix AZ,2,2019-06-17,33.4484367,-112.0741417
Portland OR,7,2019-06-17,45.5202471,-122.6741949
Raleigh,3,2019-06-17,35.7803977,-78.6390989
Salt Lake City UT,4,2019-06-17,40.7596198,-111.8867975
San Angelo TX,85,2019-06-17,31.4648357,-100.4398442
San Francisco,1,2019-06-17,37.7790262,-122.4199061
Santa Barbara,38,2019-06-17,34.4221319,-119.7026673
Seattle,2,2019-06-17,47.6038321,-122.3300624
Sioux Fall,48,2019-06-17,46.737158,-90.8801835
South Bend,18,2019-06-17,41.6833813,-86.2500066
St. Louis MO,4,2019-06-17,38.6529545,-90.24111656024635
Toledo OH,14,2019-06-17,41.6786754,-83.5127283
Waco,14,2019-06-17,31.549333,-97.1466695
Washington DC,1,2019-06-17,38.8948932,-77.0365529
West Palm Beach,7,2019-06-17,26.7153425,-80.0533746
Albuquerque,12,2019-06-24,35.0841034,-106.6509851
Anchorage AK,100,2019-06-24,61.2163129,-149.8948523
Atlanta GA,3,2019-06-24,33.7490987,-84.3901849
Baltimore MD,7,2019-06-24,39.2908816,-76.610759
Binghamton NY,84,2019-06-24,42.096968,-75.914341
Boise ID,29,2019-06-24,43.6166163,-116.200886
Boston MA,3,2019-06-24,42.3602534,-71.0582912
Buffalo NY,14,2019-06-24,42.8867166,-78.8783922
Champaign,30,2019-06-24,40.1164205,-88.2433829
Charleston SC,24,2019-06-24,32.7876012,-79.9402728
Chattanooga TN,27,2019-06-24,35.0457219,-85.3094883
Chicago IL,3,2019-06-24,41.8755616,-87.6244212
Cleveland,5,2019-06-24,41.5051613,-81.6934446
Columbia SC,24,2019-06-24,34.0007493,-81.0343313
Columbia,60,2019-06-24,2.8894434,-73.783892
Dallas,5,2019-06-24,32.7762719,-96.7968559
Denver CO,4,2019-06-24,39.7348381,-104.9653271
Detroit MI,4,2019-06-24,42.3315509,-83.0466403
Duluth MN,65,2019-06-24,46.7729322,-92.1251218
El Paso TX,24,2019-06-24,31.7754152,-106.4646348
Evansville IN,43,2019-06-24,4.5777639,-7.6472486
Fresno,15,2019-06-24,36.7295295,-119.70886126075588
Green Bay,22,2019-06-24,44.5126379,-88.0125794
Greenville,16,2019-06-24,34.851354,-82.3984882
Hartford,7,2019-06-24,41.764582,-72.6908547
Honolulu HI,16,2019-06-24,21.304547,-157.8556764
Houston TX,4,2019-06-24,29.7589382,-95.3676974
Idaho Falls,66,2019-06-24,43.4935245,-112.0400919
Indianapolis IN,8,2019-06-24,39.7683331,-86.1583502
Johnstown,35,2019-06-24,40.3267407,-78.9219698
Kansas City MO,13,2019-06-24,39.100105,-94.5781416
La Crosse,49,2019-06-24,43.8014053,-91.2395429
Lafayette LA,51,2019-06-24,30.2240897,-92.0198427
Lexington KY,22,2019-06-24,38.0464066,-84.4970393
Los Angeles CA,2,2019-06-24,34.0536909,-118.2427666
Lubbock TX,63,2019-06-24,33.5635206,-101.879336
Miami,4,2019-06-24,25.7742658,-80.1936589
Montgomery,48,2019-06-24,32.3669656,-86.3006485
New York NY,3,2019-06-24,40.7127281,-74.0060152
Norfolk,10,2019-06-24,52.666667,1.0
Orlando,4,2019-06-24,28.5421109,-81.3790304
Paducah KY,55,2019-06-24,37.0833893,-88.6000478
Philadelphia PA,2,2019-06-24,39.9527237,-75.1635262
Phoenix AZ,4,2019-06-24,33.4484367,-112.0741417
Portland OR,6,2019-06-24,45.5202471,-122.6741949
Raleigh,11,2019-06-24,35.7803977,-78.6390989
Reno NV,32,2019-06-24,39.5261206,-119.8126581
Rochester NY,22,2019-06-24,43.157285,-77.615214
Sacramento,5,2019-06-24,38.5815719,-121.4943996
Salt Lake City UT,9,2019-06-24,40.7596198,-111.8867975
San Antonio TX,8,2019-06-24,29.4246002,-98.4951405
San Diego CA,5,2019-06-24,32.7174209,-117.1627714
San Francisco,2,2019-06-24,37.7790262,-122.4199061
Savannah GA,25,2019-06-24,43.4129206,-79.7028276
Seattle,5,2019-06-24,47.6038321,-122.3300624
Sherman TX,98,2019-06-24,36.2452294,-101.8858689
Sioux Fall,42,2019-06-24,46.737158,-90.8801835
South Bend,47,2019-06-24,41.6833813,-86.2500066
Spokane WA,23,2019-06-24,47.6579425,-117.4212265
St. Louis MO,14,2019-06-24,38.6529545,-90.24111656024635
Tampa,9,2019-06-24,27.9477595,-82.458444
Terre Haute IN,96,2019-06-24,39.4667025,-87.4139119
Traverse City,42,2019-06-24,44.7606441,-85.6165301
Waco,24,2019-06-24,31.549333,-97.1466695
Washington DC,3,2019-06-24,38.8948932,-77.0365529
West Palm Beach,11,2019-06-24,26.7153425,-80.0533746
Wichita,24,2019-06-24,37.6922361,-97.3375448
Atlanta GA,2,2019-07-01,33.7490987,-84.3901849
Bakersfield CA,39,2019-07-01,35.3738712,-119.0194639
Baltimore MD,8,2019-07-01,39.2908816,-76.610759
Boston MA,3,2019-07-01,42.3602534,-71.0582912
Charlotte NC,9,2019-07-01,35.2270869,-80.8431268
Chicago IL,7,2019-07-01,41.8755616,-87.6244212
Columbus,100,2019-07-01,39.9622601,-83.0007065
Dallas,2,2019-07-01,32.7762719,-96.7968559
Dayton OH,24,2019-07-01,39.7589478,-84.1916069
Denver CO,13,2019-07-01,39.7348381,-104.9653271
Detroit MI,5,2019-07-01,42.3315509,-83.0466403
Flint,28,2019-07-01,43.0161693,-83.6900211
Fresno,16,2019-07-01,36.7295295,-119.70886126075588
Ft. Wayne IN,45,2019-07-01,41.0799898,-85.1386015
Greenville,12,2019-07-01,34.851354,-82.3984882
Hartford,8,2019-07-01,41.764582,-72.6908547
Idaho Falls,71,2019-07-01,43.4935245,-112.0400919
Indianapolis IN,17,2019-07-01,39.7683331,-86.1583502
Jacksonville FL,13,2019-07-01,30.3321838,-81.655651
Johnstown,37,2019-07-01,40.3267407,-78.9219698
Lansing MI,45,2019-07-01,42.7338147,-84.5207088
Lexington KY,24,2019-07-01,38.0464066,-84.4970393
Los Angeles CA,2,2019-07-01,34.0536909,-118.2427666
Louisville KY,14,2019-07-01,38.2542376,-85.759407
Miami,4,2019-07-01,25.7742658,-80.1936589
Minneapolis,5,2019-07-01,44.9772995,-93.2654692
Monroe LA,96,2019-07-01,38.2722313,-90.1792484
New York NY,1,2019-07-01,40.7127281,-74.0060152
Norfolk,10,2019-07-01,52.666667,1.0
Oklahoma City OK,15,2019-07-01,35.4729886,-97.5170536
Omaha NE,18,2019-07-01,41.2587459,-95.9383758
Orlando,9,2019-07-01,28.5421109,-81.3790304
Philadelphia PA,4,2019-07-01,39.9527237,-75.1635262
Pittsburgh PA,9,2019-07-01,40.4416941,-79.9900861
Portland OR,6,2019-07-01,45.5202471,-122.6741949
Richmond,17,2019-07-01,37.5385087,-77.43428
Roanoke,23,2019-07-01,37.270973,-79.9414313
Rockford IL,62,2019-07-01,42.2713945,-89.093966
Sacramento,11,2019-07-01,38.5815719,-121.4943996
Salisbury MD,43,2019-07-01,38.3662114,-75.6008881
Salt Lake City UT,7,2019-07-01,40.7596198,-111.8867975
San Diego CA,6,2019-07-01,32.7174209,-117.1627714
Seattle,5,2019-07-01,47.6038321,-122.3300624
Sioux Fall,47,2019-07-01,46.737158,-90.8801835
St. Louis MO,8,2019-07-01,38.6529545,-90.24111656024635
Tampa,9,2019-07-01,27.9477595,-82.458444
Tucson,24,2019-07-01,32.2228765,-110.9748477
Washington DC,3,2019-07-01,38.8948932,-77.0365529
Wichita,27,2019-07-01,37.6922361,-97.3375448
Albuquerque,9,2019-07-08,35.0841034,-106.6509851
Atlanta GA,2,2019-07-08,33.7490987,-84.3901849
Birmingham AL,9,2019-07-08,33.570499,-86.765783
Boston MA,2,2019-07-08,42.3602534,-71.0582912
Butte,86,2019-07-08,39.6519275,-121.5858444
Charlotte NC,6,2019-07-08,35.2270869,-80.8431268
Chicago IL,3,2019-07-08,41.8755616,-87.6244212
Cincinnati OH,7,2019-07-08,39.1014537,-84.5124602
Clarksburg,100,2019-07-08,39.2806451,-80.3445341
Cleveland,4,2019-07-08,41.5051613,-81.6934446
Colorado Springs,18,2019-07-08,38.8339578,-104.8253485
Dallas,3,2019-07-08,32.7762719,-96.7968559
Denver CO,3,2019-07-08,39.7348381,-104.9653271
Des Moines,17,2019-07-08,41.5910641,-93.6037149
Detroit MI,3,2019-07-08,42.3315509,-83.0466403
El Paso TX,19,2019-07-08,31.7754152,-106.4646348
Ft. Myers,15,2019-07-08,26.640628,-81.8723084
Greenville,8,2019-07-08,34.851354,-82.3984882
Harrisburg,10,2019-07-08,40.2663107,-76.8861122
Houston TX,2,2019-07-08,29.7589382,-95.3676974
Jackson MS,22,2019-07-08,28.530801699999998,-81.30324431076107
Johnstown,26,2019-07-08,40.3267407,-78.9219698
Knoxville TN,14,2019-07-08,35.9603948,-83.9210261
Lake Charles LA,79,2019-07-08,30.2265949,-93.2173759
Lansing MI,30,2019-07-08,42.7338147,-84.5207088
Laredo TX,82,2019-07-08,27.5199841,-99.4953764
Los Angeles CA,2,2019-07-08,34.0536909,-118.2427666
Louisville KY,10,2019-07-08,38.2542376,-85.759407
Memphis TN,12,2019-07-08,35.1490215,-90.0516285
Miami,6,2019-07-08,25.7742658,-80.1936589
Minneapolis,6,2019-07-08,44.9772995,-93.2654692
New York NY,1,2019-07-08,40.7127281,-74.0060152
Oklahoma City OK,10,2019-07-08,35.4729886,-97.5170536
Paducah KY,27,2019-07-08,37.0833893,-88.6000478
Palm Springs CA,49,2019-07-08,33.8246269,-116.540303
Phoenix AZ,4,2019-07-08,33.4484367,-112.0741417
Pittsburgh PA,6,2019-07-08,40.4416941,-79.9900861
Portland,16,2019-07-08,45.5202471,-122.6741949
Raleigh,5,2019-07-08,35.7803977,-78.6390989
Rochester NY,17,2019-07-08,43.157285,-77.615214
Salt Lake City UT,5,2019-07-08,40.7596198,-111.8867975
San Diego CA,4,2019-07-08,32.7174209,-117.1627714
San Francisco,2,2019-07-08,37.7790262,-122.4199061
Savannah GA,19,2019-07-08,43.4129206,-79.7028276
Seattle,5,2019-07-08,47.6038321,-122.3300624
Tampa,3,2019-07-08,27.9477595,-82.458444
Toledo OH,19,2019-07-08,41.6786754,-83.5127283
Traverse City,31,2019-07-08,44.7606441,-85.6165301
Waco,19,2019-07-08,31.549333,-97.1466695
Washington DC,5,2019-07-08,38.8948932,-77.0365529
Wilmington NC,33,2019-07-08,34.2257282,-77.9447107
Albuquerque,13,2019-07-15,35.0841034,-106.6509851
Atlanta GA,3,2019-07-15,33.7490987,-84.3901849
Binghamton NY,88,2019-07-15,42.096968,-75.914341
Boston MA,4,2019-07-15,42.3602534,-71.0582912
Cedar Rapids,30,2019-07-15,41.9758872,-91.6704053
Charlotte NC,7,2019-07-15,35.2270869,-80.8431268
Charlottesville VA,100,2019-07-15,38.029306,-78.4766781
Chicago IL,2,2019-07-15,41.8755616,-87.6244212
Cincinnati OH,9,2019-07-15,39.1014537,-84.5124602
Cleveland,4,2019-07-15,41.5051613,-81.6934446
Dallas,4,2019-07-15,32.7762719,-96.7968559
Denver CO,4,2019-07-15,39.7348381,-104.9653271
Duluth MN,66,2019-07-15,46.7729322,-92.1251218
Eugene OR,41,2019-07-15,44.0505054,-123.0950506
Grand Rapids,12,2019-07-15,42.9632405,-85.6678639
Hartford,8,2019-07-15,41.764582,-72.6908547
Honolulu HI,17,2019-07-15,21.304547,-157.8556764
Houston TX,3,2019-07-15,29.7589382,-95.3676974
Indianapolis IN,8,2019-07-15,39.7683331,-86.1583502
Kansas City MO,9,2019-07-15,39.100105,-94.5781416
Lansing MI,39,2019-07-15,42.7338147,-84.5207088
Las Vegas NV,9,2019-07-15,36.1672559,-115.1485163
Little Rock,19,2019-07-15,34.7464809,-92.2895948
Los Angeles CA,2,2019-07-15,34.0536909,-118.2427666
Louisville KY,26,2019-07-15,38.2542376,-85.759407
Minneapolis,4,2019-07-15,44.9772995,-93.2654692
Minot,69,2019-07-15,47.6698594,4.8786165
Monterey,35,2019-07-15,36.2231079,-121.3877428
Nashville TN,7,2019-07-15,36.1622296,-86.7743531
New Orleans LA,13,2019-07-15,29.9499323,-90.0701156
New York NY,2,2019-07-15,40.7127281,-74.0060152
Omaha NE,34,2019-07-15,41.2587459,-95.9383758
Orlando,9,2019-07-15,28.5421109,-81.3790304
Panama City FL,60,2019-07-15,30.1600827,-85.6545729
Peoria,39,2019-07-15,40.6938609,-89.5891008
Philadelphia PA,5,2019-07-15,39.9527237,-75.1635262
Portland OR,6,2019-07-15,45.5202471,-122.6741949
Providence RI,14,2019-07-15,51.4325409,-2.6642358
Raleigh,6,2019-07-15,35.7803977,-78.6390989
Sacramento,5,2019-07-15,38.5815719,-121.4943996
Salisbury MD,46,2019-07-15,38.3662114,-75.6008881
Salt Lake City UT,7,2019-07-15,40.7596198,-111.8867975
San Antonio TX,8,2019-07-15,29.4246002,-98.4951405
Seattle,7,2019-07-15,47.6038321,-122.3300624
Spokane WA,46,2019-07-15,47.6579425,-117.4212265
Springfield MO,26,2019-07-15,37.2166779,-93.2920373
Tampa,9,2019-07-15,27.9477595,-82.458444
Toledo OH,25,2019-07-15,41.6786754,-83.5127283
Washington DC,2,2019-07-15,38.8948932,-77.0365529
Albuquerque,7,2019-07-22,35.0841034,-106.6509851
Atlanta GA,1,2019-07-22,33.7490987,-84.3901849
Baltimore MD,4,2019-07-22,39.2908816,-76.610759
Boston MA,2,2019-07-22,42.3602534,-71.0582912
Chattanooga TN,16,2019-07-22,35.0457219,-85.3094883
Cheyenne WY,100,2019-07-22,45.2519491,-75.7306849
Chicago IL,2,2019-07-22,41.8755616,-87.6244212
Chico,32,2019-07-22,39.7284945,-121.8374777
Cincinnati OH,5,2019-07-22,39.1014537,-84.5124602
Dallas,1,2019-07-22,32.7762719,-96.7968559
Detroit MI,2,2019-07-22,42.3315509,-83.0466403
El Paso TX,14,2019-07-22,31.7754152,-106.4646348
Ft. Smith,19,2019-07-22,35.3872218,-94.4248983
Green Bay,13,2019-07-22,44.5126379,-88.0125794
Greensboro,8,2019-07-22,36.0726355,-79.7919754
Harrisburg,8,2019-07-22,40.2663107,-76.8861122
Hartford,4,2019-07-22,41.764582,-72.6908547
Honolulu HI,10,2019-07-22,21.304547,-157.8556764
Kansas City MO,5,2019-07-22,39.100105,-94.5781416
Lansing MI,23,2019-07-22,42.7338147,-84.5207088
Los Angeles CA,1,2019-07-22,34.0536909,-118.2427666
Miami,2,2019-07-22,25.7742658,-80.1936589
Minneapolis,2,2019-07-22,44.9772995,-93.2654692
Minot,39,2019-07-22,47.6698594,4.8786165
Missoula MT,47,2019-07-22,46.8701049,-113.9952672
New York NY,1,2019-07-22,40.7127281,-74.0060152
Omaha NE,10,2019-07-22,41.2587459,-95.9383758
Orlando,2,2019-07-22,28.5421109,-81.3790304
Philadelphia PA,1,2019-07-22,39.9527237,-75.1635262
Pittsburgh PA,5,2019-07-22,40.4416941,-79.9900861
Portland OR,5,2019-07-22,45.5202471,-122.6741949
Providence RI,8,2019-07-22,51.4325409,-2.6642358
Raleigh,3,2019-07-22,35.7803977,-78.6390989
Rochester NY,13,2019-07-22,43.157285,-77.615214
Salt Lake City UT,4,2019-07-22,40.7596198,-111.8867975
San Antonio TX,5,2019-07-22,29.4246002,-98.4951405
San Diego CA,3,2019-07-22,32.7174209,-117.1627714
San Francisco,3,2019-07-22,37.7790262,-122.4199061
Seattle,3,2019-07-22,47.6038321,-122.3300624
Springfield,20,2019-07-22,39.7990175,-89.6439575
Tampa,4,2019-07-22,27.9477595,-82.458444
Washington DC,2,2019-07-22,38.8948932,-77.0365529
Wheeling WV,61,2019-07-22,40.0639616,-80.7209149
Wichita,14,2019-07-22,37.6922361,-97.3375448
Albuquerque,14,2019-07-29,35.0841034,-106.6509851
Atlanta GA,3,2019-07-29,33.7490987,-84.3901849
Baton Rouge LA,36,2019-07-29,30.4459596,-91.18738
Beaumont,77,2019-07-29,30.0860459,-94.1018461
Binghamton NY,100,2019-07-29,42.096968,-75.914341
Boston MA,3,2019-07-29,42.3602534,-71.0582912
Charleston SC,28,2019-07-29,32.7876012,-79.9402728
Chicago IL,2,2019-07-29,41.8755616,-87.6244212
Dallas,2,2019-07-29,32.7762719,-96.7968559
Dayton OH,26,2019-07-29,39.7589478,-84.1916069
Denver CO,5,2019-07-29,39.7348381,-104.9653271
Des Moines,25,2019-07-29,41.5910641,-93.6037149
Detroit MI,5,2019-07-29,42.3315509,-83.0466403
Evansville IN,50,2019-07-29,4.5777639,-7.6472486
Flint,29,2019-07-29,43.0161693,-83.6900211
Fresno,17,2019-07-29,36.7295295,-119.70886126075588
Gainesville FL,73,2019-07-29,29.67357765,-82.32337460192167
Hartford,9,2019-07-29,41.764582,-72.6908547
Los Angeles CA,2,2019-07-29,34.0536909,-118.2427666
Memphis TN,18,2019-07-29,35.1490215,-90.0516285
Miami,5,2019-07-29,25.7742658,-80.1936589
Minneapolis,5,2019-07-29,44.9772995,-93.2654692
New York NY,1,2019-07-29,40.7127281,-74.0060152
Orlando,4,2019-07-29,28.5421109,-81.3790304
Panama City FL,70,2019-07-29,30.1600827,-85.6545729
Phoenix AZ,4,2019-07-29,33.4484367,-112.0741417
Pittsburgh PA,9,2019-07-29,40.4416941,-79.9900861
Portland,23,2019-07-29,45.5202471,-122.6741949
Providence RI,16,2019-07-29,51.4325409,-2.6642358
Salt Lake City UT,8,2019-07-29,40.7596198,-111.8867975
San Diego CA,6,2019-07-29,32.7174209,-117.1627714
San Francisco,2,2019-07-29,37.7790262,-122.4199061
South Bend,36,2019-07-29,41.6833813,-86.2500066
Tampa,5,2019-07-29,27.9477595,-82.458444
Tri,45,2019-07-29,35.875259,-78.7751271
Washington DC,5,2019-07-29,38.8948932,-77.0365529
West Palm Beach,13,2019-07-29,26.7153425,-80.0533746
Albany,12,2019-08-05,42.6511674,-73.754968
Atlanta GA,2,2019-08-05,33.7490987,-84.3901849
Boston MA,2,2019-08-05,42.3602534,-71.0582912
Butte,100,2019-08-05,39.6519275,-121.5858444
Chicago IL,2,2019-08-05,41.8755616,-87.6244212
Cleveland,4,2019-08-05,41.5051613,-81.6934446
Columbia SC,21,2019-08-05,34.0007493,-81.0343313
Corpus Christi TX,40,2019-08-05,27.7477253,-97.4014129
Denver CO,4,2019-08-05,39.7348381,-104.9653271
Detroit MI,4,2019-08-05,42.3315509,-83.0466403
El Paso TX,21,2019-08-05,31.7754152,-106.4646348
Greensboro,13,2019-08-05,36.0726355,-79.7919754
Hartford,7,2019-08-05,41.764582,-72.6908547
Houston TX,2,2019-08-05,29.7589382,-95.3676974
Knoxville TN,16,2019-08-05,35.9603948,-83.9210261
Las Vegas NV,8,2019-08-05,36.1672559,-115.1485163
New York NY,1,2019-08-05,40.7127281,-74.0060152
Peoria,34,2019-08-05,40.6938609,-89.5891008
Phoenix AZ,3,2019-08-05,33.4484367,-112.0741417
Raleigh,5,2019-08-05,35.7803977,-78.6390989
San Francisco,2,2019-08-05,37.7790262,-122.4199061
Seattle,3,2019-08-05,47.6038321,-122.3300624
St. Louis MO,6,2019-08-05,38.6529545,-90.24111656024635
Albuquerque,7,2019-08-12,35.0841034,-106.6509851
Atlanta GA,1,2019-08-12,33.7490987,-84.3901849
Austin TX,4,2019-08-12,30.2711286,-97.7436995
Birmingham AL,7,2019-08-12,33.570499,-86.765783
Boston MA,1,2019-08-12,42.3602534,-71.0582912
Cedar Rapids,16,2019-08-12,41.9758872,-91.6704053
Charleston,17,2019-08-12,32.7876012,-79.9402728
Cheyenne WY,100,2019-08-12,45.2519491,-75.7306849
Chicago IL,2,2019-08-12,41.8755616,-87.6244212
Chico,30,2019-08-12,39.7284945,-121.8374777
Cincinnati OH,5,2019-08-12,39.1014537,-84.5124602
Columbus OH,5,2019-08-12,39.9622601,-83.0007065
Dallas,2,2019-08-12,32.7762719,-96.7968559
Davenport IA,20,2019-08-12,41.5236436,-90.5776368
Detroit MI,2,2019-08-12,42.3315509,-83.0466403
Evansville IN,22,2019-08-12,4.5777639,-7.6472486
Ft. Smith,17,2019-08-12,35.3872218,-94.4248983
Ft. Wayne IN,21,2019-08-12,41.0799898,-85.1386015
Houston TX,1,2019-08-12,29.7589382,-95.3676974
Huntsville,14,2019-08-12,34.729847,-86.5859011
Jacksonville FL,7,2019-08-12,30.3321838,-81.655651
Kansas City MO,5,2019-08-12,39.100105,-94.5781416
Los Angeles CA,1,2019-08-12,34.0536909,-118.2427666
Miami,2,2019-08-12,25.7742658,-80.1936589
Milwaukee WI,5,2019-08-12,43.0349931,-87.922497
Minneapolis,2,2019-08-12,44.9772995,-93.2654692
Nashville TN,3,2019-08-12,36.1622296,-86.7743531
Norfolk,5,2019-08-12,52.666667,1.0
Orlando,3,2019-08-12,28.5421109,-81.3790304
Philadelphia PA,3,2019-08-12,39.9527237,-75.1635262
Phoenix AZ,2,2019-08-12,33.4484367,-112.0741417
Pittsburgh PA,4,2019-08-12,40.4416941,-79.9900861
Portland OR,3,2019-08-12,45.5202471,-122.6741949
Providence RI,7,2019-08-12,51.4325409,-2.6642358
Raleigh,4,2019-08-12,35.7803977,-78.6390989
Salt Lake City UT,4,2019-08-12,40.7596198,-111.8867975
San Francisco,2,2019-08-12,37.7790262,-122.4199061
Seattle,4,2019-08-12,47.6038321,-122.3300624
St. Louis MO,4,2019-08-12,38.6529545,-90.24111656024635
Tallahassee FL,20,2019-08-12,30.4380832,-84.2809332
Tampa,2,2019-08-12,27.9477595,-82.458444
Tulsa OK,10,2019-08-12,36.1556805,-95.9929113
Wausau,32,2019-08-12,44.9596017,-89.6298239
Wilkes Barre,20,2019-08-12,41.2464824,-75.8817316
Albany,13,2019-08-19,42.6511674,-73.754968
Atlanta GA,2,2019-08-19,33.7490987,-84.3901849
Austin TX,10,2019-08-19,30.2711286,-97.7436995
Baltimore MD,7,2019-08-19,39.2908816,-76.610759
Binghamton NY,69,2019-08-19,42.096968,-75.914341
Boston MA,6,2019-08-19,42.3602534,-71.0582912
Butte,100,2019-08-19,39.6519275,-121.5858444
Cedar Rapids,25,2019-08-19,41.9758872,-91.6704053
Champaign,24,2019-08-19,40.1164205,-88.2433829
Charlotte NC,5,2019-08-19,35.2270869,-80.8431268
Chicago IL,4,2019-08-19,41.8755616,-87.6244212
Cincinnati OH,15,2019-08-19,39.1014537,-84.5124602
Cleveland,5,2019-08-19,41.5051613,-81.6934446
Colorado Springs,20,2019-08-19,38.8339578,-104.8253485
Columbus OH,7,2019-08-19,39.9622601,-83.0007065
Dallas,2,2019-08-19,32.7762719,-96.7968559
Dayton OH,19,2019-08-19,39.7589478,-84.1916069
Denver CO,5,2019-08-19,39.7348381,-104.9653271
Des Moines,18,2019-08-19,41.5910641,-93.6037149
Detroit MI,4,2019-08-19,42.3315509,-83.0466403
Duluth MN,58,2019-08-19,46.7729322,-92.1251218
Erie PA,61,2019-08-19,42.1294712,-80.0852695
Flint,44,2019-08-19,43.0161693,-83.6900211
Ft. Myers,17,2019-08-19,26.640628,-81.8723084
Grand Rapids,10,2019-08-19,42.9632405,-85.6678639
Greensboro,12,2019-08-19,36.0726355,-79.7919754
Greenville,26,2019-08-19,34.851354,-82.3984882
Harrisburg,11,2019-08-19,40.2663107,-76.8861122
Hartford,7,2019-08-19,41.764582,-72.6908547
Honolulu HI,14,2019-08-19,21.304547,-157.8556764
Houston TX,2,2019-08-19,29.7589382,-95.3676974
Idaho Falls,60,2019-08-19,43.4935245,-112.0400919
Kansas City MO,7,2019-08-19,39.100105,-94.5781416
Las Vegas NV,8,2019-08-19,36.1672559,-115.1485163
Lexington KY,18,2019-08-19,38.0464066,-84.4970393
Los Angeles CA,3,2019-08-19,34.0536909,-118.2427666
Miami,3,2019-08-19,25.7742658,-80.1936589
Minneapolis,6,2019-08-19,44.9772995,-93.2654692
Nashville TN,5,2019-08-19,36.1622296,-86.7743531
New York NY,2,2019-08-19,40.7127281,-74.0060152
Norfolk,9,2019-08-19,52.666667,1.0
Omaha NE,14,2019-08-19,41.2587459,-95.9383758
Orlando,6,2019-08-19,28.5421109,-81.3790304
Philadelphia PA,2,2019-08-19,39.9527237,-75.1635262
Phoenix AZ,5,2019-08-19,33.4484367,-112.0741417
Pittsburgh PA,9,2019-08-19,40.4416941,-79.9900861
Portland OR,5,2019-08-19,45.5202471,-122.6741949
Providence RI,12,2019-08-19,51.4325409,-2.6642358
Raleigh,4,2019-08-19,35.7803977,-78.6390989
Rochester NY,19,2019-08-19,43.157285,-77.615214
Sacramento,4,2019-08-19,38.5815719,-121.4943996
Salt Lake City UT,10,2019-08-19,40.7596198,-111.8867975
San Antonio TX,7,2019-08-19,29.4246002,-98.4951405
San Diego CA,7,2019-08-19,32.7174209,-117.1627714
San Francisco,6,2019-08-19,37.7790262,-122.4199061
South Bend,26,2019-08-19,41.6833813,-86.2500066
Spokane WA,19,2019-08-19,47.6579425,-117.4212265
Springfield,31,2019-08-19,39.7990175,-89.6439575
St. Louis MO,9,2019-08-19,38.6529545,-90.24111656024635
Tampa,4,2019-08-19,27.9477595,-82.458444
Tucson,18,2019-08-19,32.2228765,-110.9748477
Waco,41,2019-08-19,31.549333,-97.1466695
Washington DC,3,2019-08-19,38.8948932,-77.0365529
Yakima,35,2019-08-19,46.601557,-120.5108421
Abilene,54,2019-08-26,32.44645,-99.7475905
Atlanta GA,3,2019-08-26,33.7490987,-84.3901849
Baton Rouge LA,16,2019-08-26,30.4459596,-91.18738
Birmingham AL,6,2019-08-26,33.570499,-86.765783
Bluefield,63,2019-08-26,37.2698395,-81.2223195
Boston MA,2,2019-08-26,42.3602534,-71.0582912
Champaign,14,2019-08-26,40.1164205,-88.2433829
Charleston SC,25,2019-08-26,32.7876012,-79.9402728
Cleveland,3,2019-08-26,41.5051613,-81.6934446
Dallas,1,2019-08-26,32.7762719,-96.7968559
Davenport IA,20,2019-08-26,41.5236436,-90.5776368
Dayton OH,12,2019-08-26,39.7589478,-84.1916069
Denver CO,3,2019-08-26,39.7348381,-104.9653271
Detroit MI,2,2019-08-26,42.3315509,-83.0466403
Green Bay,13,2019-08-26,44.5126379,-88.0125794
Harrisburg,7,2019-08-26,40.2663107,-76.8861122
Huntsville,14,2019-08-26,34.729847,-86.5859011
Indianapolis IN,4,2019-08-26,39.7683331,-86.1583502
Los Angeles CA,1,2019-08-26,34.0536909,-118.2427666
Mankato MN,100,2019-08-26,44.1634663,-93.9993505
Milwaukee WI,5,2019-08-26,43.0349931,-87.922497
Minneapolis,2,2019-08-26,44.9772995,-93.2654692
New Orleans LA,7,2019-08-26,29.9499323,-90.0701156
New York NY,1,2019-08-26,40.7127281,-74.0060152
Orlando,2,2019-08-26,28.5421109,-81.3790304
Palm Springs CA,34,2019-08-26,33.8246269,-116.540303
Philadelphia PA,3,2019-08-26,39.9527237,-75.1635262
Phoenix AZ,2,2019-08-26,33.4484367,-112.0741417
Pittsburgh PA,4,2019-08-26,40.4416941,-79.9900861
Portland OR,3,2019-08-26,45.5202471,-122.6741949
Portland,12,2019-08-26,45.5202471,-122.6741949
Richmond,8,2019-08-26,37.5385087,-77.43428
Sacramento,6,2019-08-26,38.5815719,-121.4943996
Salt Lake City UT,4,2019-08-26,40.7596198,-111.8867975
San Antonio TX,4,2019-08-26,29.4246002,-98.4951405
San Diego CA,4,2019-08-26,32.7174209,-117.1627714
San Francisco,1,2019-08-26,37.7790262,-122.4199061
Seattle,3,2019-08-26,47.6038321,-122.3300624
Sioux Fall,21,2019-08-26,46.737158,-90.8801835
South Bend,16,2019-08-26,41.6833813,-86.2500066
Springfield MO,14,2019-08-26,37.2166779,-93.2920373
Syracuse NY,13,2019-08-26,43.0481221,-76.1474244
Tallahassee FL,17,2019-08-26,30.4380832,-84.2809332
Tampa,5,2019-08-26,27.9477595,-82.458444
Traverse City,23,2019-08-26,44.7606441,-85.6165301
Washington DC,3,2019-08-26,38.8948932,-77.0365529
Albuquerque,19,2019-09-02,35.0841034,-106.6509851
Atlanta GA,2,2019-09-02,33.7490987,-84.3901849
Austin TX,11,2019-09-02,30.2711286,-97.7436995
"Billings, MT",77,2019-09-02,45.7874957,-108.49607
Boston MA,2,2019-09-02,42.3602534,-71.0582912
Buffalo NY,10,2019-09-02,42.8867166,-78.8783922
Burlington VT,22,2019-09-02,44.4762975,-73.2135472
Butte,85,2019-09-02,39.6519275,-121.5858444
Chicago IL,1,2019-09-02,41.8755616,-87.6244212
Cincinnati OH,6,2019-09-02,39.1014537,-84.5124602
Cleveland,6,2019-09-02,41.5051613,-81.6934446
Columbia SC,16,2019-09-02,34.0007493,-81.0343313
Dallas,3,2019-09-02,32.7762719,-96.7968559
Denver CO,6,2019-09-02,39.7348381,-104.9653271
Fresno,10,2019-09-02,36.7295295,-119.70886126075588
Grand Junction,100,2019-09-02,39.063956,-108.5507317
Grand Rapids,9,2019-09-02,42.9632405,-85.6678639
Greenville,22,2019-09-02,34.851354,-82.3984882
Greenville,8,2019-09-02,34.851354,-82.3984882
Harrisburg,10,2019-09-02,40.2663107,-76.8861122
Hartford,6,2019-09-02,41.764582,-72.6908547
Houston TX,2,2019-09-02,29.7589382,-95.3676974
Indianapolis IN,6,2019-09-02,39.7683331,-86.1583502
Las Vegas NV,7,2019-09-02,36.1672559,-115.1485163
Los Angeles CA,2,2019-09-02,34.0536909,-118.2427666
Minneapolis,5,2019-09-02,44.9772995,-93.2654692
Monterey,40,2019-09-02,36.2231079,-121.3877428
Nashville TN,5,2019-09-02,36.1622296,-86.7743531
New York NY,1,2019-09-02,40.7127281,-74.0060152
Peoria,27,2019-09-02,40.6938609,-89.5891008
Philadelphia PA,3,2019-09-02,39.9527237,-75.1635262
Phoenix AZ,3,2019-09-02,33.4484367,-112.0741417
Pittsburgh PA,6,2019-09-02,40.4416941,-79.9900861
Portland,33,2019-09-02,45.5202471,-122.6741949
Richmond,11,2019-09-02,37.5385087,-77.43428
Sacramento,4,2019-09-02,38.5815719,-121.4943996
Salt Lake City UT,5,2019-09-02,40.7596198,-111.8867975
San Diego CA,4,2019-09-02,32.7174209,-117.1627714
San Francisco,2,2019-09-02,37.7790262,-122.4199061
Seattle,4,2019-09-02,47.6038321,-122.3300624
Shreveport LA,25,2019-09-02,32.5221828,-93.7651944
Sioux Fall,29,2019-09-02,46.737158,-90.8801835
Springfield,24,2019-09-02,39.7990175,-89.6439575
St. Louis MO,5,2019-09-02,38.6529545,-90.24111656024635
Toledo OH,18,2019-09-02,41.6786754,-83.5127283
Traverse City,34,2019-09-02,44.7606441,-85.6165301
Waco,16,2019-09-02,31.549333,-97.1466695
Washington DC,2,2019-09-02,38.8948932,-77.0365529
Atlanta GA,4,2019-09-09,33.7490987,-84.3901849
Boston MA,8,2019-09-09,42.3602534,-71.0582912
Buffalo NY,19,2019-09-09,42.8867166,-78.8783922
Cedar Rapids,36,2019-09-09,41.9758872,-91.6704053
Chattanooga TN,37,2019-09-09,35.0457219,-85.3094883
Cincinnati OH,12,2019-09-09,39.1014537,-84.5124602
Cleveland,12,2019-09-09,41.5051613,-81.6934446
Dallas,6,2019-09-09,32.7762719,-96.7968559
Davenport IA,52,2019-09-09,41.5236436,-90.5776368
Denver CO,6,2019-09-09,39.7348381,-104.9653271
Detroit MI,12,2019-09-09,42.3315509,-83.0466403
Duluth MN,89,2019-09-09,46.7729322,-92.1251218
Gainesville FL,75,2019-09-09,29.67357765,-82.32337460192167
Grand Rapids,16,2019-09-09,42.9632405,-85.6678639
Harrisburg,18,2019-09-09,40.2663107,-76.8861122
Hartford,10,2019-09-09,41.764582,-72.6908547
Honolulu HI,24,2019-09-09,21.304547,-157.8556764
Huntsville,37,2019-09-09,34.729847,-86.5859011
Indianapolis IN,31,2019-09-09,39.7683331,-86.1583502
Jackson MS,42,2019-09-09,28.530801699999998,-81.30324431076107
Las Vegas NV,13,2019-09-09,36.1672559,-115.1485163
Lexington KY,29,2019-09-09,38.0464066,-84.4970393
Los Angeles CA,2,2019-09-09,34.0536909,-118.2427666
Medford,82,2019-09-09,42.4184296,-71.1061639
Minneapolis,8,2019-09-09,44.9772995,-93.2654692
New York NY,5,2019-09-09,40.7127281,-74.0060152
Norfolk,14,2019-09-09,52.666667,1.0
Omaha NE,22,2019-09-09,41.2587459,-95.9383758
Orlando,12,2019-09-09,28.5421109,-81.3790304
Paducah KY,49,2019-09-09,37.0833893,-88.6000478
Philadelphia PA,10,2019-09-09,39.9527237,-75.1635262
Phoenix AZ,5,2019-09-09,33.4484367,-112.0741417
Pittsburgh PA,11,2019-09-09,40.4416941,-79.9900861
Raleigh,11,2019-09-09,35.7803977,-78.6390989
Sacramento,8,2019-09-09,38.5815719,-121.4943996
Salt Lake City UT,9,2019-09-09,40.7596198,-111.8867975
San Diego CA,8,2019-09-09,32.7174209,-117.1627714
San Francisco,4,2019-09-09,37.7790262,-122.4199061
Santa Barbara,48,2019-09-09,34.4221319,-119.7026673
Seattle,5,2019-09-09,47.6038321,-122.3300624
Springfield,43,2019-09-09,39.7990175,-89.6439575
St. Louis MO,10,2019-09-09,38.6529545,-90.24111656024635
Tallahassee FL,47,2019-09-09,30.4380832,-84.2809332
Tampa,6,2019-09-09,27.9477595,-82.458444
Traverse City,65,2019-09-09,44.7606441,-85.6165301
Tyler,59,2019-09-09,32.3512601,-95.3010624
Waco,31,2019-09-09,31.549333,-97.1466695
Washington DC,6,2019-09-09,38.8948932,-77.0365529
Wichita Falls TX,100,2019-09-09,33.9137085,-98.4933873
Wilkes Barre,26,2019-09-09,41.2464824,-75.8817316
Albany,9,2019-09-16,42.6511674,-73.754968
Anchorage AK,32,2019-09-16,61.2163129,-149.8948523
Atlanta GA,2,2019-09-16,33.7490987,-84.3901849
Boston MA,2,2019-09-16,42.3602534,-71.0582912
Charleston SC,15,2019-09-16,32.7876012,-79.9402728
Charleston,18,2019-09-16,32.7876012,-79.9402728
Charlotte NC,4,2019-09-16,35.2270869,-80.8431268
Chicago IL,1,2019-09-16,41.8755616,-87.6244212
Cleveland,3,2019-09-16,41.5051613,-81.6934446
Colorado Springs,14,2019-09-16,38.8339578,-104.8253485
Columbus OH,5,2019-09-16,39.9622601,-83.0007065
Detroit MI,4,2019-09-16,42.3315509,-83.0466403
El Paso TX,14,2019-09-16,31.7754152,-106.4646348
Flint,15,2019-09-16,43.0161693,-83.6900211
Ft. Wayne IN,23,2019-09-16,41.0799898,-85.1386015
Greenville,6,2019-09-16,34.851354,-82.3984882
Jacksonville FL,7,2019-09-16,30.3321838,-81.655651
Los Angeles CA,1,2019-09-16,34.0536909,-118.2427666
Louisville KY,8,2019-09-16,38.2542376,-85.759407
Mankato MN,100,2019-09-16,44.1634663,-93.9993505
Milwaukee WI,5,2019-09-16,43.0349931,-87.922497
Minneapolis,2,2019-09-16,44.9772995,-93.2654692
Monterey,21,2019-09-16,36.2231079,-121.3877428
Montgomery,29,2019-09-16,32.3669656,-86.3006485
Nashville TN,4,2019-09-16,36.1622296,-86.7743531
New York NY,2,2019-09-16,40.7127281,-74.0060152
Orlando,3,2019-09-16,28.5421109,-81.3790304
Philadelphia PA,1,2019-09-16,39.9527237,-75.1635262
Providence RI,8,2019-09-16,51.4325409,-2.6642358
Quincy IL,74,2019-09-16,39.9368363,-120.9471764
Raleigh,3,2019-09-16,35.7803977,-78.6390989
Richmond,9,2019-09-16,37.5385087,-77.43428
Sacramento,3,2019-09-16,38.5815719,-121.4943996
Salt Lake City UT,4,2019-09-16,40.7596198,-111.8867975
San Diego CA,7,2019-09-16,32.7174209,-117.1627714
San Francisco,2,2019-09-16,37.7790262,-122.4199061
Seattle,2,2019-09-16,47.6038321,-122.3300624
Springfield MO,16,2019-09-16,37.2166779,-93.2920373
Springfield,19,2019-09-16,39.7990175,-89.6439575
St. Louis MO,4,2019-09-16,38.6529545,-90.24111656024635
Syracuse NY,14,2019-09-16,43.0481221,-76.1474244
Tallahassee FL,20,2019-09-16,30.4380832,-84.2809332
Tri,23,2019-09-16,35.875259,-78.7751271
Tulsa OK,11,2019-09-16,36.1556805,-95.9929113
Waco,13,2019-09-16,31.549333,-97.1466695
Washington DC,1,2019-09-16,38.8948932,-77.0365529
Wilmington NC,28,2019-09-16,34.2257282,-77.9447107
Youngstown OH,27,2019-09-16,41.1035786,-80.6520161
Atlanta GA,2,2019-09-23,33.7490987,-84.3901849
Boston MA,4,2019-09-23,42.3602534,-71.0582912
Charleston SC,19,2019-09-23,32.7876012,-79.9402728
Charlotte NC,5,2019-09-23,35.2270869,-80.8431268
Chicago IL,3,2019-09-23,41.8755616,-87.6244212
Clarksburg,100,2019-09-23,39.2806451,-80.3445341
Cleveland,4,2019-09-23,41.5051613,-81.6934446
Columbia SC,16,2019-09-23,34.0007493,-81.0343313
Columbus OH,6,2019-09-23,39.9622601,-83.0007065
Corpus Christi TX,36,2019-09-23,27.7477253,-97.4014129
Dallas,3,2019-09-23,32.7762719,-96.7968559
Denver CO,5,2019-09-23,39.7348381,-104.9653271
Detroit MI,3,2019-09-23,42.3315509,-83.0466403
Evansville IN,31,2019-09-23,4.5777639,-7.6472486
Ft. Wayne IN,28,2019-09-23,41.0799898,-85.1386015
Houston TX,2,2019-09-23,29.7589382,-95.3676974
Idaho Falls,50,2019-09-23,43.4935245,-112.0400919
Indianapolis IN,11,2019-09-23,39.7683331,-86.1583502
Kansas City MO,6,2019-09-23,39.100105,-94.5781416
Knoxville TN,14,2019-09-23,35.9603948,-83.9210261
Los Angeles CA,1,2019-09-23,34.0536909,-118.2427666
Miami,3,2019-09-23,25.7742658,-80.1936589
Milwaukee WI,6,2019-09-23,43.0349931,-87.922497
Minneapolis,3,2019-09-23,44.9772995,-93.2654692
New York NY,2,2019-09-23,40.7127281,-74.0060152
Norfolk,11,2019-09-23,52.666667,1.0
Philadelphia PA,2,2019-09-23,39.9527237,-75.1635262
Phoenix AZ,3,2019-09-23,33.4484367,-112.0741417
Portland OR,5,2019-09-23,45.5202471,-122.6741949
Rapid City SD,83,2019-09-23,44.081176,-103.228006
Salt Lake City UT,5,2019-09-23,40.7596198,-111.8867975
San Diego CA,4,2019-09-23,32.7174209,-117.1627714
San Francisco,2,2019-09-23,37.7790262,-122.4199061
Seattle,4,2019-09-23,47.6038321,-122.3300624
South Bend,22,2019-09-23,41.6833813,-86.2500066
Tallahassee FL,26,2019-09-23,30.4380832,-84.2809332
Utica NY,77,2019-09-23,43.1009031,-75.2326641
Waco,17,2019-09-23,31.549333,-97.1466695
Washington DC,2,2019-09-23,38.8948932,-77.0365529
Wichita,18,2019-09-23,37.6922361,-97.3375448
Wilkes Barre,15,2019-09-23,41.2464824,-75.8817316
Atlanta GA,4,2019-09-30,33.7490987,-84.3901849
Birmingham AL,13,2019-09-30,33.570499,-86.765783
Boston MA,4,2019-09-30,42.3602534,-71.0582912
Buffalo NY,15,2019-09-30,42.8867166,-78.8783922
Charleston,34,2019-09-30,32.7876012,-79.9402728
Charlotte NC,7,2019-09-30,35.2270869,-80.8431268
Chicago IL,3,2019-09-30,41.8755616,-87.6244212
Columbus OH,9,2019-09-30,39.9622601,-83.0007065
Dallas,2,2019-09-30,32.7762719,-96.7968559
Davenport IA,41,2019-09-30,41.5236436,-90.5776368
Houston TX,6,2019-09-30,29.7589382,-95.3676974
Huntsville,58,2019-09-30,34.729847,-86.5859011
Indianapolis IN,8,2019-09-30,39.7683331,-86.1583502
Las Vegas NV,10,2019-09-30,36.1672559,-115.1485163
Los Angeles CA,2,2019-09-30,34.0536909,-118.2427666
Milwaukee WI,9,2019-09-30,43.0349931,-87.922497
Minneapolis,5,2019-09-30,44.9772995,-93.2654692
New York NY,1,2019-09-30,40.7127281,-74.0060152
Omaha NE,18,2019-09-30,41.2587459,-95.9383758
Orlando,5,2019-09-30,28.5421109,-81.3790304
Peoria,40,2019-09-30,40.6938609,-89.5891008
Philadelphia PA,3,2019-09-30,39.9527237,-75.1635262
Phoenix AZ,4,2019-09-30,33.4484367,-112.0741417
Portland OR,7,2019-09-30,45.5202471,-122.6741949
Raleigh,6,2019-09-30,35.7803977,-78.6390989
Rochester NY,23,2019-09-30,43.157285,-77.615214
San Diego CA,6,2019-09-30,32.7174209,-117.1627714
San Francisco,3,2019-09-30,37.7790262,-122.4199061
Seattle,4,2019-09-30,47.6038321,-122.3300624
South Bend,100,2019-09-30,41.6833813,-86.2500066
Washington DC,5,2019-09-30,38.8948932,-77.0365529
Wilkes Barre,21,2019-09-30,41.2464824,-75.8817316
Albany,7,2019-10-07,42.6511674,-73.754968
Albuquerque,6,2019-10-07,35.0841034,-106.6509851
Augusta GA,18,2019-10-07,33.4709714,-81.9748429
Boston MA,1,2019-10-07,42.3602534,-71.0582912
Buffalo NY,6,2019-10-07,42.8867166,-78.8783922
Champaign,12,2019-10-07,40.1164205,-88.2433829
Charleston SC,11,2019-10-07,32.7876012,-79.9402728
Charlottesville VA,37,2019-10-07,38.029306,-78.4766781
Chicago IL,1,2019-10-07,41.8755616,-87.6244212
Columbus OH,4,2019-10-07,39.9622601,-83.0007065
Dallas,1,2019-10-07,32.7762719,-96.7968559
Dayton OH,10,2019-10-07,39.7589478,-84.1916069
Des Moines,8,2019-10-07,41.5910641,-93.6037149
Detroit MI,4,2019-10-07,42.3315509,-83.0466403
Great Falls MT,88,2019-10-07,47.5048851,-111.2918908
Harrisburg,6,2019-10-07,40.2663107,-76.8861122
Hartford,3,2019-10-07,41.764582,-72.6908547
Houston TX,1,2019-10-07,29.7589382,-95.3676974
Lexington KY,10,2019-10-07,38.0464066,-84.4970393
Los Angeles CA,1,2019-10-07,34.0536909,-118.2427666
Medford,27,2019-10-07,42.4184296,-71.1061639
Milwaukee WI,6,2019-10-07,43.0349931,-87.922497
Minot,56,2019-10-07,47.6698594,4.8786165
New Orleans LA,6,2019-10-07,29.9499323,-90.0701156
Omaha NE,7,2019-10-07,41.2587459,-95.9383758
Orlando,2,2019-10-07,28.5421109,-81.3790304
Parkersburg WV,100,2019-10-07,39.2699565,-81.5506916
Philadelphia PA,2,2019-10-07,39.9527237,-75.1635262
Phoenix AZ,2,2019-10-07,33.4484367,-112.0741417
Richmond,7,2019-10-07,37.5385087,-77.43428
Rochester MN,29,2019-10-07,44.0234387,-92.4630182
Salt Lake City UT,3,2019-10-07,40.7596198,-111.8867975
San Diego CA,2,2019-10-07,32.7174209,-117.1627714
San Francisco,1,2019-10-07,37.7790262,-122.4199061
Seattle,2,2019-10-07,47.6038321,-122.3300624
South Bend,27,2019-10-07,41.6833813,-86.2500066
Spokane WA,10,2019-10-07,47.6579425,-117.4212265
Tulsa OK,8,2019-10-07,36.1556805,-95.9929113
Wilkes Barre,8,2019-10-07,41.2464824,-75.8817316
Albany,47,2019-10-14,42.6511674,-73.754968
Austin TX,24,2019-10-14,30.2711286,-97.7436995
Boise ID,91,2019-10-14,43.6166163,-116.200886
Boston MA,9,2019-10-14,42.3602534,-71.0582912
Chicago IL,6,2019-10-14,41.8755616,-87.6244212
Cleveland,17,2019-10-14,41.5051613,-81.6934446
Columbus OH,26,2019-10-14,39.9622601,-83.0007065
Dallas,24,2019-10-14,32.7762719,-96.7968559
Denver CO,13,2019-10-14,39.7348381,-104.9653271
Detroit MI,14,2019-10-14,42.3315509,-83.0466403
Grand Rapids,36,2019-10-14,42.9632405,-85.6678639
Green Bay,70,2019-10-14,44.5126379,-88.0125794
Greensboro,44,2019-10-14,36.0726355,-79.7919754
Houston TX,8,2019-10-14,29.7589382,-95.3676974
Indianapolis IN,25,2019-10-14,39.7683331,-86.1583502
Jacksonville FL,38,2019-10-14,30.3321838,-81.655651
Kansas City MO,28,2019-10-14,39.100105,-94.5781416
Lexington KY,68,2019-10-14,38.0464066,-84.4970393
Little Rock,61,2019-10-14,34.7464809,-92.2895948
Los Angeles CA,7,2019-10-14,34.0536909,-118.2427666
Minneapolis,14,2019-10-14,44.9772995,-93.2654692
New York NY,6,2019-10-14,40.7127281,-74.0060152
Orlando,13,2019-10-14,28.5421109,-81.3790304
Philadelphia PA,7,2019-10-14,39.9527237,-75.1635262
San Diego CA,18,2019-10-14,32.7174209,-117.1627714
San Francisco,16,2019-10-14,37.7790262,-122.4199061
Seattle,23,2019-10-14,47.6038321,-122.3300624
Spokane WA,69,2019-10-14,47.6579425,-117.4212265
Springfield MO,78,2019-10-14,37.2166779,-93.2920373
Springfield,100,2019-10-14,39.7990175,-89.6439575
St. Louis MO,22,2019-10-14,38.6529545,-90.24111656024635
Tampa,14,2019-10-14,27.9477595,-82.458444
Washington DC,7,2019-10-14,38.8948932,-77.0365529
Atlanta GA,3,2019-10-21,33.7490987,-84.3901849
Augusta GA,44,2019-10-21,33.4709714,-81.9748429
Baltimore MD,8,2019-10-21,39.2908816,-76.610759
Boston MA,3,2019-10-21,42.3602534,-71.0582912
Chicago IL,2,2019-10-21,41.8755616,-87.6244212
Cleveland,6,2019-10-21,41.5051613,-81.6934446
Colorado Springs,26,2019-10-21,38.8339578,-104.8253485
Columbus OH,9,2019-10-21,39.9622601,-83.0007065
Dallas,8,2019-10-21,32.7762719,-96.7968559
Denver CO,5,2019-10-21,39.7348381,-104.9653271
Detroit MI,5,2019-10-21,42.3315509,-83.0466403
Ft. Myers,21,2019-10-21,26.640628,-81.8723084
Grand Rapids,13,2019-10-21,42.9632405,-85.6678639
Harrisburg,14,2019-10-21,40.2663107,-76.8861122
Houston TX,9,2019-10-21,29.7589382,-95.3676974
Huntsville,29,2019-10-21,34.729847,-86.5859011
Indianapolis IN,8,2019-10-21,39.7683331,-86.1583502
Johnstown,35,2019-10-21,40.3267407,-78.9219698
Los Angeles CA,2,2019-10-21,34.0536909,-118.2427666
Louisville KY,11,2019-10-21,38.2542376,-85.759407
Miami,5,2019-10-21,25.7742658,-80.1936589
Montgomery,54,2019-10-21,32.3669656,-86.3006485
Nashville TN,7,2019-10-21,36.1622296,-86.7743531
New Orleans LA,14,2019-10-21,29.9499323,-90.0701156
New York NY,2,2019-10-21,40.7127281,-74.0060152
Oklahoma City OK,15,2019-10-21,35.4729886,-97.5170536
Orlando,5,2019-10-21,28.5421109,-81.3790304
Philadelphia PA,3,2019-10-21,39.9527237,-75.1635262
Phoenix AZ,4,2019-10-21,33.4484367,-112.0741417
Portland OR,14,2019-10-21,45.5202471,-122.6741949
Providence RI,15,2019-10-21,51.4325409,-2.6642358
Raleigh,6,2019-10-21,35.7803977,-78.6390989
Sacramento,6,2019-10-21,38.5815719,-121.4943996
Salt Lake City UT,15,2019-10-21,40.7596198,-111.8867975
San Antonio TX,9,2019-10-21,29.4246002,-98.4951405
San Diego CA,6,2019-10-21,32.7174209,-117.1627714
San Francisco,4,2019-10-21,37.7790262,-122.4199061
Santa Barbara,35,2019-10-21,34.4221319,-119.7026673
Seattle,4,2019-10-21,47.6038321,-122.3300624
Shreveport LA,38,2019-10-21,32.5221828,-93.7651944
South Bend,35,2019-10-21,41.6833813,-86.2500066
Terre Haute IN,100,2019-10-21,39.4667025,-87.4139119
Albuquerque,19,2019-10-28,35.0841034,-106.6509851
Atlanta GA,2,2019-10-28,33.7490987,-84.3901849
Baltimore MD,5,2019-10-28,39.2908816,-76.610759
Birmingham AL,9,2019-10-28,33.570499,-86.765783
Boston MA,3,2019-10-28,42.3602534,-71.0582912
Buffalo NY,10,2019-10-28,42.8867166,-78.8783922
Chattanooga TN,14,2019-10-28,35.0457219,-85.3094883
Chicago IL,2,2019-10-28,41.8755616,-87.6244212
Cincinnati OH,6,2019-10-28,39.1014537,-84.5124602
Columbia SC,15,2019-10-28,34.0007493,-81.0343313
Dallas,2,2019-10-28,32.7762719,-96.7968559
Davenport IA,26,2019-10-28,41.5236436,-90.5776368
Dayton OH,16,2019-10-28,39.7589478,-84.1916069
Denver CO,3,2019-10-28,39.7348381,-104.9653271
Des Moines,13,2019-10-28,41.5910641,-93.6037149
Grand Rapids,8,2019-10-28,42.9632405,-85.6678639
Greenville,8,2019-10-28,34.851354,-82.3984882
Harrisonburg VA,67,2019-10-28,38.4493315,-78.8688833
Honolulu HI,13,2019-10-28,21.304547,-157.8556764
Houston TX,4,2019-10-28,29.7589382,-95.3676974
Jackson MS,22,2019-10-28,28.530801699999998,-81.30324431076107
Jonesboro AR,100,2019-10-28,35.8428646,-90.7034522
Kansas City MO,6,2019-10-28,39.100105,-94.5781416
Lansing MI,24,2019-10-28,42.7338147,-84.5207088
Lincoln,24,2019-10-28,47.8299069,-118.414727
Los Angeles CA,2,2019-10-28,34.0536909,-118.2427666
Louisville KY,9,2019-10-28,38.2542376,-85.759407
Marquette MI,93,2019-10-28,46.4481521,-87.6305899
Minneapolis,3,2019-10-28,44.9772995,-93.2654692
Mobile AL,12,2019-10-28,39.092585,-84.853229
Montgomery,34,2019-10-28,32.3669656,-86.3006485
Nashville TN,4,2019-10-28,36.1622296,-86.7743531
New York NY,1,2019-10-28,40.7127281,-74.0060152
Norfolk,7,2019-10-28,52.666667,1.0
Oklahoma City OK,9,2019-10-28,35.4729886,-97.5170536
Paducah KY,25,2019-10-28,37.0833893,-88.6000478
Philadelphia PA,3,2019-10-28,39.9527237,-75.1635262
Phoenix AZ,3,2019-10-28,33.4484367,-112.0741417
Pittsburgh PA,5,2019-10-28,40.4416941,-79.9900861
Portland OR,4,2019-10-28,45.5202471,-122.6741949
Portland,16,2019-10-28,45.5202471,-122.6741949
Rockford IL,40,2019-10-28,42.2713945,-89.093966
Sacramento,4,2019-10-28,38.5815719,-121.4943996
San Francisco,1,2019-10-28,37.7790262,-122.4199061
Seattle,4,2019-10-28,47.6038321,-122.3300624
South Bend,21,2019-10-28,41.6833813,-86.2500066
Springfield,22,2019-10-28,39.7990175,-89.6439575
Tampa,3,2019-10-28,27.9477595,-82.458444
Tyler,28,2019-10-28,32.3512601,-95.3010624
Washington DC,2,2019-10-28,38.8948932,-77.0365529
Wichita,17,2019-10-28,37.6922361,-97.3375448
Albany,4,2019-11-04,42.6511674,-73.754968
Atlanta GA,1,2019-11-04,33.7490987,-84.3901849
Austin TX,2,2019-11-04,30.2711286,-97.7436995
Baltimore MD,2,2019-11-04,39.2908816,-76.610759
Baton Rouge LA,8,2019-11-04,30.4459596,-91.18738
Boise ID,8,2019-11-04,43.6166163,-116.200886
Boston MA,1,2019-11-04,42.3602534,-71.0582912
Buffalo NY,4,2019-11-04,42.8867166,-78.8783922
Champaign,8,2019-11-04,40.1164205,-88.2433829
Chicago IL,1,2019-11-04,41.8755616,-87.6244212
Cincinnati OH,2,2019-11-04,39.1014537,-84.5124602
Cleveland,2,2019-11-04,41.5051613,-81.6934446
Columbus GA,12,2019-11-04,43.1830762,-79.8147518
Dallas,1,2019-11-04,32.7762719,-96.7968559
Detroit MI,1,2019-11-04,42.3315509,-83.0466403
Eureka CA,48,2019-11-04,45.4985271,-62.6816736
Ft. Myers,10,2019-11-04,26.640628,-81.8723084
Green Bay,7,2019-11-04,44.5126379,-88.0125794
Greensboro,4,2019-11-04,36.0726355,-79.7919754
Greenville,3,2019-11-04,34.851354,-82.3984882
Harrisburg,4,2019-11-04,40.2663107,-76.8861122
Helena MT,100,2019-11-04,46.5927425,-112.0362771
Houston TX,1,2019-11-04,29.7589382,-95.3676974
Indianapolis IN,4,2019-11-04,39.7683331,-86.1583502
Jackson MS,9,2019-11-04,28.530801699999998,-81.30324431076107
Lansing MI,10,2019-11-04,42.7338147,-84.5207088
Los Angeles CA,1,2019-11-04,34.0536909,-118.2427666
Louisville KY,4,2019-11-04,38.2542376,-85.759407
Madison WI,6,2019-11-04,43.074761,-89.3837613
Milwaukee WI,2,2019-11-04,43.0349931,-87.922497
Minneapolis,1,2019-11-04,44.9772995,-93.2654692
Monroe LA,23,2019-11-04,38.2722313,-90.1792484
New York NY,1,2019-11-04,40.7127281,-74.0060152
Norfolk,6,2019-11-04,52.666667,1.0
Orlando,1,2019-11-04,28.5421109,-81.3790304
Philadelphia PA,1,2019-11-04,39.9527237,-75.1635262
Pittsburgh PA,2,2019-11-04,40.4416941,-79.9900861
Portland OR,2,2019-11-04,45.5202471,-122.6741949
Salt Lake City UT,2,2019-11-04,40.7596198,-111.8867975
San Diego CA,2,2019-11-04,32.7174209,-117.1627714
San Francisco,1,2019-11-04,37.7790262,-122.4199061
Seattle,1,2019-11-04,47.6038321,-122.3300624
Springfield,9,2019-11-04,39.7990175,-89.6439575
Tallahassee FL,10,2019-11-04,30.4380832,-84.2809332
Toledo OH,7,2019-11-04,41.6786754,-83.5127283
Waco,6,2019-11-04,31.549333,-97.1466695
Washington DC,1,2019-11-04,38.8948932,-77.0365529
Amarillo TX,48,2019-11-11,35.2072185,-101.8338246
Atlanta GA,2,2019-11-11,33.7490987,-84.3901849
Austin TX,6,2019-11-11,30.2711286,-97.7436995
Baltimore MD,6,2019-11-11,39.2908816,-76.610759
Bend OR,100,2019-11-11,44.0581728,-121.3153096
Birmingham AL,10,2019-11-11,33.570499,-86.765783
Boston MA,2,2019-11-11,42.3602534,-71.0582912
Buffalo NY,12,2019-11-11,42.8867166,-78.8783922
Chicago IL,2,2019-11-11,41.8755616,-87.6244212
Chico,47,2019-11-11,39.7284945,-121.8374777
Cleveland,4,2019-11-11,41.5051613,-81.6934446
Colorado Springs,20,2019-11-11,38.8339578,-104.8253485
Columbus OH,7,2019-11-11,39.9622601,-83.0007065
Dallas,4,2019-11-11,32.7762719,-96.7968559
Davenport IA,31,2019-11-11,41.5236436,-90.5776368
Denver CO,3,2019-11-11,39.7348381,-104.9653271
Des Moines,15,2019-11-11,41.5910641,-93.6037149
Detroit MI,3,2019-11-11,42.3315509,-83.0466403
El Paso TX,19,2019-11-11,31.7754152,-106.4646348
Evansville IN,34,2019-11-11,4.5777639,-7.6472486
Fargo,35,2019-11-11,46.877229,-96.789821
Flint,20,2019-11-11,43.0161693,-83.6900211
Grand Rapids,10,2019-11-11,42.9632405,-85.6678639
Green Bay,19,2019-11-11,44.5126379,-88.0125794
Greenville,9,2019-11-11,34.851354,-82.3984882
Harrisburg,11,2019-11-11,40.2663107,-76.8861122
Hartford,6,2019-11-11,41.764582,-72.6908547
Honolulu HI,15,2019-11-11,21.304547,-157.8556764
Houston TX,5,2019-11-11,29.7589382,-95.3676974
Huntsville,22,2019-11-11,34.729847,-86.5859011
Joplin MO,69,2019-11-11,37.08418,-94.51323
Kansas City MO,7,2019-11-11,39.100105,-94.5781416
Las Vegas NV,8,2019-11-11,36.1672559,-115.1485163
Los Angeles CA,1,2019-11-11,34.0536909,-118.2427666
Minneapolis,5,2019-11-11,44.9772995,-93.2654692
New Orleans LA,11,2019-11-11,29.9499323,-90.0701156
New York NY,2,2019-11-11,40.7127281,-74.0060152
Oklahoma City OK,11,2019-11-11,35.4729886,-97.5170536
Philadelphia PA,3,2019-11-11,39.9527237,-75.1635262
Phoenix AZ,3,2019-11-11,33.4484367,-112.0741417
Pittsburgh PA,6,2019-11-11,40.4416941,-79.9900861
Portland OR,5,2019-11-11,45.5202471,-122.6741949
Providence RI,11,2019-11-11,51.4325409,-2.6642358
San Diego CA,5,2019-11-11,32.7174209,-117.1627714
San Francisco,2,2019-11-11,37.7790262,-122.4199061
Santa Barbara,27,2019-11-11,34.4221319,-119.7026673
Savannah GA,21,2019-11-11,43.4129206,-79.7028276
Seattle,6,2019-11-11,47.6038321,-122.3300624
Sioux City IA,62,2019-11-11,42.4966815,-96.4058782
South Bend,49,2019-11-11,41.6833813,-86.2500066
Springfield MO,10,2019-11-11,37.2166779,-93.2920373
St. Louis MO,6,2019-11-11,38.6529545,-90.24111656024635
Tampa,5,2019-11-11,27.9477595,-82.458444
Toledo OH,19,2019-11-11,41.6786754,-83.5127283
Washington DC,3,2019-11-11,38.8948932,-77.0365529
West Palm Beach,10,2019-11-11,26.7153425,-80.0533746
Wichita,19,2019-11-11,37.6922361,-97.3375448
