geoName,interest,date,lat,long
Philadelphia PA USA,100,2019-04-15,39.9527237,-75.1635262
Butte MT USA,100,2019-07-08,46.0131505,-112.5365089
Minneapolis MN USA,4,2019-07-08,44.9772995,-93.2654692
Washington DC USA,2,2019-07-08,38.8948932,-77.0365529
Raleigh NC USA,47,2019-07-22,35.7803977,-78.6390989
West Palm Beach FL USA,100,2019-07-22,26.7153425,-80.0533746
Tampa FL USA,100,2019-07-29,27.9518491,-82.4563972
Portland OR USA,100,2019-08-05,45.5202471,-122.6741949
Monroe LA USA,100,2019-08-12,38.2722313,-90.1792484
Albany NY USA,4,2019-08-19,42.6511674,-73.754968
Albuquerque NM USA,4,2019-08-19,35.0841034,-106.6509851
Alexandria LA USA,46,2019-08-19,38.8147596,-77.09024765272724
Atlanta GA USA,3,2019-08-19,33.7490987,-84.3901849
Augusta GA USA,11,2019-08-19,33.4709714,-81.9748429
Austin TX USA,4,2019-08-19,30.2711286,-97.7436995
Baltimore MD USA,3,2019-08-19,39.284749399999995,-76.62047463969989
Baton Rouge LA USA,17,2019-08-19,30.4459596,-91.18738
Beaumont TX USA,20,2019-08-19,30.0860459,-94.1018461
Birmingham AL USA,3,2019-08-19,33.570499,-86.765783
Boston MA USA,2,2019-08-19,42.3602534,-71.0582912
Buffalo NY USA,4,2019-08-19,42.8867166,-78.8783922
Burlington VT USA,9,2019-08-19,44.4762975,-73.2135472
Charleston SC USA,15,2019-08-19,32.7876012,-79.9402728
Charleston WV USA,9,2019-08-19,38.3505995,-81.6332812
Charlotte NC USA,7,2019-08-19,35.2270869,-80.8431268
Chattanooga TN USA,8,2019-08-19,35.0457219,-85.3094883
Chicago IL USA,2,2019-08-19,41.8755616,-87.6244212
Cleveland OH USA,2,2019-08-19,41.5051613,-81.6934446
Colorado Springs CO USA,10,2019-08-19,38.8339578,-104.8253485
Columbia SC USA,7,2019-08-19,34.0007493,-81.0343313
Columbus OH USA,4,2019-08-19,39.9622601,-83.0007065
Columbus MS USA,24,2019-08-19,43.336875649999996,-89.0196532340367
Corpus Christi TX USA,14,2019-08-19,27.7477253,-97.4014129
Dallas TX USA,1,2019-08-19,32.7762719,-96.7968559
Denver CO USA,1,2019-08-19,39.7348381,-104.9653271
Detroit MI USA,1,2019-08-19,42.3315509,-83.0466403
Florence SC USA,18,2019-08-19,34.1984435,-79.7671658
Ft. Myers FL USA,24,2019-08-19,26.640628,-81.8723084
Gainesville FL USA,16,2019-08-19,29.67357765,-82.32337460192167
Greensboro NC USA,6,2019-08-19,36.0726355,-79.7919754
Greenville NC USA,14,2019-08-19,35.612661,-77.3663538
Greenville SC USA,6,2019-08-19,34.851354,-82.3984882
Harlingen TX USA,6,2019-08-19,26.1908241,-97.6959794
Harrisburg PA USA,4,2019-08-19,40.2663107,-76.8861122
Hartford CT USA,4,2019-08-19,43.648048,-70.241416
Houston TX USA,3,2019-08-19,29.7589382,-95.3676974
Huntsville AL USA,7,2019-08-19,33.554113,-86.804219
Indianapolis IN USA,3,2019-08-19,39.7683331,-86.1583502
Jackson MS USA,9,2019-08-19,28.530801699999998,-81.30324431076107
Jacksonville FL USA,9,2019-08-19,30.3321838,-81.655651
Kansas City MO USA,2,2019-08-19,39.100105,-94.5781416
Lafayette LA USA,15,2019-08-19,30.2240897,-92.0198427
Las Vegas NV USA,3,2019-08-19,36.1672559,-115.1485163
Lexington KY USA,6,2019-08-19,38.0464066,-84.4970393
Los Angeles CA USA,1,2019-08-19,34.0536909,-118.2427666
Louisville KY USA,4,2019-08-19,38.2542376,-85.759407
Macon GA USA,13,2019-08-19,32.8406946,-83.6324022
Madison WI USA,7,2019-08-19,43.074761,-89.3837613
Memphis TN USA,4,2019-08-19,35.1490215,-90.0516285
Miami FL USA,24,2019-08-19,25.7742658,-80.1936589
Milwaukee WI USA,2,2019-08-19,43.0349931,-87.922497
Minneapolis MN USA,2,2019-08-19,44.9772995,-93.2654692
Minot ND USA,19,2019-08-19,48.23251,-101.296273
Mobile AL USA,12,2019-08-19,39.092585,-84.853229
Nashville TN USA,3,2019-08-19,36.1622296,-86.7743531
New Orleans LA USA,4,2019-08-19,29.9499323,-90.0701156
New York NY USA,2,2019-08-19,40.7127281,-74.0060152
Norfolk VA USA,6,2019-08-19,36.8889933,-76.2481624
Omaha NE USA,5,2019-08-19,41.2587459,-95.9383758
Orlando FL USA,18,2019-08-19,28.5479786,-81.41278418563017
Panama City FL USA,20,2019-08-19,30.1600827,-85.6545729
Philadelphia PA USA,2,2019-08-19,39.9527237,-75.1635262
Phoenix AZ USA,2,2019-08-19,33.4484367,-112.0741417
Pittsburgh PA USA,4,2019-08-19,40.4416941,-79.9900861
Portland OR USA,3,2019-08-19,45.5202471,-122.6741949
Portland ME USA,6,2019-08-19,43.6610277,-70.2548596
Providence RI USA,8,2019-08-19,41.8239891,-71.4128343
Raleigh NC USA,8,2019-08-19,35.7803977,-78.6390989
Richmond VA USA,5,2019-08-19,37.5385087,-77.43428
Sacramento CA USA,2,2019-08-19,38.5815719,-121.4943996
Salisbury MD USA,14,2019-08-19,38.3662114,-75.6008881
Salt Lake City UT USA,2,2019-08-19,40.7596198,-111.8867975
San Antonio TX USA,2,2019-08-19,29.4246002,-98.4951405
San Diego CA USA,2,2019-08-19,32.7174209,-117.1627714
San Francisco CA USA,2,2019-08-19,37.7790262,-122.4199061
Savannah GA USA,17,2019-08-19,32.0809263,-81.0911768
Seattle WA USA,2,2019-08-19,47.6038321,-122.3300624
Sioux City IA USA,22,2019-08-19,42.4966815,-96.4058782
Springfield MO USA,7,2019-08-19,37.2166779,-93.2920373
St. Louis MO USA,4,2019-08-19,38.6268039,-90.1994097
Syracuse NY USA,7,2019-08-19,43.0481221,-76.1474244
Tallahassee FL USA,20,2019-08-19,30.4380832,-84.2809332
Tampa FL USA,16,2019-08-19,27.9518491,-82.4563972
Toledo OH USA,7,2019-08-19,41.6786754,-83.5127283
Traverse City MI USA,13,2019-08-19,44.7606441,-85.6165301
Tucson AZ USA,6,2019-08-19,32.2228765,-110.9748477
Victoria TX USA,100,2019-08-19,28.8026443,-96.9766308
Washington DC USA,2,2019-08-19,38.8948932,-77.0365529
Watertown NY USA,35,2019-08-19,43.9747838,-75.9107565
Wausau WI USA,18,2019-08-19,44.9596017,-89.6298239
West Palm Beach FL USA,16,2019-08-19,26.7153425,-80.0533746
Wilkes Barre PA USA,6,2019-08-19,41.2464824,-75.8817316
Wilmington NC USA,13,2019-08-19,34.2257282,-77.9447107
Abilene TX USA,2,2019-08-26,32.44645,-99.7475905
Albany GA USA,23,2019-08-26,40.0555158,-82.8457691
Albany NY USA,6,2019-08-26,42.6511674,-73.754968
Albuquerque NM USA,3,2019-08-26,35.0841034,-106.6509851
Alexandria LA USA,4,2019-08-26,38.8147596,-77.09024765272724
Alpena MI USA,7,2019-08-26,45.0176181,-83.6670019
Amarillo TX USA,2,2019-08-26,35.2072185,-101.8338246
Anchorage AK USA,3,2019-08-26,61.2163129,-149.8948523
Atlanta GA USA,11,2019-08-26,33.7490987,-84.3901849
Augusta GA USA,15,2019-08-26,33.4709714,-81.9748429
Austin TX USA,4,2019-08-26,30.2711286,-97.7436995
Bakersfield CA USA,1,2019-08-26,35.3738712,-119.0194639
Baltimore MD USA,5,2019-08-26,39.284749399999995,-76.62047463969989
Bangor ME USA,6,2019-08-26,44.8011821,-68.7778138
Baton Rouge LA USA,7,2019-08-26,30.4459596,-91.18738
Beaumont TX USA,4,2019-08-26,30.0860459,-94.1018461
Bend OR USA,4,2019-08-26,44.0581728,-121.3153096
"Billings, MT USA",3,2019-08-26,45.7874957,-108.49607
Biloxi MS USA,14,2019-08-26,30.374673,-88.84594333482862
Binghamton NY USA,5,2019-08-26,42.096968,-75.914341
Birmingham AL USA,7,2019-08-26,33.570499,-86.765783
Bluefield WV USA,6,2019-08-26,37.2698395,-81.2223195
Boise ID USA,3,2019-08-26,43.6166163,-116.200886
Boston MA USA,5,2019-08-26,42.3602534,-71.0582912
Bowling Green KY USA,5,2019-08-26,36.9903199,-86.4436018
Buffalo NY USA,6,2019-08-26,42.8867166,-78.8783922
Burlington VT USA,6,2019-08-26,44.4762975,-73.2135472
Butte MT USA,3,2019-08-26,46.0131505,-112.5365089
Casper WY USA,2,2019-08-26,39.4632037,-75.7079641
Cedar Rapids IA USA,3,2019-08-26,41.9758872,-91.6704053
Champaign IL USA,3,2019-08-26,40.1164205,-88.2433829
Charleston SC USA,41,2019-08-26,32.7876012,-79.9402728
Charleston WV USA,5,2019-08-26,38.3505995,-81.6332812
Charlotte NC USA,13,2019-08-26,35.2270869,-80.8431268
Charlottesville VA USA,6,2019-08-26,38.029306,-78.4766781
Chattanooga TN USA,7,2019-08-26,35.0457219,-85.3094883
Cheyenne WY USA,3,2019-08-26,40.640361,-74.367318
Chicago IL USA,4,2019-08-26,41.8755616,-87.6244212
Chico CA USA,2,2019-08-26,39.7284945,-121.8374777
Cincinnati OH USA,5,2019-08-26,39.1014537,-84.5124602
Clarksburg WV USA,4,2019-08-26,39.2806451,-80.3445341
Cleveland OH USA,7,2019-08-26,41.5051613,-81.6934446
Colorado Springs CO USA,5,2019-08-26,38.8339578,-104.8253485
Columbia SC USA,19,2019-08-26,34.0007493,-81.0343313
Columbia MO USA,3,2019-08-26,38.951883,-92.3337366
Columbus GA USA,9,2019-08-26,32.4609764,-84.9877094
Columbus OH USA,5,2019-08-26,39.9622601,-83.0007065
Columbus MS USA,4,2019-08-26,43.336875649999996,-89.0196532340367
Corpus Christi TX USA,4,2019-08-26,27.7477253,-97.4014129
Dallas TX USA,4,2019-08-26,32.7762719,-96.7968559
Davenport IA USA,3,2019-08-26,41.5236436,-90.5776368
Dayton OH USA,4,2019-08-26,39.7589478,-84.1916069
Denver CO USA,4,2019-08-26,39.7348381,-104.9653271
Des Moines IA USA,3,2019-08-26,41.5910641,-93.6037149
Detroit MI USA,4,2019-08-26,42.3315509,-83.0466403
Dothan AL USA,15,2019-08-26,31.2237434,-85.3933906
Duluth MN USA,4,2019-08-26,46.7729322,-92.1251218
El Paso TX USA,2,2019-08-26,31.7754152,-106.4646348
Elmira NY USA,4,2019-08-26,42.0897965,-76.8077338
Erie PA USA,6,2019-08-26,42.1294712,-80.0852695
Eugene OR USA,3,2019-08-26,44.0505054,-123.0950506
Eureka CA USA,1,2019-08-26,40.8020712,-124.1636729
Evansville IN USA,4,2019-08-26,37.9747645,-87.5558483
Fairbanks AK USA,3,2019-08-26,64.837845,-147.716675
Fargo ND USA,3,2019-08-26,46.877229,-96.789821
Flint MI USA,3,2019-08-26,43.0161693,-83.6900211
Florence SC USA,28,2019-08-26,34.1984435,-79.7671658
Fresno CA USA,1,2019-08-26,36.7295295,-119.70886126075588
Ft. Myers FL USA,71,2019-08-26,26.640628,-81.8723084
Ft. Smith AR USA,3,2019-08-26,35.3872218,-94.4248983
Ft. Wayne IN USA,4,2019-08-26,41.0799898,-85.1386015
Gainesville FL USA,73,2019-08-26,29.67357765,-82.32337460192167
Grand Junction CO USA,3,2019-08-26,39.063956,-108.5507317
Grand Rapids MI USA,4,2019-08-26,42.9142413,-85.533004
Great Falls MT USA,3,2019-08-26,47.5048851,-111.2918908
Green Bay WI USA,4,2019-08-26,44.5126379,-88.0125794
Greensboro NC USA,10,2019-08-26,36.0726355,-79.7919754
Greenville NC USA,29,2019-08-26,35.612661,-77.3663538
Greenville SC USA,11,2019-08-26,34.851354,-82.3984882
Greenwood MS USA,2,2019-08-26,39.59493885,-86.12237861696312
Harlingen TX USA,2,2019-08-26,26.1908241,-97.6959794
Harrisburg PA USA,5,2019-08-26,40.2663107,-76.8861122
Harrisonburg VA USA,6,2019-08-26,38.4493315,-78.8688833
Hartford CT USA,6,2019-08-26,43.648048,-70.241416
Hattiesburg MS USA,8,2019-08-26,31.3271189,-89.2903392
Helena MT USA,3,2019-08-26,46.5927425,-112.0362771
Honolulu HI USA,3,2019-08-26,21.304547,-157.8556764
Houston TX USA,4,2019-08-26,29.7589382,-95.3676974
Huntsville AL USA,5,2019-08-26,33.554113,-86.804219
Idaho Falls ID USA,3,2019-08-26,43.4935245,-112.0400919
Indianapolis IN USA,4,2019-08-26,39.7683331,-86.1583502
Jackson MS USA,5,2019-08-26,28.530801699999998,-81.30324431076107
Jackson TN USA,4,2019-08-26,35.6144446,-88.8177418
Jacksonville FL USA,63,2019-08-26,30.3321838,-81.655651
Johnstown PA USA,5,2019-08-26,40.3267407,-78.9219698
Jonesboro AR USA,3,2019-08-26,35.8428646,-90.7034522
Joplin MO USA,3,2019-08-26,37.08418,-94.51323
Juneau AK USA,4,2019-08-26,58.3019496,-134.419734
Kansas City MO USA,3,2019-08-26,39.100105,-94.5781416
Knoxville TN USA,8,2019-08-26,35.9603948,-83.9210261
La Crosse WI USA,3,2019-08-26,43.8014053,-91.2395429
Lafayette IN USA,2,2019-08-26,40.4167022,-86.8752869
Lafayette LA USA,5,2019-08-26,30.2240897,-92.0198427
Lake Charles LA USA,5,2019-08-26,30.2265949,-93.2173759
Lansing MI USA,4,2019-08-26,42.7338147,-84.5207088
Laredo TX USA,2,2019-08-26,27.5199841,-99.4953764
Las Vegas NV USA,3,2019-08-26,36.1672559,-115.1485163
Lexington KY USA,5,2019-08-26,38.0464066,-84.4970393
Lima OH USA,3,2019-08-26,40.7399785,-84.105006
Lincoln NE USA,3,2019-08-26,40.8088861,-96.7077751
Little Rock AR USA,4,2019-08-26,34.7464809,-92.2895948
Los Angeles CA USA,2,2019-08-26,34.0536909,-118.2427666
Louisville KY USA,5,2019-08-26,38.2542376,-85.759407
Lubbock TX USA,2,2019-08-26,33.5635206,-101.879336
Macon GA USA,14,2019-08-26,32.8406946,-83.6324022
Madison WI USA,4,2019-08-26,43.074761,-89.3837613
Mankato MN USA,2,2019-08-26,44.1634663,-93.9993505
Marquette MI USA,4,2019-08-26,46.4481521,-87.6305899
Medford OR USA,3,2019-08-26,42.3264181,-122.8718605
Memphis TN USA,4,2019-08-26,35.1490215,-90.0516285
Meridian MS USA,6,2019-08-26,43.61732135,-116.40613112241579
Miami FL USA,81,2019-08-26,25.7742658,-80.1936589
Milwaukee WI USA,4,2019-08-26,43.0349931,-87.922497
Minneapolis MN USA,3,2019-08-26,44.9772995,-93.2654692
Minot ND USA,3,2019-08-26,48.23251,-101.296273
Missoula MT USA,4,2019-08-26,46.8701049,-113.9952672
Mobile AL USA,20,2019-08-26,39.092585,-84.853229
Monroe LA USA,4,2019-08-26,38.2722313,-90.1792484
Monterey CA USA,2,2019-08-26,36.2231079,-121.3877428
Montgomery AL USA,9,2019-08-26,40.85239,-78.266098
Nashville TN USA,6,2019-08-26,36.1622296,-86.7743531
New Orleans LA USA,9,2019-08-26,29.9499323,-90.0701156
New York NY USA,5,2019-08-26,40.7127281,-74.0060152
Norfolk VA USA,11,2019-08-26,36.8889933,-76.2481624
North Platte NE USA,4,2019-08-26,41.1238873,-100.7654232
Odessa TX USA,2,2019-08-26,31.8457149,-102.367687
Oklahoma City OK USA,3,2019-08-26,35.4729886,-97.5170536
Omaha NE USA,3,2019-08-26,41.2587459,-95.9383758
Orlando FL USA,83,2019-08-26,28.5479786,-81.41278418563017
Ottumwa IA USA,2,2019-08-26,41.0200145,-92.4112963
Paducah KY USA,4,2019-08-26,37.0833893,-88.6000478
Palm Springs CA USA,2,2019-08-26,33.8246269,-116.540303
Panama City FL USA,52,2019-08-26,30.1600827,-85.6545729
Parkersburg WV USA,7,2019-08-26,39.2699565,-81.5506916
Peoria IL USA,4,2019-08-26,40.6938609,-89.5891008
Philadelphia PA USA,5,2019-08-26,39.9527237,-75.1635262
Phoenix AZ USA,3,2019-08-26,33.4484367,-112.0741417
Pittsburgh PA USA,5,2019-08-26,40.4416941,-79.9900861
Portland OR USA,3,2019-08-26,45.5202471,-122.6741949
Portland ME USA,7,2019-08-26,43.6610277,-70.2548596
Presque Isle ME USA,5,2019-08-26,46.681479,-68.016357
Providence RI USA,6,2019-08-26,41.8239891,-71.4128343
Quincy IL USA,5,2019-08-26,42.2528772,-71.0022705
Raleigh NC USA,16,2019-08-26,35.7803977,-78.6390989
Rapid City SD USA,4,2019-08-26,44.081176,-103.228006
Reno NV USA,3,2019-08-26,39.5261206,-119.8126581
Richmond VA USA,7,2019-08-26,37.5385087,-77.43428
Roanoke VA USA,7,2019-08-26,37.270973,-79.9414313
Rochester MN USA,4,2019-08-26,44.0234387,-92.4630182
Rochester NY USA,5,2019-08-26,43.157285,-77.615214
Rockford IL USA,4,2019-08-26,42.2713945,-89.093966
Sacramento CA USA,2,2019-08-26,38.5815719,-121.4943996
Salisbury MD USA,9,2019-08-26,38.3662114,-75.6008881
Salt Lake City UT USA,3,2019-08-26,40.7596198,-111.8867975
San Angelo TX USA,4,2019-08-26,31.4648357,-100.4398442
San Antonio TX USA,4,2019-08-26,29.4246002,-98.4951405
San Diego CA USA,2,2019-08-26,32.7174209,-117.1627714
San Francisco CA USA,2,2019-08-26,37.7790262,-122.4199061
Santa Barbara CA USA,2,2019-08-26,34.4221319,-119.7026673
Savannah GA USA,49,2019-08-26,32.0809263,-81.0911768
Seattle WA USA,3,2019-08-26,47.6038321,-122.3300624
Sherman TX USA,2,2019-08-26,36.2452294,-101.8858689
Shreveport LA USA,3,2019-08-26,32.5221828,-93.7651944
Sioux City IA USA,2,2019-08-26,42.4966815,-96.4058782
Sioux Falls SD USA,2,2019-08-26,43.5499749,-96.700327
South Bend IN USA,4,2019-08-26,41.6833813,-86.2500066
Spokane WA USA,3,2019-08-26,47.6579425,-117.4212265
Springfield MO USA,5,2019-08-26,37.2166779,-93.2920373
Springfield MA USA,4,2019-08-26,42.1014831,-72.589811
St. Joseph MO USA,3,2019-08-26,39.7686055,-94.8466322
St. Louis MO USA,4,2019-08-26,38.6268039,-90.1994097
Syracuse NY USA,5,2019-08-26,43.0481221,-76.1474244
Tallahassee FL USA,47,2019-08-26,30.4380832,-84.2809332
Tampa FL USA,63,2019-08-26,27.9518491,-82.4563972
Terre Haute IN USA,4,2019-08-26,39.4667025,-87.4139119
Toledo OH USA,4,2019-08-26,41.6786754,-83.5127283
Topeka KS USA,3,2019-08-26,39.049011,-95.677556
Traverse City MI USA,6,2019-08-26,44.7606441,-85.6165301
Tri VA USA,7,2019-08-26,38.5467876,-77.3366491
Tucson AZ USA,3,2019-08-26,32.2228765,-110.9748477
Tulsa OK USA,3,2019-08-26,36.1556805,-95.9929113
Twin Falls ID USA,3,2019-08-26,42.5704219,-114.4603171
Tyler TX USA,3,2019-08-26,32.3512601,-95.3010624
Utica NY USA,5,2019-08-26,43.1009031,-75.2326641
Victoria TX USA,3,2019-08-26,28.8026443,-96.9766308
Waco TX USA,3,2019-08-26,31.549333,-97.1466695
Washington DC USA,6,2019-08-26,38.8948932,-77.0365529
Watertown NY USA,5,2019-08-26,43.9747838,-75.9107565
Wausau WI USA,4,2019-08-26,44.9596017,-89.6298239
West Palm Beach FL USA,100,2019-08-26,26.7153425,-80.0533746
Wheeling WV USA,4,2019-08-26,40.0639616,-80.7209149
Wichita Falls TX USA,3,2019-08-26,33.9137085,-98.4933873
Wichita KS USA,3,2019-08-26,37.6922361,-97.3375448
Wilkes Barre PA USA,5,2019-08-26,41.2464824,-75.8817316
Wilmington NC USA,37,2019-08-26,34.2257282,-77.9447107
Yakima WA USA,2,2019-08-26,46.601557,-120.5108421
Youngstown OH USA,4,2019-08-26,41.1035786,-80.6520161
Yuma AZ USA,1,2019-08-26,32.6926588,-114.6276157
Zanesville OH USA,5,2019-08-26,39.9403453,-82.0131924
Abilene TX USA,5,2019-09-02,32.44645,-99.7475905
Albany GA USA,27,2019-09-02,40.0555158,-82.8457691
Albany NY USA,9,2019-09-02,42.6511674,-73.754968
Albuquerque NM USA,6,2019-09-02,35.0841034,-106.6509851
Alexandria LA USA,6,2019-09-02,38.8147596,-77.09024765272724
Alpena MI USA,6,2019-09-02,45.0176181,-83.6670019
Amarillo TX USA,4,2019-09-02,35.2072185,-101.8338246
Anchorage AK USA,6,2019-09-02,61.2163129,-149.8948523
Atlanta GA USA,16,2019-09-02,33.7490987,-84.3901849
Augusta GA USA,29,2019-09-02,33.4709714,-81.9748429
Austin TX USA,6,2019-09-02,30.2711286,-97.7436995
Bakersfield CA USA,3,2019-09-02,35.3738712,-119.0194639
Baltimore MD USA,10,2019-09-02,39.284749399999995,-76.62047463969989
Bangor ME USA,14,2019-09-02,44.8011821,-68.7778138
Baton Rouge LA USA,7,2019-09-02,30.4459596,-91.18738
Beaumont TX USA,5,2019-09-02,30.0860459,-94.1018461
Bend OR USA,6,2019-09-02,44.0581728,-121.3153096
"Billings, MT USA",7,2019-09-02,45.7874957,-108.49607
Biloxi MS USA,12,2019-09-02,30.374673,-88.84594333482862
Binghamton NY USA,9,2019-09-02,42.096968,-75.914341
Birmingham AL USA,9,2019-09-02,33.570499,-86.765783
Bluefield WV USA,13,2019-09-02,37.2698395,-81.2223195
Boise ID USA,6,2019-09-02,43.6166163,-116.200886
Boston MA USA,8,2019-09-02,42.3602534,-71.0582912
Bowling Green KY USA,7,2019-09-02,36.9903199,-86.4436018
Buffalo NY USA,9,2019-09-02,42.8867166,-78.8783922
Burlington VT USA,10,2019-09-02,44.4762975,-73.2135472
Butte MT USA,7,2019-09-02,46.0131505,-112.5365089
Casper WY USA,5,2019-09-02,39.4632037,-75.7079641
Cedar Rapids IA USA,6,2019-09-02,41.9758872,-91.6704053
Champaign IL USA,7,2019-09-02,40.1164205,-88.2433829
Charleston SC USA,85,2019-09-02,32.7876012,-79.9402728
Charleston WV USA,10,2019-09-02,38.3505995,-81.6332812
Charlotte NC USA,26,2019-09-02,35.2270869,-80.8431268
Charlottesville VA USA,13,2019-09-02,38.029306,-78.4766781
Chattanooga TN USA,11,2019-09-02,35.0457219,-85.3094883
Cheyenne WY USA,5,2019-09-02,40.640361,-74.367318
Chicago IL USA,6,2019-09-02,41.8755616,-87.6244212
Chico CA USA,5,2019-09-02,39.7284945,-121.8374777
Cincinnati OH USA,8,2019-09-02,39.1014537,-84.5124602
Clarksburg WV USA,12,2019-09-02,39.2806451,-80.3445341
Cleveland OH USA,10,2019-09-02,41.5051613,-81.6934446
Colorado Springs CO USA,7,2019-09-02,38.8339578,-104.8253485
Columbia SC USA,40,2019-09-02,34.0007493,-81.0343313
Columbia MO USA,6,2019-09-02,38.951883,-92.3337366
Columbus GA USA,13,2019-09-02,32.4609764,-84.9877094
Columbus OH USA,8,2019-09-02,39.9622601,-83.0007065
Columbus MS USA,6,2019-09-02,43.336875649999996,-89.0196532340367
Corpus Christi TX USA,6,2019-09-02,27.7477253,-97.4014129
Dallas TX USA,6,2019-09-02,32.7762719,-96.7968559
Davenport IA USA,7,2019-09-02,41.5236436,-90.5776368
Dayton OH USA,8,2019-09-02,39.7589478,-84.1916069
Denver CO USA,7,2019-09-02,39.7348381,-104.9653271
Des Moines IA USA,6,2019-09-02,41.5910641,-93.6037149
Detroit MI USA,7,2019-09-02,42.3315509,-83.0466403
Dothan AL USA,16,2019-09-02,31.2237434,-85.3933906
Duluth MN USA,6,2019-09-02,46.7729322,-92.1251218
El Paso TX USA,3,2019-09-02,31.7754152,-106.4646348
Elmira NY USA,10,2019-09-02,42.0897965,-76.8077338
Erie PA USA,9,2019-09-02,42.1294712,-80.0852695
Eugene OR USA,6,2019-09-02,44.0505054,-123.0950506
Eureka CA USA,5,2019-09-02,40.8020712,-124.1636729
Evansville IN USA,8,2019-09-02,37.9747645,-87.5558483
Fairbanks AK USA,8,2019-09-02,64.837845,-147.716675
Fargo ND USA,5,2019-09-02,46.877229,-96.789821
Flint MI USA,6,2019-09-02,43.0161693,-83.6900211
Florence SC USA,71,2019-09-02,34.1984435,-79.7671658
Fresno CA USA,3,2019-09-02,36.7295295,-119.70886126075588
Ft. Myers FL USA,44,2019-09-02,26.640628,-81.8723084
Ft. Smith AR USA,5,2019-09-02,35.3872218,-94.4248983
Ft. Wayne IN USA,8,2019-09-02,41.0799898,-85.1386015
Gainesville FL USA,52,2019-09-02,29.67357765,-82.32337460192167
Grand Junction CO USA,8,2019-09-02,39.063956,-108.5507317
Grand Rapids MI USA,7,2019-09-02,42.9142413,-85.533004
Great Falls MT USA,6,2019-09-02,47.5048851,-111.2918908
Green Bay WI USA,7,2019-09-02,44.5126379,-88.0125794
Greensboro NC USA,23,2019-09-02,36.0726355,-79.7919754
Greenville NC USA,81,2019-09-02,35.612661,-77.3663538
Greenville SC USA,22,2019-09-02,34.851354,-82.3984882
Greenwood MS USA,3,2019-09-02,39.59493885,-86.12237861696312
Harlingen TX USA,3,2019-09-02,26.1908241,-97.6959794
Harrisburg PA USA,9,2019-09-02,40.2663107,-76.8861122
Harrisonburg VA USA,11,2019-09-02,38.4493315,-78.8688833
Hartford CT USA,9,2019-09-02,43.648048,-70.241416
Hattiesburg MS USA,7,2019-09-02,31.3271189,-89.2903392
Helena MT USA,7,2019-09-02,46.5927425,-112.0362771
Honolulu HI USA,7,2019-09-02,21.304547,-157.8556764
Houston TX USA,6,2019-09-02,29.7589382,-95.3676974
Huntsville AL USA,8,2019-09-02,33.554113,-86.804219
Idaho Falls ID USA,6,2019-09-02,43.4935245,-112.0400919
Indianapolis IN USA,7,2019-09-02,39.7683331,-86.1583502
Jackson MS USA,6,2019-09-02,28.530801699999998,-81.30324431076107
Jackson TN USA,6,2019-09-02,35.6144446,-88.8177418
Jacksonville FL USA,59,2019-09-02,30.3321838,-81.655651
Johnstown PA USA,10,2019-09-02,40.3267407,-78.9219698
Jonesboro AR USA,4,2019-09-02,35.8428646,-90.7034522
Joplin MO USA,5,2019-09-02,37.08418,-94.51323
Juneau AK USA,8,2019-09-02,58.3019496,-134.419734
Kansas City MO USA,6,2019-09-02,39.100105,-94.5781416
Knoxville TN USA,13,2019-09-02,35.9603948,-83.9210261
La Crosse WI USA,6,2019-09-02,43.8014053,-91.2395429
Lafayette IN USA,5,2019-09-02,40.4167022,-86.8752869
Lafayette LA USA,6,2019-09-02,30.2240897,-92.0198427
Lake Charles LA USA,6,2019-09-02,30.2265949,-93.2173759
Lansing MI USA,7,2019-09-02,42.7338147,-84.5207088
Laredo TX USA,2,2019-09-02,27.5199841,-99.4953764
Las Vegas NV USA,5,2019-09-02,36.1672559,-115.1485163
Lexington KY USA,8,2019-09-02,38.0464066,-84.4970393
Lima OH USA,6,2019-09-02,40.7399785,-84.105006
Lincoln NE USA,5,2019-09-02,40.8088861,-96.7077751
Little Rock AR USA,5,2019-09-02,34.7464809,-92.2895948
Los Angeles CA USA,4,2019-09-02,34.0536909,-118.2427666
Louisville KY USA,8,2019-09-02,38.2542376,-85.759407
Lubbock TX USA,4,2019-09-02,33.5635206,-101.879336
Macon GA USA,24,2019-09-02,32.8406946,-83.6324022
Madison WI USA,6,2019-09-02,43.074761,-89.3837613
Mankato MN USA,4,2019-09-02,44.1634663,-93.9993505
Marquette MI USA,8,2019-09-02,46.4481521,-87.6305899
Medford OR USA,6,2019-09-02,42.3264181,-122.8718605
Memphis TN USA,6,2019-09-02,35.1490215,-90.0516285
Meridian MS USA,5,2019-09-02,43.61732135,-116.40613112241579
Miami FL USA,45,2019-09-02,25.7742658,-80.1936589
Milwaukee WI USA,7,2019-09-02,43.0349931,-87.922497
Minneapolis MN USA,5,2019-09-02,44.9772995,-93.2654692
Minot ND USA,6,2019-09-02,48.23251,-101.296273
Missoula MT USA,7,2019-09-02,46.8701049,-113.9952672
Mobile AL USA,17,2019-09-02,39.092585,-84.853229
Monroe LA USA,5,2019-09-02,38.2722313,-90.1792484
Monterey CA USA,4,2019-09-02,36.2231079,-121.3877428
Montgomery AL USA,10,2019-09-02,40.85239,-78.266098
Nashville TN USA,9,2019-09-02,36.1622296,-86.7743531
New Orleans LA USA,9,2019-09-02,29.9499323,-90.0701156
New York NY USA,8,2019-09-02,40.7127281,-74.0060152
Norfolk VA USA,41,2019-09-02,36.8889933,-76.2481624
North Platte NE USA,8,2019-09-02,41.1238873,-100.7654232
Odessa TX USA,3,2019-09-02,31.8457149,-102.367687
Oklahoma City OK USA,5,2019-09-02,35.4729886,-97.5170536
Omaha NE USA,5,2019-09-02,41.2587459,-95.9383758
Orlando FL USA,67,2019-09-02,28.5479786,-81.41278418563017
Ottumwa IA USA,6,2019-09-02,41.0200145,-92.4112963
Paducah KY USA,7,2019-09-02,37.0833893,-88.6000478
Palm Springs CA USA,4,2019-09-02,33.8246269,-116.540303
Panama City FL USA,35,2019-09-02,30.1600827,-85.6545729
Parkersburg WV USA,11,2019-09-02,39.2699565,-81.5506916
Peoria IL USA,7,2019-09-02,40.6938609,-89.5891008
Philadelphia PA USA,8,2019-09-02,39.9527237,-75.1635262
Phoenix AZ USA,5,2019-09-02,33.4484367,-112.0741417
Pittsburgh PA USA,9,2019-09-02,40.4416941,-79.9900861
Portland OR USA,6,2019-09-02,45.5202471,-122.6741949
Portland ME USA,10,2019-09-02,43.6610277,-70.2548596
Presque Isle ME USA,9,2019-09-02,46.681479,-68.016357
Providence RI USA,10,2019-09-02,41.8239891,-71.4128343
Quincy IL USA,6,2019-09-02,42.2528772,-71.0022705
Raleigh NC USA,41,2019-09-02,35.7803977,-78.6390989
Rapid City SD USA,6,2019-09-02,44.081176,-103.228006
Reno NV USA,6,2019-09-02,39.5261206,-119.8126581
Richmond VA USA,18,2019-09-02,37.5385087,-77.43428
Roanoke VA USA,15,2019-09-02,37.270973,-79.9414313
Rochester MN USA,7,2019-09-02,44.0234387,-92.4630182
Rochester NY USA,8,2019-09-02,43.157285,-77.615214
Rockford IL USA,7,2019-09-02,42.2713945,-89.093966
Sacramento CA USA,4,2019-09-02,38.5815719,-121.4943996
Salisbury MD USA,18,2019-09-02,38.3662114,-75.6008881
Salt Lake City UT USA,6,2019-09-02,40.7596198,-111.8867975
San Angelo TX USA,7,2019-09-02,31.4648357,-100.4398442
San Antonio TX USA,5,2019-09-02,29.4246002,-98.4951405
San Diego CA USA,5,2019-09-02,32.7174209,-117.1627714
San Francisco CA USA,4,2019-09-02,37.7790262,-122.4199061
Santa Barbara CA USA,4,2019-09-02,34.4221319,-119.7026673
Savannah GA USA,74,2019-09-02,32.0809263,-81.0911768
Seattle WA USA,6,2019-09-02,47.6038321,-122.3300624
Sherman TX USA,5,2019-09-02,36.2452294,-101.8858689
Shreveport LA USA,5,2019-09-02,32.5221828,-93.7651944
Sioux City IA USA,4,2019-09-02,42.4966815,-96.4058782
Sioux Falls SD USA,5,2019-09-02,43.5499749,-96.700327
South Bend IN USA,7,2019-09-02,41.6833813,-86.2500066
Spokane WA USA,6,2019-09-02,47.6579425,-117.4212265
Springfield MO USA,7,2019-09-02,37.2166779,-93.2920373
Springfield MA USA,7,2019-09-02,42.1014831,-72.589811
St. Joseph MO USA,5,2019-09-02,39.7686055,-94.8466322
St. Louis MO USA,6,2019-09-02,38.6268039,-90.1994097
Syracuse NY USA,8,2019-09-02,43.0481221,-76.1474244
Tallahassee FL USA,37,2019-09-02,30.4380832,-84.2809332
Tampa FL USA,44,2019-09-02,27.9518491,-82.4563972
Terre Haute IN USA,8,2019-09-02,39.4667025,-87.4139119
Toledo OH USA,7,2019-09-02,41.6786754,-83.5127283
Topeka KS USA,4,2019-09-02,39.049011,-95.677556
Traverse City MI USA,9,2019-09-02,44.7606441,-85.6165301
Tri VA USA,13,2019-09-02,38.5467876,-77.3366491
Tucson AZ USA,5,2019-09-02,32.2228765,-110.9748477
Tulsa OK USA,5,2019-09-02,36.1556805,-95.9929113
Twin Falls ID USA,6,2019-09-02,42.5704219,-114.4603171
Tyler TX USA,5,2019-09-02,32.3512601,-95.3010624
Utica NY USA,8,2019-09-02,43.1009031,-75.2326641
Victoria TX USA,6,2019-09-02,28.8026443,-96.9766308
Waco TX USA,5,2019-09-02,31.549333,-97.1466695
Washington DC USA,10,2019-09-02,38.8948932,-77.0365529
Watertown NY USA,8,2019-09-02,43.9747838,-75.9107565
Wausau WI USA,6,2019-09-02,44.9596017,-89.6298239
West Palm Beach FL USA,59,2019-09-02,26.7153425,-80.0533746
Wheeling WV USA,8,2019-09-02,40.0639616,-80.7209149
Wichita Falls TX USA,5,2019-09-02,33.9137085,-98.4933873
Wichita KS USA,5,2019-09-02,37.6922361,-97.3375448
Wilkes Barre PA USA,9,2019-09-02,41.2464824,-75.8817316
Wilmington NC USA,100,2019-09-02,34.2257282,-77.9447107
Yakima WA USA,5,2019-09-02,46.601557,-120.5108421
Youngstown OH USA,9,2019-09-02,41.1035786,-80.6520161
Yuma AZ USA,3,2019-09-02,32.6926588,-114.6276157
Zanesville OH USA,9,2019-09-02,39.9403453,-82.0131924
Abilene TX USA,29,2019-09-09,32.44645,-99.7475905
Albany GA USA,37,2019-09-09,40.0555158,-82.8457691
Albany NY USA,26,2019-09-09,42.6511674,-73.754968
Albuquerque NM USA,16,2019-09-09,35.0841034,-106.6509851
Alexandria LA USA,47,2019-09-09,38.8147596,-77.09024765272724
Amarillo TX USA,13,2019-09-09,35.2072185,-101.8338246
Anchorage AK USA,21,2019-09-09,61.2163129,-149.8948523
Atlanta GA USA,27,2019-09-09,33.7490987,-84.3901849
Augusta GA USA,36,2019-09-09,33.4709714,-81.9748429
Austin TX USA,21,2019-09-09,30.2711286,-97.7436995
Bakersfield CA USA,14,2019-09-09,35.3738712,-119.0194639
Baltimore MD USA,17,2019-09-09,39.284749399999995,-76.62047463969989
Bangor ME USA,42,2019-09-09,44.8011821,-68.7778138
Baton Rouge LA USA,23,2019-09-09,30.4459596,-91.18738
Beaumont TX USA,17,2019-09-09,30.0860459,-94.1018461
Bend OR USA,17,2019-09-09,44.0581728,-121.3153096
"Billings, MT USA",15,2019-09-09,45.7874957,-108.49607
Biloxi MS USA,33,2019-09-09,30.374673,-88.84594333482862
Binghamton NY USA,19,2019-09-09,42.096968,-75.914341
Birmingham AL USA,19,2019-09-09,33.570499,-86.765783
Bluefield WV USA,39,2019-09-09,37.2698395,-81.2223195
Boise ID USA,22,2019-09-09,43.6166163,-116.200886
Boston MA USA,17,2019-09-09,42.3602534,-71.0582912
Bowling Green KY USA,18,2019-09-09,36.9903199,-86.4436018
Buffalo NY USA,22,2019-09-09,42.8867166,-78.8783922
Burlington VT USA,30,2019-09-09,44.4762975,-73.2135472
Butte MT USA,17,2019-09-09,46.0131505,-112.5365089
Casper WY USA,62,2019-09-09,39.4632037,-75.7079641
Cedar Rapids IA USA,18,2019-09-09,41.9758872,-91.6704053
Champaign IL USA,16,2019-09-09,40.1164205,-88.2433829
Charleston SC USA,91,2019-09-09,32.7876012,-79.9402728
Charleston WV USA,38,2019-09-09,38.3505995,-81.6332812
Charlotte NC USA,35,2019-09-09,35.2270869,-80.8431268
Charlottesville VA USA,28,2019-09-09,38.029306,-78.4766781
Chattanooga TN USA,17,2019-09-09,35.0457219,-85.3094883
Cheyenne WY USA,37,2019-09-09,40.640361,-74.367318
Chicago IL USA,19,2019-09-09,41.8755616,-87.6244212
Chico CA USA,24,2019-09-09,39.7284945,-121.8374777
Cincinnati OH USA,25,2019-09-09,39.1014537,-84.5124602
Clarksburg WV USA,32,2019-09-09,39.2806451,-80.3445341
Cleveland OH USA,24,2019-09-09,41.5051613,-81.6934446
Colorado Springs CO USA,30,2019-09-09,38.8339578,-104.8253485
Columbia SC USA,41,2019-09-09,34.0007493,-81.0343313
Columbia MO USA,24,2019-09-09,38.951883,-92.3337366
Columbus GA USA,22,2019-09-09,32.4609764,-84.9877094
Columbus OH USA,17,2019-09-09,39.9622601,-83.0007065
Columbus MS USA,16,2019-09-09,43.336875649999996,-89.0196532340367
Corpus Christi TX USA,16,2019-09-09,27.7477253,-97.4014129
Dallas TX USA,19,2019-09-09,32.7762719,-96.7968559
Davenport IA USA,13,2019-09-09,41.5236436,-90.5776368
Dayton OH USA,25,2019-09-09,39.7589478,-84.1916069
Denver CO USA,20,2019-09-09,39.7348381,-104.9653271
Des Moines IA USA,28,2019-09-09,41.5910641,-93.6037149
Detroit MI USA,21,2019-09-09,42.3315509,-83.0466403
Dothan AL USA,18,2019-09-09,31.2237434,-85.3933906
Duluth MN USA,22,2019-09-09,46.7729322,-92.1251218
El Paso TX USA,9,2019-09-09,31.7754152,-106.4646348
Elmira NY USA,43,2019-09-09,42.0897965,-76.8077338
Erie PA USA,33,2019-09-09,42.1294712,-80.0852695
Eugene OR USA,27,2019-09-09,44.0505054,-123.0950506
Eureka CA USA,24,2019-09-09,40.8020712,-124.1636729
Evansville IN USA,30,2019-09-09,37.9747645,-87.5558483
Fairbanks AK USA,33,2019-09-09,64.837845,-147.716675
Fargo ND USA,14,2019-09-09,46.877229,-96.789821
Flint MI USA,29,2019-09-09,43.0161693,-83.6900211
Florence SC USA,60,2019-09-09,34.1984435,-79.7671658
Fresno CA USA,11,2019-09-09,36.7295295,-119.70886126075588
Ft. Myers FL USA,58,2019-09-09,26.640628,-81.8723084
Ft. Smith AR USA,16,2019-09-09,35.3872218,-94.4248983
Ft. Wayne IN USA,28,2019-09-09,41.0799898,-85.1386015
Gainesville FL USA,53,2019-09-09,29.67357765,-82.32337460192167
Grand Junction CO USA,20,2019-09-09,39.063956,-108.5507317
Grand Rapids MI USA,20,2019-09-09,42.9142413,-85.533004
Great Falls MT USA,29,2019-09-09,47.5048851,-111.2918908
Green Bay WI USA,28,2019-09-09,44.5126379,-88.0125794
Greensboro NC USA,36,2019-09-09,36.0726355,-79.7919754
Greenville NC USA,59,2019-09-09,35.612661,-77.3663538
Greenville SC USA,28,2019-09-09,34.851354,-82.3984882
Greenwood MS USA,36,2019-09-09,39.59493885,-86.12237861696312
Harlingen TX USA,13,2019-09-09,26.1908241,-97.6959794
Harrisburg PA USA,25,2019-09-09,40.2663107,-76.8861122
Harrisonburg VA USA,23,2019-09-09,38.4493315,-78.8688833
Hartford CT USA,17,2019-09-09,43.648048,-70.241416
Hattiesburg MS USA,26,2019-09-09,31.3271189,-89.2903392
Helena MT USA,52,2019-09-09,46.5927425,-112.0362771
Honolulu HI USA,15,2019-09-09,21.304547,-157.8556764
Houston TX USA,17,2019-09-09,29.7589382,-95.3676974
Huntsville AL USA,18,2019-09-09,33.554113,-86.804219
Idaho Falls ID USA,21,2019-09-09,43.4935245,-112.0400919
Indianapolis IN USA,16,2019-09-09,39.7683331,-86.1583502
Jackson MS USA,18,2019-09-09,28.530801699999998,-81.30324431076107
Jackson TN USA,20,2019-09-09,35.6144446,-88.8177418
Jacksonville FL USA,58,2019-09-09,30.3321838,-81.655651
Johnstown PA USA,27,2019-09-09,40.3267407,-78.9219698
Jonesboro AR USA,32,2019-09-09,35.8428646,-90.7034522
Joplin MO USA,24,2019-09-09,37.08418,-94.51323
Juneau AK USA,49,2019-09-09,58.3019496,-134.419734
Kansas City MO USA,15,2019-09-09,39.100105,-94.5781416
Knoxville TN USA,20,2019-09-09,35.9603948,-83.9210261
La Crosse WI USA,32,2019-09-09,43.8014053,-91.2395429
Lafayette IN USA,30,2019-09-09,40.4167022,-86.8752869
Lafayette LA USA,11,2019-09-09,30.2240897,-92.0198427
Lake Charles LA USA,33,2019-09-09,30.2265949,-93.2173759
Lansing MI USA,22,2019-09-09,42.7338147,-84.5207088
Las Vegas NV USA,16,2019-09-09,36.1672559,-115.1485163
Lexington KY USA,16,2019-09-09,38.0464066,-84.4970393
Lincoln NE USA,17,2019-09-09,40.8088861,-96.7077751
Little Rock AR USA,20,2019-09-09,34.7464809,-92.2895948
Los Angeles CA USA,15,2019-09-09,34.0536909,-118.2427666
Louisville KY USA,26,2019-09-09,38.2542376,-85.759407
Lubbock TX USA,11,2019-09-09,33.5635206,-101.879336
Macon GA USA,24,2019-09-09,32.8406946,-83.6324022
Madison WI USA,20,2019-09-09,43.074761,-89.3837613
Mankato MN USA,24,2019-09-09,44.1634663,-93.9993505
Marquette MI USA,19,2019-09-09,46.4481521,-87.6305899
Medford OR USA,17,2019-09-09,42.3264181,-122.8718605
Memphis TN USA,20,2019-09-09,35.1490215,-90.0516285
Meridian MS USA,49,2019-09-09,43.61732135,-116.40613112241579
Miami FL USA,66,2019-09-09,25.7742658,-80.1936589
Milwaukee WI USA,22,2019-09-09,43.0349931,-87.922497
Minneapolis MN USA,21,2019-09-09,44.9772995,-93.2654692
Minot ND USA,14,2019-09-09,48.23251,-101.296273
Missoula MT USA,19,2019-09-09,46.8701049,-113.9952672
Mobile AL USA,30,2019-09-09,39.092585,-84.853229
Monroe LA USA,16,2019-09-09,38.2722313,-90.1792484
Monterey CA USA,19,2019-09-09,36.2231079,-121.3877428
Montgomery AL USA,14,2019-09-09,40.85239,-78.266098
Nashville TN USA,20,2019-09-09,36.1622296,-86.7743531
New Orleans LA USA,13,2019-09-09,29.9499323,-90.0701156
New York NY USA,20,2019-09-09,40.7127281,-74.0060152
Norfolk VA USA,37,2019-09-09,36.8889933,-76.2481624
North Platte NE USA,100,2019-09-09,41.1238873,-100.7654232
Odessa TX USA,13,2019-09-09,31.8457149,-102.367687
Oklahoma City OK USA,18,2019-09-09,35.4729886,-97.5170536
Omaha NE USA,25,2019-09-09,41.2587459,-95.9383758
Orlando FL USA,60,2019-09-09,28.5479786,-81.41278418563017
Ottumwa IA USA,56,2019-09-09,41.0200145,-92.4112963
Paducah KY USA,23,2019-09-09,37.0833893,-88.6000478
Palm Springs CA USA,20,2019-09-09,33.8246269,-116.540303
Panama City FL USA,96,2019-09-09,30.1600827,-85.6545729
Parkersburg WV USA,32,2019-09-09,39.2699565,-81.5506916
Peoria IL USA,25,2019-09-09,40.6938609,-89.5891008
Philadelphia PA USA,23,2019-09-09,39.9527237,-75.1635262
Phoenix AZ USA,17,2019-09-09,33.4484367,-112.0741417
Pittsburgh PA USA,18,2019-09-09,40.4416941,-79.9900861
Portland OR USA,23,2019-09-09,45.5202471,-122.6741949
Portland ME USA,19,2019-09-09,43.6610277,-70.2548596
Presque Isle ME USA,72,2019-09-09,46.681479,-68.016357
Providence RI USA,18,2019-09-09,41.8239891,-71.4128343
Quincy IL USA,19,2019-09-09,42.2528772,-71.0022705
Raleigh NC USA,31,2019-09-09,35.7803977,-78.6390989
Rapid City SD USA,23,2019-09-09,44.081176,-103.228006
Reno NV USA,16,2019-09-09,39.5261206,-119.8126581
Richmond VA USA,23,2019-09-09,37.5385087,-77.43428
Roanoke VA USA,25,2019-09-09,37.270973,-79.9414313
Rochester MN USA,29,2019-09-09,44.0234387,-92.4630182
Rochester NY USA,16,2019-09-09,43.157285,-77.615214
Rockford IL USA,20,2019-09-09,42.2713945,-89.093966
Sacramento CA USA,17,2019-09-09,38.5815719,-121.4943996
Salisbury MD USA,31,2019-09-09,38.3662114,-75.6008881
Salt Lake City UT USA,21,2019-09-09,40.7596198,-111.8867975
San Angelo TX USA,22,2019-09-09,31.4648357,-100.4398442
San Antonio TX USA,18,2019-09-09,29.4246002,-98.4951405
San Diego CA USA,17,2019-09-09,32.7174209,-117.1627714
San Francisco CA USA,14,2019-09-09,37.7790262,-122.4199061
Santa Barbara CA USA,25,2019-09-09,34.4221319,-119.7026673
Savannah GA USA,71,2019-09-09,32.0809263,-81.0911768
Seattle WA USA,16,2019-09-09,47.6038321,-122.3300624
Sherman TX USA,22,2019-09-09,36.2452294,-101.8858689
Shreveport LA USA,20,2019-09-09,32.5221828,-93.7651944
Sioux City IA USA,32,2019-09-09,42.4966815,-96.4058782
Sioux Falls SD USA,15,2019-09-09,43.5499749,-96.700327
South Bend IN USA,29,2019-09-09,41.6833813,-86.2500066
Spokane WA USA,29,2019-09-09,47.6579425,-117.4212265
Springfield MO USA,17,2019-09-09,37.2166779,-93.2920373
Springfield MA USA,27,2019-09-09,42.1014831,-72.589811
St. Louis MO USA,18,2019-09-09,38.6268039,-90.1994097
Syracuse NY USA,20,2019-09-09,43.0481221,-76.1474244
Tallahassee FL USA,59,2019-09-09,30.4380832,-84.2809332
Tampa FL USA,48,2019-09-09,27.9518491,-82.4563972
Terre Haute IN USA,13,2019-09-09,39.4667025,-87.4139119
Toledo OH USA,21,2019-09-09,41.6786754,-83.5127283
Topeka KS USA,22,2019-09-09,39.049011,-95.677556
Traverse City MI USA,23,2019-09-09,44.7606441,-85.6165301
Tri VA USA,20,2019-09-09,38.5467876,-77.3366491
Tucson AZ USA,13,2019-09-09,32.2228765,-110.9748477
Tulsa OK USA,20,2019-09-09,36.1556805,-95.9929113
Twin Falls ID USA,23,2019-09-09,42.5704219,-114.4603171
Tyler TX USA,23,2019-09-09,32.3512601,-95.3010624
Utica NY USA,54,2019-09-09,43.1009031,-75.2326641
Victoria TX USA,50,2019-09-09,28.8026443,-96.9766308
Waco TX USA,17,2019-09-09,31.549333,-97.1466695
Washington DC USA,27,2019-09-09,38.8948932,-77.0365529
Watertown NY USA,17,2019-09-09,43.9747838,-75.9107565
Wausau WI USA,20,2019-09-09,44.9596017,-89.6298239
West Palm Beach FL USA,75,2019-09-09,26.7153425,-80.0533746
Wheeling WV USA,20,2019-09-09,40.0639616,-80.7209149
Wichita Falls TX USA,16,2019-09-09,33.9137085,-98.4933873
Wichita KS USA,17,2019-09-09,37.6922361,-97.3375448
Wilkes Barre PA USA,19,2019-09-09,41.2464824,-75.8817316
Wilmington NC USA,64,2019-09-09,34.2257282,-77.9447107
Yakima WA USA,20,2019-09-09,46.601557,-120.5108421
Youngstown OH USA,19,2019-09-09,41.1035786,-80.6520161
Yuma AZ USA,33,2019-09-09,32.6926588,-114.6276157
Zanesville OH USA,55,2019-09-09,39.9403453,-82.0131924
Abilene TX USA,15,2019-09-16,32.44645,-99.7475905
Albany GA USA,12,2019-09-16,40.0555158,-82.8457691
Albany NY USA,3,2019-09-16,42.6511674,-73.754968
Albuquerque NM USA,6,2019-09-16,35.0841034,-106.6509851
Amarillo TX USA,17,2019-09-16,35.2072185,-101.8338246
Anchorage AK USA,11,2019-09-16,61.2163129,-149.8948523
Atlanta GA USA,9,2019-09-16,33.7490987,-84.3901849
Augusta GA USA,12,2019-09-16,33.4709714,-81.9748429
Austin TX USA,7,2019-09-16,30.2711286,-97.7436995
Bakersfield CA USA,6,2019-09-16,35.3738712,-119.0194639
Baltimore MD USA,8,2019-09-16,39.284749399999995,-76.62047463969989
Bangor ME USA,10,2019-09-16,44.8011821,-68.7778138
Baton Rouge LA USA,15,2019-09-16,30.4459596,-91.18738
Beaumont TX USA,19,2019-09-16,30.0860459,-94.1018461
"Billings, MT USA",15,2019-09-16,45.7874957,-108.49607
Biloxi MS USA,11,2019-09-16,30.374673,-88.84594333482862
Binghamton NY USA,17,2019-09-16,42.096968,-75.914341
Birmingham AL USA,4,2019-09-16,33.570499,-86.765783
Boise ID USA,6,2019-09-16,43.6166163,-116.200886
Boston MA USA,5,2019-09-16,42.3602534,-71.0582912
Buffalo NY USA,6,2019-09-16,42.8867166,-78.8783922
Burlington VT USA,4,2019-09-16,44.4762975,-73.2135472
Cedar Rapids IA USA,8,2019-09-16,41.9758872,-91.6704053
Champaign IL USA,6,2019-09-16,40.1164205,-88.2433829
Charleston SC USA,40,2019-09-16,32.7876012,-79.9402728
Charleston WV USA,9,2019-09-16,38.3505995,-81.6332812
Charlotte NC USA,7,2019-09-16,35.2270869,-80.8431268
Charlottesville VA USA,12,2019-09-16,38.029306,-78.4766781
Chattanooga TN USA,6,2019-09-16,35.0457219,-85.3094883
Chicago IL USA,6,2019-09-16,41.8755616,-87.6244212
Chico CA USA,8,2019-09-16,39.7284945,-121.8374777
Cincinnati OH USA,5,2019-09-16,39.1014537,-84.5124602
Cleveland OH USA,5,2019-09-16,41.5051613,-81.6934446
Colorado Springs CO USA,7,2019-09-16,38.8339578,-104.8253485
Columbia SC USA,13,2019-09-16,34.0007493,-81.0343313
Columbia MO USA,8,2019-09-16,38.951883,-92.3337366
Columbus GA USA,6,2019-09-16,32.4609764,-84.9877094
Columbus OH USA,5,2019-09-16,39.9622601,-83.0007065
Corpus Christi TX USA,7,2019-09-16,27.7477253,-97.4014129
Dallas TX USA,5,2019-09-16,32.7762719,-96.7968559
Davenport IA USA,5,2019-09-16,41.5236436,-90.5776368
Dayton OH USA,5,2019-09-16,39.7589478,-84.1916069
Denver CO USA,6,2019-09-16,39.7348381,-104.9653271
Des Moines IA USA,7,2019-09-16,41.5910641,-93.6037149
Detroit MI USA,4,2019-09-16,42.3315509,-83.0466403
Dothan AL USA,18,2019-09-16,31.2237434,-85.3933906
Duluth MN USA,9,2019-09-16,46.7729322,-92.1251218
El Paso TX USA,9,2019-09-16,31.7754152,-106.4646348
Elmira NY USA,18,2019-09-16,42.0897965,-76.8077338
Erie PA USA,10,2019-09-16,42.1294712,-80.0852695
Eugene OR USA,8,2019-09-16,44.0505054,-123.0950506
Eureka CA USA,45,2019-09-16,40.8020712,-124.1636729
Evansville IN USA,12,2019-09-16,37.9747645,-87.5558483
Flint MI USA,5,2019-09-16,43.0161693,-83.6900211
Florence SC USA,23,2019-09-16,34.1984435,-79.7671658
Fresno CA USA,6,2019-09-16,36.7295295,-119.70886126075588
Ft. Myers FL USA,23,2019-09-16,26.640628,-81.8723084
Ft. Smith AR USA,6,2019-09-16,35.3872218,-94.4248983
Ft. Wayne IN USA,6,2019-09-16,41.0799898,-85.1386015
Gainesville FL USA,28,2019-09-16,29.67357765,-82.32337460192167
Grand Junction CO USA,21,2019-09-16,39.063956,-108.5507317
Grand Rapids MI USA,6,2019-09-16,42.9142413,-85.533004
Green Bay WI USA,5,2019-09-16,44.5126379,-88.0125794
Greensboro NC USA,7,2019-09-16,36.0726355,-79.7919754
Greenville NC USA,26,2019-09-16,35.612661,-77.3663538
Greenville SC USA,9,2019-09-16,34.851354,-82.3984882
Greenwood MS USA,37,2019-09-16,39.59493885,-86.12237861696312
Harrisburg PA USA,7,2019-09-16,40.2663107,-76.8861122
Harrisonburg VA USA,29,2019-09-16,38.4493315,-78.8688833
Hartford CT USA,5,2019-09-16,43.648048,-70.241416
Hattiesburg MS USA,18,2019-09-16,31.3271189,-89.2903392
Honolulu HI USA,3,2019-09-16,21.304547,-157.8556764
Houston TX USA,7,2019-09-16,29.7589382,-95.3676974
Huntsville AL USA,4,2019-09-16,33.554113,-86.804219
Idaho Falls ID USA,19,2019-09-16,43.4935245,-112.0400919
Indianapolis IN USA,4,2019-09-16,39.7683331,-86.1583502
Jackson MS USA,4,2019-09-16,28.530801699999998,-81.30324431076107
Jackson TN USA,19,2019-09-16,35.6144446,-88.8177418
Jacksonville FL USA,18,2019-09-16,30.3321838,-81.655651
Johnstown PA USA,9,2019-09-16,40.3267407,-78.9219698
Jonesboro AR USA,21,2019-09-16,35.8428646,-90.7034522
Kansas City MO USA,8,2019-09-16,39.100105,-94.5781416
Knoxville TN USA,8,2019-09-16,35.9603948,-83.9210261
La Crosse WI USA,9,2019-09-16,43.8014053,-91.2395429
Lafayette LA USA,7,2019-09-16,30.2240897,-92.0198427
Lansing MI USA,10,2019-09-16,42.7338147,-84.5207088
Las Vegas NV USA,8,2019-09-16,36.1672559,-115.1485163
Lexington KY USA,6,2019-09-16,38.0464066,-84.4970393
Lincoln NE USA,12,2019-09-16,40.8088861,-96.7077751
Little Rock AR USA,5,2019-09-16,34.7464809,-92.2895948
Los Angeles CA USA,5,2019-09-16,34.0536909,-118.2427666
Louisville KY USA,4,2019-09-16,38.2542376,-85.759407
Lubbock TX USA,8,2019-09-16,33.5635206,-101.879336
Macon GA USA,17,2019-09-16,32.8406946,-83.6324022
Madison WI USA,3,2019-09-16,43.074761,-89.3837613
Mankato MN USA,25,2019-09-16,44.1634663,-93.9993505
Marquette MI USA,19,2019-09-16,46.4481521,-87.6305899
Medford OR USA,9,2019-09-16,42.3264181,-122.8718605
Memphis TN USA,5,2019-09-16,35.1490215,-90.0516285
Meridian MS USA,75,2019-09-16,43.61732135,-116.40613112241579
Miami FL USA,22,2019-09-16,25.7742658,-80.1936589
Milwaukee WI USA,8,2019-09-16,43.0349931,-87.922497
Minneapolis MN USA,6,2019-09-16,44.9772995,-93.2654692
Minot ND USA,29,2019-09-16,48.23251,-101.296273
Mobile AL USA,10,2019-09-16,39.092585,-84.853229
Monroe LA USA,12,2019-09-16,38.2722313,-90.1792484
Monterey CA USA,21,2019-09-16,36.2231079,-121.3877428
Montgomery AL USA,10,2019-09-16,40.85239,-78.266098
Nashville TN USA,5,2019-09-16,36.1622296,-86.7743531
New Orleans LA USA,5,2019-09-16,29.9499323,-90.0701156
New York NY USA,5,2019-09-16,40.7127281,-74.0060152
Norfolk VA USA,16,2019-09-16,36.8889933,-76.2481624
Oklahoma City OK USA,8,2019-09-16,35.4729886,-97.5170536
Omaha NE USA,9,2019-09-16,41.2587459,-95.9383758
Orlando FL USA,21,2019-09-16,28.5479786,-81.41278418563017
Ottumwa IA USA,38,2019-09-16,41.0200145,-92.4112963
Paducah KY USA,10,2019-09-16,37.0833893,-88.6000478
Panama City FL USA,22,2019-09-16,30.1600827,-85.6545729
Peoria IL USA,7,2019-09-16,40.6938609,-89.5891008
Philadelphia PA USA,6,2019-09-16,39.9527237,-75.1635262
Phoenix AZ USA,5,2019-09-16,33.4484367,-112.0741417
Pittsburgh PA USA,5,2019-09-16,40.4416941,-79.9900861
Portland OR USA,4,2019-09-16,45.5202471,-122.6741949
Portland ME USA,5,2019-09-16,43.6610277,-70.2548596
Providence RI USA,4,2019-09-16,41.8239891,-71.4128343
Quincy IL USA,37,2019-09-16,42.2528772,-71.0022705
Raleigh NC USA,12,2019-09-16,35.7803977,-78.6390989
Reno NV USA,8,2019-09-16,39.5261206,-119.8126581
Richmond VA USA,13,2019-09-16,37.5385087,-77.43428
Roanoke VA USA,3,2019-09-16,37.270973,-79.9414313
Rochester MN USA,10,2019-09-16,44.0234387,-92.4630182
Rochester NY USA,8,2019-09-16,43.157285,-77.615214
Rockford IL USA,17,2019-09-16,42.2713945,-89.093966
Sacramento CA USA,3,2019-09-16,38.5815719,-121.4943996
Salisbury MD USA,17,2019-09-16,38.3662114,-75.6008881
Salt Lake City UT USA,6,2019-09-16,40.7596198,-111.8867975
San Angelo TX USA,45,2019-09-16,31.4648357,-100.4398442
San Antonio TX USA,6,2019-09-16,29.4246002,-98.4951405
San Diego CA USA,7,2019-09-16,32.7174209,-117.1627714
San Francisco CA USA,6,2019-09-16,37.7790262,-122.4199061
Santa Barbara CA USA,5,2019-09-16,34.4221319,-119.7026673
Savannah GA USA,19,2019-09-16,32.0809263,-81.0911768
Seattle WA USA,4,2019-09-16,47.6038321,-122.3300624
Sherman TX USA,14,2019-09-16,36.2452294,-101.8858689
Shreveport LA USA,13,2019-09-16,32.5221828,-93.7651944
Sioux City IA USA,22,2019-09-16,42.4966815,-96.4058782
Sioux Falls SD USA,14,2019-09-16,43.5499749,-96.700327
South Bend IN USA,9,2019-09-16,41.6833813,-86.2500066
Spokane WA USA,5,2019-09-16,47.6579425,-117.4212265
Springfield MO USA,5,2019-09-16,37.2166779,-93.2920373
St. Louis MO USA,6,2019-09-16,38.6268039,-90.1994097
Syracuse NY USA,5,2019-09-16,43.0481221,-76.1474244
Tallahassee FL USA,13,2019-09-16,30.4380832,-84.2809332
Tampa FL USA,13,2019-09-16,27.9518491,-82.4563972
Toledo OH USA,9,2019-09-16,41.6786754,-83.5127283
Topeka KS USA,8,2019-09-16,39.049011,-95.677556
Tri VA USA,6,2019-09-16,38.5467876,-77.3366491
Tucson AZ USA,9,2019-09-16,32.2228765,-110.9748477
Tulsa OK USA,5,2019-09-16,36.1556805,-95.9929113
Twin Falls ID USA,23,2019-09-16,42.5704219,-114.4603171
Tyler TX USA,12,2019-09-16,32.3512601,-95.3010624
Utica NY USA,15,2019-09-16,43.1009031,-75.2326641
Victoria TX USA,100,2019-09-16,28.8026443,-96.9766308
Waco TX USA,13,2019-09-16,31.549333,-97.1466695
Washington DC USA,6,2019-09-16,38.8948932,-77.0365529
Wausau WI USA,9,2019-09-16,44.9596017,-89.6298239
West Palm Beach FL USA,38,2019-09-16,26.7153425,-80.0533746
Wheeling WV USA,15,2019-09-16,40.0639616,-80.7209149
Wichita Falls TX USA,10,2019-09-16,33.9137085,-98.4933873
Wichita KS USA,9,2019-09-16,37.6922361,-97.3375448
Wilkes Barre PA USA,7,2019-09-16,41.2464824,-75.8817316
Wilmington NC USA,35,2019-09-16,34.2257282,-77.9447107
Yakima WA USA,9,2019-09-16,46.601557,-120.5108421
Youngstown OH USA,10,2019-09-16,41.1035786,-80.6520161
Albany GA USA,22,2019-09-23,40.0555158,-82.8457691
Albany NY USA,8,2019-09-23,42.6511674,-73.754968
Albuquerque NM USA,5,2019-09-23,35.0841034,-106.6509851
Amarillo TX USA,15,2019-09-23,35.2072185,-101.8338246
Anchorage AK USA,15,2019-09-23,61.2163129,-149.8948523
Atlanta GA USA,9,2019-09-23,33.7490987,-84.3901849
Augusta GA USA,11,2019-09-23,33.4709714,-81.9748429
Austin TX USA,5,2019-09-23,30.2711286,-97.7436995
Bakersfield CA USA,10,2019-09-23,35.3738712,-119.0194639
Baltimore MD USA,9,2019-09-23,39.284749399999995,-76.62047463969989
Bangor ME USA,39,2019-09-23,44.8011821,-68.7778138
Baton Rouge LA USA,8,2019-09-23,30.4459596,-91.18738
Beaumont TX USA,19,2019-09-23,30.0860459,-94.1018461
Bend OR USA,61,2019-09-23,44.0581728,-121.3153096
Birmingham AL USA,5,2019-09-23,33.570499,-86.765783
Bluefield WV USA,30,2019-09-23,37.2698395,-81.2223195
Boise ID USA,8,2019-09-23,43.6166163,-116.200886
Boston MA USA,8,2019-09-23,42.3602534,-71.0582912
Bowling Green KY USA,33,2019-09-23,36.9903199,-86.4436018
Buffalo NY USA,6,2019-09-23,42.8867166,-78.8783922
Burlington VT USA,8,2019-09-23,44.4762975,-73.2135472
Cedar Rapids IA USA,7,2019-09-23,41.9758872,-91.6704053
Charleston SC USA,52,2019-09-23,32.7876012,-79.9402728
Charleston WV USA,16,2019-09-23,38.3505995,-81.6332812
Charlotte NC USA,15,2019-09-23,35.2270869,-80.8431268
Chattanooga TN USA,7,2019-09-23,35.0457219,-85.3094883
Chicago IL USA,6,2019-09-23,41.8755616,-87.6244212
Chico CA USA,15,2019-09-23,39.7284945,-121.8374777
Cincinnati OH USA,6,2019-09-23,39.1014537,-84.5124602
Cleveland OH USA,7,2019-09-23,41.5051613,-81.6934446
Colorado Springs CO USA,13,2019-09-23,38.8339578,-104.8253485
Columbia SC USA,22,2019-09-23,34.0007493,-81.0343313
Columbus GA USA,12,2019-09-23,32.4609764,-84.9877094
Columbus OH USA,5,2019-09-23,39.9622601,-83.0007065
Dallas TX USA,6,2019-09-23,32.7762719,-96.7968559
Dayton OH USA,6,2019-09-23,39.7589478,-84.1916069
Denver CO USA,7,2019-09-23,39.7348381,-104.9653271
Des Moines IA USA,8,2019-09-23,41.5910641,-93.6037149
Detroit MI USA,6,2019-09-23,42.3315509,-83.0466403
El Paso TX USA,9,2019-09-23,31.7754152,-106.4646348
Elmira NY USA,33,2019-09-23,42.0897965,-76.8077338
Erie PA USA,19,2019-09-23,42.1294712,-80.0852695
Eugene OR USA,11,2019-09-23,44.0505054,-123.0950506
Fargo ND USA,11,2019-09-23,46.877229,-96.789821
Flint MI USA,7,2019-09-23,43.0161693,-83.6900211
Florence SC USA,36,2019-09-23,34.1984435,-79.7671658
Fresno CA USA,4,2019-09-23,36.7295295,-119.70886126075588
Ft. Myers FL USA,32,2019-09-23,26.640628,-81.8723084
Ft. Wayne IN USA,10,2019-09-23,41.0799898,-85.1386015
Gainesville FL USA,30,2019-09-23,29.67357765,-82.32337460192167
Grand Rapids MI USA,10,2019-09-23,42.9142413,-85.533004
Green Bay WI USA,15,2019-09-23,44.5126379,-88.0125794
Greensboro NC USA,14,2019-09-23,36.0726355,-79.7919754
Greenville NC USA,49,2019-09-23,35.612661,-77.3663538
Greenville SC USA,9,2019-09-23,34.851354,-82.3984882
Harrisburg PA USA,5,2019-09-23,40.2663107,-76.8861122
Hartford CT USA,3,2019-09-23,43.648048,-70.241416
Hattiesburg MS USA,32,2019-09-23,31.3271189,-89.2903392
Honolulu HI USA,5,2019-09-23,21.304547,-157.8556764
Houston TX USA,6,2019-09-23,29.7589382,-95.3676974
Huntsville AL USA,7,2019-09-23,33.554113,-86.804219
Idaho Falls ID USA,18,2019-09-23,43.4935245,-112.0400919
Indianapolis IN USA,6,2019-09-23,39.7683331,-86.1583502
Jackson MS USA,12,2019-09-23,28.530801699999998,-81.30324431076107
Jacksonville FL USA,24,2019-09-23,30.3321838,-81.655651
Johnstown PA USA,13,2019-09-23,40.3267407,-78.9219698
Joplin MO USA,22,2019-09-23,37.08418,-94.51323
Kansas City MO USA,6,2019-09-23,39.100105,-94.5781416
Knoxville TN USA,15,2019-09-23,35.9603948,-83.9210261
La Crosse WI USA,13,2019-09-23,43.8014053,-91.2395429
Lansing MI USA,19,2019-09-23,42.7338147,-84.5207088
Laredo TX USA,27,2019-09-23,27.5199841,-99.4953764
Las Vegas NV USA,4,2019-09-23,36.1672559,-115.1485163
Lexington KY USA,6,2019-09-23,38.0464066,-84.4970393
Lincoln NE USA,9,2019-09-23,40.8088861,-96.7077751
Little Rock AR USA,5,2019-09-23,34.7464809,-92.2895948
Los Angeles CA USA,4,2019-09-23,34.0536909,-118.2427666
Louisville KY USA,3,2019-09-23,38.2542376,-85.759407
Macon GA USA,12,2019-09-23,32.8406946,-83.6324022
Madison WI USA,15,2019-09-23,43.074761,-89.3837613
Marquette MI USA,34,2019-09-23,46.4481521,-87.6305899
Medford OR USA,16,2019-09-23,42.3264181,-122.8718605
Memphis TN USA,4,2019-09-23,35.1490215,-90.0516285
Miami FL USA,22,2019-09-23,25.7742658,-80.1936589
Milwaukee WI USA,7,2019-09-23,43.0349931,-87.922497
Minneapolis MN USA,8,2019-09-23,44.9772995,-93.2654692
Minot ND USA,18,2019-09-23,48.23251,-101.296273
Missoula MT USA,34,2019-09-23,46.8701049,-113.9952672
Mobile AL USA,11,2019-09-23,39.092585,-84.853229
Monroe LA USA,23,2019-09-23,38.2722313,-90.1792484
Montgomery AL USA,13,2019-09-23,40.85239,-78.266098
Nashville TN USA,6,2019-09-23,36.1622296,-86.7743531
New Orleans LA USA,9,2019-09-23,29.9499323,-90.0701156
New York NY USA,6,2019-09-23,40.7127281,-74.0060152
Norfolk VA USA,21,2019-09-23,36.8889933,-76.2481624
Oklahoma City OK USA,3,2019-09-23,35.4729886,-97.5170536
Orlando FL USA,23,2019-09-23,28.5479786,-81.41278418563017
Paducah KY USA,9,2019-09-23,37.0833893,-88.6000478
Palm Springs CA USA,18,2019-09-23,33.8246269,-116.540303
Panama City FL USA,58,2019-09-23,30.1600827,-85.6545729
Peoria IL USA,10,2019-09-23,40.6938609,-89.5891008
Philadelphia PA USA,7,2019-09-23,39.9527237,-75.1635262
Phoenix AZ USA,6,2019-09-23,33.4484367,-112.0741417
Pittsburgh PA USA,4,2019-09-23,40.4416941,-79.9900861
Portland OR USA,5,2019-09-23,45.5202471,-122.6741949
Providence RI USA,14,2019-09-23,41.8239891,-71.4128343
Quincy IL USA,33,2019-09-23,42.2528772,-71.0022705
Raleigh NC USA,18,2019-09-23,35.7803977,-78.6390989
Rapid City SD USA,29,2019-09-23,44.081176,-103.228006
Reno NV USA,9,2019-09-23,39.5261206,-119.8126581
Richmond VA USA,11,2019-09-23,37.5385087,-77.43428
Roanoke VA USA,5,2019-09-23,37.270973,-79.9414313
Rochester MN USA,18,2019-09-23,44.0234387,-92.4630182
Rochester NY USA,6,2019-09-23,43.157285,-77.615214
Rockford IL USA,16,2019-09-23,42.2713945,-89.093966
Sacramento CA USA,5,2019-09-23,38.5815719,-121.4943996
Salisbury MD USA,16,2019-09-23,38.3662114,-75.6008881
Salt Lake City UT USA,7,2019-09-23,40.7596198,-111.8867975
San Angelo TX USA,41,2019-09-23,31.4648357,-100.4398442
San Antonio TX USA,16,2019-09-23,29.4246002,-98.4951405
San Diego CA USA,3,2019-09-23,32.7174209,-117.1627714
San Francisco CA USA,5,2019-09-23,37.7790262,-122.4199061
Santa Barbara CA USA,8,2019-09-23,34.4221319,-119.7026673
Savannah GA USA,21,2019-09-23,32.0809263,-81.0911768
Seattle WA USA,3,2019-09-23,47.6038321,-122.3300624
Sherman TX USA,27,2019-09-23,36.2452294,-101.8858689
Shreveport LA USA,9,2019-09-23,32.5221828,-93.7651944
Sioux City IA USA,20,2019-09-23,42.4966815,-96.4058782
Spokane WA USA,6,2019-09-23,47.6579425,-117.4212265
Springfield MO USA,18,2019-09-23,37.2166779,-93.2920373
Springfield MA USA,8,2019-09-23,42.1014831,-72.589811
St. Louis MO USA,7,2019-09-23,38.6268039,-90.1994097
Syracuse NY USA,8,2019-09-23,43.0481221,-76.1474244
Tallahassee FL USA,21,2019-09-23,30.4380832,-84.2809332
Tampa FL USA,18,2019-09-23,27.9518491,-82.4563972
Terre Haute IN USA,49,2019-09-23,39.4667025,-87.4139119
Toledo OH USA,8,2019-09-23,41.6786754,-83.5127283
Topeka KS USA,15,2019-09-23,39.049011,-95.677556
Traverse City MI USA,13,2019-09-23,44.7606441,-85.6165301
Tri VA USA,10,2019-09-23,38.5467876,-77.3366491
Tucson AZ USA,13,2019-09-23,32.2228765,-110.9748477
Tulsa OK USA,7,2019-09-23,36.1556805,-95.9929113
Twin Falls ID USA,44,2019-09-23,42.5704219,-114.4603171
Tyler TX USA,23,2019-09-23,32.3512601,-95.3010624
Utica NY USA,28,2019-09-23,43.1009031,-75.2326641
Victoria TX USA,90,2019-09-23,28.8026443,-96.9766308
Waco TX USA,6,2019-09-23,31.549333,-97.1466695
Washington DC USA,8,2019-09-23,38.8948932,-77.0365529
Watertown NY USA,30,2019-09-23,43.9747838,-75.9107565
Wausau WI USA,24,2019-09-23,44.9596017,-89.6298239
West Palm Beach FL USA,42,2019-09-23,26.7153425,-80.0533746
Wheeling WV USA,27,2019-09-23,40.0639616,-80.7209149
Wichita KS USA,9,2019-09-23,37.6922361,-97.3375448
Wilkes Barre PA USA,7,2019-09-23,41.2464824,-75.8817316
Wilmington NC USA,47,2019-09-23,34.2257282,-77.9447107
Yakima WA USA,11,2019-09-23,46.601557,-120.5108421
Youngstown OH USA,24,2019-09-23,41.1035786,-80.6520161
Yuma AZ USA,33,2019-09-23,32.6926588,-114.6276157
Zanesville OH USA,100,2019-09-23,39.9403453,-82.0131924
Albany GA USA,15,2019-09-30,40.0555158,-82.8457691
Albany NY USA,4,2019-09-30,42.6511674,-73.754968
Albuquerque NM USA,4,2019-09-30,35.0841034,-106.6509851
Atlanta GA USA,4,2019-09-30,33.7490987,-84.3901849
Augusta GA USA,7,2019-09-30,33.4709714,-81.9748429
Austin TX USA,3,2019-09-30,30.2711286,-97.7436995
Bakersfield CA USA,7,2019-09-30,35.3738712,-119.0194639
Baltimore MD USA,4,2019-09-30,39.284749399999995,-76.62047463969989
Bangor ME USA,27,2019-09-30,44.8011821,-68.7778138
Baton Rouge LA USA,5,2019-09-30,30.4459596,-91.18738
Beaumont TX USA,13,2019-09-30,30.0860459,-94.1018461
Bend OR USA,21,2019-09-30,44.0581728,-121.3153096
"Billings, MT USA",19,2019-09-30,45.7874957,-108.49607
Biloxi MS USA,13,2019-09-30,30.374673,-88.84594333482862
Birmingham AL USA,2,2019-09-30,33.570499,-86.765783
Boise ID USA,11,2019-09-30,43.6166163,-116.200886
Boston MA USA,3,2019-09-30,42.3602534,-71.0582912
Buffalo NY USA,5,2019-09-30,42.8867166,-78.8783922
Burlington VT USA,10,2019-09-30,44.4762975,-73.2135472
Butte MT USA,21,2019-09-30,46.0131505,-112.5365089
Cedar Rapids IA USA,10,2019-09-30,41.9758872,-91.6704053
Champaign IL USA,5,2019-09-30,40.1164205,-88.2433829
Charleston SC USA,17,2019-09-30,32.7876012,-79.9402728
Charleston WV USA,6,2019-09-30,38.3505995,-81.6332812
Charlotte NC USA,7,2019-09-30,35.2270869,-80.8431268
Chicago IL USA,3,2019-09-30,41.8755616,-87.6244212
Chico CA USA,10,2019-09-30,39.7284945,-121.8374777
Cincinnati OH USA,5,2019-09-30,39.1014537,-84.5124602
Cleveland OH USA,2,2019-09-30,41.5051613,-81.6934446
Colorado Springs CO USA,4,2019-09-30,38.8339578,-104.8253485
Columbia SC USA,11,2019-09-30,34.0007493,-81.0343313
Columbia MO USA,10,2019-09-30,38.951883,-92.3337366
Columbus GA USA,8,2019-09-30,32.4609764,-84.9877094
Columbus OH USA,3,2019-09-30,39.9622601,-83.0007065
Dallas TX USA,3,2019-09-30,32.7762719,-96.7968559
Davenport IA USA,7,2019-09-30,41.5236436,-90.5776368
Dayton OH USA,6,2019-09-30,39.7589478,-84.1916069
Denver CO USA,4,2019-09-30,39.7348381,-104.9653271
Des Moines IA USA,3,2019-09-30,41.5910641,-93.6037149
Detroit MI USA,4,2019-09-30,42.3315509,-83.0466403
Dothan AL USA,22,2019-09-30,31.2237434,-85.3933906
Duluth MN USA,12,2019-09-30,46.7729322,-92.1251218
El Paso TX USA,4,2019-09-30,31.7754152,-106.4646348
Erie PA USA,25,2019-09-30,42.1294712,-80.0852695
Eugene OR USA,7,2019-09-30,44.0505054,-123.0950506
Evansville IN USA,7,2019-09-30,37.9747645,-87.5558483
Fargo ND USA,11,2019-09-30,46.877229,-96.789821
Florence SC USA,21,2019-09-30,34.1984435,-79.7671658
Fresno CA USA,4,2019-09-30,36.7295295,-119.70886126075588
Ft. Myers FL USA,5,2019-09-30,26.640628,-81.8723084
Ft. Smith AR USA,5,2019-09-30,35.3872218,-94.4248983
Ft. Wayne IN USA,7,2019-09-30,41.0799898,-85.1386015
Gainesville FL USA,10,2019-09-30,29.67357765,-82.32337460192167
Grand Rapids MI USA,3,2019-09-30,42.9142413,-85.533004
Green Bay WI USA,8,2019-09-30,44.5126379,-88.0125794
Greensboro NC USA,3,2019-09-30,36.0726355,-79.7919754
Greenville NC USA,28,2019-09-30,35.612661,-77.3663538
Greenville SC USA,3,2019-09-30,34.851354,-82.3984882
Harrisburg PA USA,5,2019-09-30,40.2663107,-76.8861122
Hartford CT USA,3,2019-09-30,43.648048,-70.241416
Houston TX USA,3,2019-09-30,29.7589382,-95.3676974
Huntsville AL USA,10,2019-09-30,33.554113,-86.804219
Indianapolis IN USA,2,2019-09-30,39.7683331,-86.1583502
Jackson MS USA,6,2019-09-30,28.530801699999998,-81.30324431076107
Jacksonville FL USA,10,2019-09-30,30.3321838,-81.655651
Johnstown PA USA,6,2019-09-30,40.3267407,-78.9219698
Kansas City MO USA,2,2019-09-30,39.100105,-94.5781416
Knoxville TN USA,3,2019-09-30,35.9603948,-83.9210261
Las Vegas NV USA,2,2019-09-30,36.1672559,-115.1485163
Lexington KY USA,8,2019-09-30,38.0464066,-84.4970393
Los Angeles CA USA,2,2019-09-30,34.0536909,-118.2427666
Louisville KY USA,6,2019-09-30,38.2542376,-85.759407
Macon GA USA,8,2019-09-30,32.8406946,-83.6324022
Madison WI USA,4,2019-09-30,43.074761,-89.3837613
Marquette MI USA,23,2019-09-30,46.4481521,-87.6305899
Memphis TN USA,3,2019-09-30,35.1490215,-90.0516285
Miami FL USA,10,2019-09-30,25.7742658,-80.1936589
Milwaukee WI USA,5,2019-09-30,43.0349931,-87.922497
Minneapolis MN USA,3,2019-09-30,44.9772995,-93.2654692
Mobile AL USA,5,2019-09-30,39.092585,-84.853229
Nashville TN USA,5,2019-09-30,36.1622296,-86.7743531
New Orleans LA USA,6,2019-09-30,29.9499323,-90.0701156
New York NY USA,3,2019-09-30,40.7127281,-74.0060152
Norfolk VA USA,10,2019-09-30,36.8889933,-76.2481624
Oklahoma City OK USA,5,2019-09-30,35.4729886,-97.5170536
Omaha NE USA,3,2019-09-30,41.2587459,-95.9383758
Orlando FL USA,13,2019-09-30,28.5479786,-81.41278418563017
Panama City FL USA,27,2019-09-30,30.1600827,-85.6545729
Parkersburg WV USA,41,2019-09-30,39.2699565,-81.5506916
Philadelphia PA USA,2,2019-09-30,39.9527237,-75.1635262
Phoenix AZ USA,2,2019-09-30,33.4484367,-112.0741417
Pittsburgh PA USA,3,2019-09-30,40.4416941,-79.9900861
Portland OR USA,2,2019-09-30,45.5202471,-122.6741949
Portland ME USA,8,2019-09-30,43.6610277,-70.2548596
Presque Isle ME USA,100,2019-09-30,46.681479,-68.016357
Providence RI USA,5,2019-09-30,41.8239891,-71.4128343
Quincy IL USA,23,2019-09-30,42.2528772,-71.0022705
Raleigh NC USA,9,2019-09-30,35.7803977,-78.6390989
Reno NV USA,6,2019-09-30,39.5261206,-119.8126581
Richmond VA USA,6,2019-09-30,37.5385087,-77.43428
Roanoke VA USA,4,2019-09-30,37.270973,-79.9414313
Rochester NY USA,4,2019-09-30,43.157285,-77.615214
Rockford IL USA,11,2019-09-30,42.2713945,-89.093966
Sacramento CA USA,3,2019-09-30,38.5815719,-121.4943996
Salt Lake City UT USA,2,2019-09-30,40.7596198,-111.8867975
San Antonio TX USA,5,2019-09-30,29.4246002,-98.4951405
San Diego CA USA,3,2019-09-30,32.7174209,-117.1627714
San Francisco CA USA,2,2019-09-30,37.7790262,-122.4199061
Santa Barbara CA USA,6,2019-09-30,34.4221319,-119.7026673
Savannah GA USA,12,2019-09-30,32.0809263,-81.0911768
Seattle WA USA,1,2019-09-30,47.6038321,-122.3300624
Shreveport LA USA,16,2019-09-30,32.5221828,-93.7651944
Sioux Falls SD USA,7,2019-09-30,43.5499749,-96.700327
Spokane WA USA,4,2019-09-30,47.6579425,-117.4212265
Springfield MA USA,6,2019-09-30,42.1014831,-72.589811
St. Louis MO USA,3,2019-09-30,38.6268039,-90.1994097
Syracuse NY USA,6,2019-09-30,43.0481221,-76.1474244
Tallahassee FL USA,6,2019-09-30,30.4380832,-84.2809332
Tampa FL USA,6,2019-09-30,27.9518491,-82.4563972
Terre Haute IN USA,17,2019-09-30,39.4667025,-87.4139119
Toledo OH USA,4,2019-09-30,41.6786754,-83.5127283
Topeka KS USA,21,2019-09-30,39.049011,-95.677556
Tri VA USA,7,2019-09-30,38.5467876,-77.3366491
Tucson AZ USA,5,2019-09-30,32.2228765,-110.9748477
Tulsa OK USA,3,2019-09-30,36.1556805,-95.9929113
Tyler TX USA,8,2019-09-30,32.3512601,-95.3010624
Utica NY USA,19,2019-09-30,43.1009031,-75.2326641
Waco TX USA,4,2019-09-30,31.549333,-97.1466695
Washington DC USA,3,2019-09-30,38.8948932,-77.0365529
West Palm Beach FL USA,14,2019-09-30,26.7153425,-80.0533746
Wheeling WV USA,19,2019-09-30,40.0639616,-80.7209149
Wichita KS USA,4,2019-09-30,37.6922361,-97.3375448
Wilkes Barre PA USA,10,2019-09-30,41.2464824,-75.8817316
Wilmington NC USA,26,2019-09-30,34.2257282,-77.9447107
Youngstown OH USA,8,2019-09-30,41.1035786,-80.6520161
Albany GA USA,23,2019-10-07,40.0555158,-82.8457691
Albuquerque NM USA,4,2019-10-07,35.0841034,-106.6509851
Atlanta GA USA,4,2019-10-07,33.7490987,-84.3901849
Augusta GA USA,11,2019-10-07,33.4709714,-81.9748429
Austin TX USA,3,2019-10-07,30.2711286,-97.7436995
Baltimore MD USA,2,2019-10-07,39.284749399999995,-76.62047463969989
Bangor ME USA,20,2019-10-07,44.8011821,-68.7778138
Baton Rouge LA USA,12,2019-10-07,30.4459596,-91.18738
Beaumont TX USA,19,2019-10-07,30.0860459,-94.1018461
Birmingham AL USA,5,2019-10-07,33.570499,-86.765783
Boston MA USA,4,2019-10-07,42.3602534,-71.0582912
Buffalo NY USA,6,2019-10-07,42.8867166,-78.8783922
Casper WY USA,57,2019-10-07,39.4632037,-75.7079641
Champaign IL USA,8,2019-10-07,40.1164205,-88.2433829
Charleston SC USA,18,2019-10-07,32.7876012,-79.9402728
Charlotte NC USA,6,2019-10-07,35.2270869,-80.8431268
Chattanooga TN USA,8,2019-10-07,35.0457219,-85.3094883
Chicago IL USA,3,2019-10-07,41.8755616,-87.6244212
Chico CA USA,15,2019-10-07,39.7284945,-121.8374777
Cincinnati OH USA,11,2019-10-07,39.1014537,-84.5124602
Cleveland OH USA,2,2019-10-07,41.5051613,-81.6934446
Columbia SC USA,8,2019-10-07,34.0007493,-81.0343313
Columbia MO USA,15,2019-10-07,38.951883,-92.3337366
Columbus OH USA,6,2019-10-07,39.9622601,-83.0007065
Dallas TX USA,3,2019-10-07,32.7762719,-96.7968559
Davenport IA USA,10,2019-10-07,41.5236436,-90.5776368
Dayton OH USA,13,2019-10-07,39.7589478,-84.1916069
Denver CO USA,6,2019-10-07,39.7348381,-104.9653271
Des Moines IA USA,10,2019-10-07,41.5910641,-93.6037149
Detroit MI USA,1,2019-10-07,42.3315509,-83.0466403
Dothan AL USA,33,2019-10-07,31.2237434,-85.3933906
Duluth MN USA,19,2019-10-07,46.7729322,-92.1251218
Evansville IN USA,12,2019-10-07,37.9747645,-87.5558483
Fargo ND USA,11,2019-10-07,46.877229,-96.789821
Flint MI USA,7,2019-10-07,43.0161693,-83.6900211
Florence SC USA,17,2019-10-07,34.1984435,-79.7671658
Ft. Myers FL USA,27,2019-10-07,26.640628,-81.8723084
Gainesville FL USA,15,2019-10-07,29.67357765,-82.32337460192167
Grand Rapids MI USA,6,2019-10-07,42.9142413,-85.533004
Green Bay WI USA,6,2019-10-07,44.5126379,-88.0125794
Greensboro NC USA,5,2019-10-07,36.0726355,-79.7919754
Greenville NC USA,57,2019-10-07,35.612661,-77.3663538
Greenville SC USA,8,2019-10-07,34.851354,-82.3984882
Harrisburg PA USA,7,2019-10-07,40.2663107,-76.8861122
Hartford CT USA,6,2019-10-07,43.648048,-70.241416
Helena MT USA,100,2019-10-07,46.5927425,-112.0362771
Honolulu HI USA,5,2019-10-07,21.304547,-157.8556764
Houston TX USA,3,2019-10-07,29.7589382,-95.3676974
Idaho Falls ID USA,19,2019-10-07,43.4935245,-112.0400919
Indianapolis IN USA,3,2019-10-07,39.7683331,-86.1583502
Jackson MS USA,8,2019-10-07,28.530801699999998,-81.30324431076107
Jacksonville FL USA,18,2019-10-07,30.3321838,-81.655651
Jonesboro AR USA,40,2019-10-07,35.8428646,-90.7034522
Kansas City MO USA,5,2019-10-07,39.100105,-94.5781416
Knoxville TN USA,5,2019-10-07,35.9603948,-83.9210261
La Crosse WI USA,13,2019-10-07,43.8014053,-91.2395429
Laredo TX USA,28,2019-10-07,27.5199841,-99.4953764
Las Vegas NV USA,3,2019-10-07,36.1672559,-115.1485163
Lexington KY USA,9,2019-10-07,38.0464066,-84.4970393
Lincoln NE USA,14,2019-10-07,40.8088861,-96.7077751
Little Rock AR USA,5,2019-10-07,34.7464809,-92.2895948
Los Angeles CA USA,2,2019-10-07,34.0536909,-118.2427666
Louisville KY USA,3,2019-10-07,38.2542376,-85.759407
Lubbock TX USA,16,2019-10-07,33.5635206,-101.879336
Madison WI USA,8,2019-10-07,43.074761,-89.3837613
Miami FL USA,12,2019-10-07,25.7742658,-80.1936589
Milwaukee WI USA,4,2019-10-07,43.0349931,-87.922497
Minneapolis MN USA,4,2019-10-07,44.9772995,-93.2654692
Mobile AL USA,9,2019-10-07,39.092585,-84.853229
Monterey CA USA,9,2019-10-07,36.2231079,-121.3877428
Montgomery AL USA,14,2019-10-07,40.85239,-78.266098
Nashville TN USA,5,2019-10-07,36.1622296,-86.7743531
New York NY USA,3,2019-10-07,40.7127281,-74.0060152
Norfolk VA USA,6,2019-10-07,36.8889933,-76.2481624
Oklahoma City OK USA,7,2019-10-07,35.4729886,-97.5170536
Orlando FL USA,16,2019-10-07,28.5479786,-81.41278418563017
Panama City FL USA,19,2019-10-07,30.1600827,-85.6545729
Philadelphia PA USA,3,2019-10-07,39.9527237,-75.1635262
Phoenix AZ USA,3,2019-10-07,33.4484367,-112.0741417
Pittsburgh PA USA,3,2019-10-07,40.4416941,-79.9900861
Portland OR USA,3,2019-10-07,45.5202471,-122.6741949
Portland ME USA,6,2019-10-07,43.6610277,-70.2548596
Providence RI USA,4,2019-10-07,41.8239891,-71.4128343
Raleigh NC USA,6,2019-10-07,35.7803977,-78.6390989
Rapid City SD USA,32,2019-10-07,44.081176,-103.228006
Richmond VA USA,8,2019-10-07,37.5385087,-77.43428
Roanoke VA USA,11,2019-10-07,37.270973,-79.9414313
Rochester MN USA,18,2019-10-07,44.0234387,-92.4630182
Rochester NY USA,6,2019-10-07,43.157285,-77.615214
Sacramento CA USA,3,2019-10-07,38.5815719,-121.4943996
Salt Lake City UT USA,5,2019-10-07,40.7596198,-111.8867975
San Antonio TX USA,3,2019-10-07,29.4246002,-98.4951405
San Diego CA USA,5,2019-10-07,32.7174209,-117.1627714
San Francisco CA USA,2,2019-10-07,37.7790262,-122.4199061
Santa Barbara CA USA,9,2019-10-07,34.4221319,-119.7026673
Savannah GA USA,21,2019-10-07,32.0809263,-81.0911768
Seattle WA USA,3,2019-10-07,47.6038321,-122.3300624
Sioux City IA USA,20,2019-10-07,42.4966815,-96.4058782
South Bend IN USA,16,2019-10-07,41.6833813,-86.2500066
Spokane WA USA,16,2019-10-07,47.6579425,-117.4212265
Springfield MO USA,7,2019-10-07,37.2166779,-93.2920373
Springfield MA USA,9,2019-10-07,42.1014831,-72.589811
St. Joseph MO USA,75,2019-10-07,39.7686055,-94.8466322
St. Louis MO USA,5,2019-10-07,38.6268039,-90.1994097
Tallahassee FL USA,19,2019-10-07,30.4380832,-84.2809332
Tampa FL USA,11,2019-10-07,27.9518491,-82.4563972
Toledo OH USA,13,2019-10-07,41.6786754,-83.5127283
Tulsa OK USA,5,2019-10-07,36.1556805,-95.9929113
Tyler TX USA,12,2019-10-07,32.3512601,-95.3010624
Washington DC USA,4,2019-10-07,38.8948932,-77.0365529
Wausau WI USA,17,2019-10-07,44.9596017,-89.6298239
West Palm Beach FL USA,20,2019-10-07,26.7153425,-80.0533746
Wichita Falls TX USA,20,2019-10-07,33.9137085,-98.4933873
Wichita KS USA,7,2019-10-07,37.6922361,-97.3375448
Wilkes Barre PA USA,11,2019-10-07,41.2464824,-75.8817316
Wilmington NC USA,22,2019-10-07,34.2257282,-77.9447107
Youngstown OH USA,12,2019-10-07,41.1035786,-80.6520161
Albany GA USA,32,2019-10-14,40.0555158,-82.8457691
Albuquerque NM USA,5,2019-10-14,35.0841034,-106.6509851
Atlanta GA USA,4,2019-10-14,33.7490987,-84.3901849
Augusta GA USA,15,2019-10-14,33.4709714,-81.9748429
Austin TX USA,6,2019-10-14,30.2711286,-97.7436995
Baltimore MD USA,3,2019-10-14,39.284749399999995,-76.62047463969989
Bangor ME USA,29,2019-10-14,44.8011821,-68.7778138
Baton Rouge LA USA,12,2019-10-14,30.4459596,-91.18738
Biloxi MS USA,59,2019-10-14,30.374673,-88.84594333482862
Birmingham AL USA,5,2019-10-14,33.570499,-86.765783
Boston MA USA,6,2019-10-14,42.3602534,-71.0582912
Cedar Rapids IA USA,11,2019-10-14,41.9758872,-91.6704053
Charleston SC USA,25,2019-10-14,32.7876012,-79.9402728
Charlotte NC USA,7,2019-10-14,35.2270869,-80.8431268
Charlottesville VA USA,31,2019-10-14,38.029306,-78.4766781
Chattanooga TN USA,10,2019-10-14,35.0457219,-85.3094883
Chicago IL USA,3,2019-10-14,41.8755616,-87.6244212
Cincinnati OH USA,3,2019-10-14,39.1014537,-84.5124602
Cleveland OH USA,2,2019-10-14,41.5051613,-81.6934446
Colorado Springs CO USA,14,2019-10-14,38.8339578,-104.8253485
Columbia SC USA,26,2019-10-14,34.0007493,-81.0343313
Columbus GA USA,17,2019-10-14,32.4609764,-84.9877094
Columbus OH USA,8,2019-10-14,39.9622601,-83.0007065
Columbus MS USA,31,2019-10-14,43.336875649999996,-89.0196532340367
Dallas TX USA,2,2019-10-14,32.7762719,-96.7968559
Denver CO USA,3,2019-10-14,39.7348381,-104.9653271
Des Moines IA USA,7,2019-10-14,41.5910641,-93.6037149
Detroit MI USA,2,2019-10-14,42.3315509,-83.0466403
Erie PA USA,27,2019-10-14,42.1294712,-80.0852695
Eugene OR USA,15,2019-10-14,44.0505054,-123.0950506
Evansville IN USA,16,2019-10-14,37.9747645,-87.5558483
Flint MI USA,10,2019-10-14,43.0161693,-83.6900211
Florence SC USA,20,2019-10-14,34.1984435,-79.7671658
Fresno CA USA,6,2019-10-14,36.7295295,-119.70886126075588
Ft. Myers FL USA,22,2019-10-14,26.640628,-81.8723084
Ft. Wayne IN USA,15,2019-10-14,41.0799898,-85.1386015
Gainesville FL USA,21,2019-10-14,29.67357765,-82.32337460192167
Grand Rapids MI USA,4,2019-10-14,42.9142413,-85.533004
Greensboro NC USA,11,2019-10-14,36.0726355,-79.7919754
Greenville SC USA,7,2019-10-14,34.851354,-82.3984882
Harlingen TX USA,8,2019-10-14,26.1908241,-97.6959794
Harrisburg PA USA,5,2019-10-14,40.2663107,-76.8861122
Hartford CT USA,3,2019-10-14,43.648048,-70.241416
Houston TX USA,1,2019-10-14,29.7589382,-95.3676974
Huntsville AL USA,10,2019-10-14,33.554113,-86.804219
Indianapolis IN USA,4,2019-10-14,39.7683331,-86.1583502
Jacksonville FL USA,19,2019-10-14,30.3321838,-81.655651
Kansas City MO USA,7,2019-10-14,39.100105,-94.5781416
Knoxville TN USA,7,2019-10-14,35.9603948,-83.9210261
Lafayette LA USA,19,2019-10-14,30.2240897,-92.0198427
Las Vegas NV USA,3,2019-10-14,36.1672559,-115.1485163
Little Rock AR USA,7,2019-10-14,34.7464809,-92.2895948
Los Angeles CA USA,2,2019-10-14,34.0536909,-118.2427666
Louisville KY USA,8,2019-10-14,38.2542376,-85.759407
Macon GA USA,27,2019-10-14,32.8406946,-83.6324022
Madison WI USA,8,2019-10-14,43.074761,-89.3837613
Mankato MN USA,70,2019-10-14,44.1634663,-93.9993505
Marquette MI USA,50,2019-10-14,46.4481521,-87.6305899
Memphis TN USA,9,2019-10-14,35.1490215,-90.0516285
Miami FL USA,21,2019-10-14,25.7742658,-80.1936589
Milwaukee WI USA,3,2019-10-14,43.0349931,-87.922497
Minneapolis MN USA,2,2019-10-14,44.9772995,-93.2654692
Minot ND USA,26,2019-10-14,48.23251,-101.296273
Mobile AL USA,6,2019-10-14,39.092585,-84.853229
Monterey CA USA,20,2019-10-14,36.2231079,-121.3877428
Montgomery AL USA,19,2019-10-14,40.85239,-78.266098
Nashville TN USA,7,2019-10-14,36.1622296,-86.7743531
New Orleans LA USA,5,2019-10-14,29.9499323,-90.0701156
New York NY USA,4,2019-10-14,40.7127281,-74.0060152
Norfolk VA USA,8,2019-10-14,36.8889933,-76.2481624
Odessa TX USA,21,2019-10-14,31.8457149,-102.367687
Omaha NE USA,10,2019-10-14,41.2587459,-95.9383758
Orlando FL USA,18,2019-10-14,28.5479786,-81.41278418563017
Ottumwa IA USA,100,2019-10-14,41.0200145,-92.4112963
Paducah KY USA,14,2019-10-14,37.0833893,-88.6000478
Panama City FL USA,45,2019-10-14,30.1600827,-85.6545729
Philadelphia PA USA,4,2019-10-14,39.9527237,-75.1635262
Phoenix AZ USA,4,2019-10-14,33.4484367,-112.0741417
Pittsburgh PA USA,8,2019-10-14,40.4416941,-79.9900861
Portland OR USA,4,2019-10-14,45.5202471,-122.6741949
Portland ME USA,9,2019-10-14,43.6610277,-70.2548596
Providence RI USA,5,2019-10-14,41.8239891,-71.4128343
Raleigh NC USA,10,2019-10-14,35.7803977,-78.6390989
Reno NV USA,13,2019-10-14,39.5261206,-119.8126581
Richmond VA USA,6,2019-10-14,37.5385087,-77.43428
Rochester NY USA,8,2019-10-14,43.157285,-77.615214
Sacramento CA USA,3,2019-10-14,38.5815719,-121.4943996
Salisbury MD USA,24,2019-10-14,38.3662114,-75.6008881
Salt Lake City UT USA,3,2019-10-14,40.7596198,-111.8867975
San Antonio TX USA,6,2019-10-14,29.4246002,-98.4951405
San Diego CA USA,3,2019-10-14,32.7174209,-117.1627714
San Francisco CA USA,1,2019-10-14,37.7790262,-122.4199061
Santa Barbara CA USA,12,2019-10-14,34.4221319,-119.7026673
Savannah GA USA,26,2019-10-14,32.0809263,-81.0911768
Seattle WA USA,2,2019-10-14,47.6038321,-122.3300624
Sherman TX USA,39,2019-10-14,36.2452294,-101.8858689
Shreveport LA USA,13,2019-10-14,32.5221828,-93.7651944
Sioux Falls SD USA,15,2019-10-14,43.5499749,-96.700327
South Bend IN USA,12,2019-10-14,41.6833813,-86.2500066
Spokane WA USA,8,2019-10-14,47.6579425,-117.4212265
Springfield MO USA,10,2019-10-14,37.2166779,-93.2920373
Springfield MA USA,12,2019-10-14,42.1014831,-72.589811
St. Louis MO USA,4,2019-10-14,38.6268039,-90.1994097
Syracuse NY USA,18,2019-10-14,43.0481221,-76.1474244
Tallahassee FL USA,26,2019-10-14,30.4380832,-84.2809332
Tampa FL USA,11,2019-10-14,27.9518491,-82.4563972
Topeka KS USA,45,2019-10-14,39.049011,-95.677556
Traverse City MI USA,19,2019-10-14,44.7606441,-85.6165301
Tri VA USA,15,2019-10-14,38.5467876,-77.3366491
Tucson AZ USA,8,2019-10-14,32.2228765,-110.9748477
Washington DC USA,7,2019-10-14,38.8948932,-77.0365529
Wausau WI USA,23,2019-10-14,44.9596017,-89.6298239
West Palm Beach FL USA,27,2019-10-14,26.7153425,-80.0533746
Wichita KS USA,19,2019-10-14,37.6922361,-97.3375448
Wilkes Barre PA USA,7,2019-10-14,41.2464824,-75.8817316
Wilmington NC USA,42,2019-10-14,34.2257282,-77.9447107
Yakima WA USA,15,2019-10-14,46.601557,-120.5108421
Abilene TX USA,64,2019-10-21,32.44645,-99.7475905
Albany GA USA,53,2019-10-21,40.0555158,-82.8457691
Albany NY USA,9,2019-10-21,42.6511674,-73.754968
Albuquerque NM USA,8,2019-10-21,35.0841034,-106.6509851
Alexandria LA USA,100,2019-10-21,38.8147596,-77.09024765272724
Atlanta GA USA,7,2019-10-21,33.7490987,-84.3901849
Augusta GA USA,25,2019-10-21,33.4709714,-81.9748429
Austin TX USA,5,2019-10-21,30.2711286,-97.7436995
Baltimore MD USA,5,2019-10-21,39.284749399999995,-76.62047463969989
Baton Rouge LA USA,18,2019-10-21,30.4459596,-91.18738
Birmingham AL USA,8,2019-10-21,33.570499,-86.765783
Boise ID USA,18,2019-10-21,43.6166163,-116.200886
Boston MA USA,5,2019-10-21,42.3602534,-71.0582912
Buffalo NY USA,13,2019-10-21,42.8867166,-78.8783922
Charleston SC USA,37,2019-10-21,32.7876012,-79.9402728
Charlotte NC USA,15,2019-10-21,35.2270869,-80.8431268
Charlottesville VA USA,51,2019-10-21,38.029306,-78.4766781
Chicago IL USA,6,2019-10-21,41.8755616,-87.6244212
Cleveland OH USA,7,2019-10-21,41.5051613,-81.6934446
Columbia SC USA,14,2019-10-21,34.0007493,-81.0343313
Columbus GA USA,28,2019-10-21,32.4609764,-84.9877094
Columbus OH USA,5,2019-10-21,39.9622601,-83.0007065
Columbus MS USA,19,2019-10-21,43.336875649999996,-89.0196532340367
Corpus Christi TX USA,30,2019-10-21,27.7477253,-97.4014129
Dallas TX USA,4,2019-10-21,32.7762719,-96.7968559
Denver CO USA,6,2019-10-21,39.7348381,-104.9653271
Detroit MI USA,15,2019-10-21,42.3315509,-83.0466403
El Paso TX USA,15,2019-10-21,31.7754152,-106.4646348
Erie PA USA,86,2019-10-21,42.1294712,-80.0852695
Flint MI USA,15,2019-10-21,43.0161693,-83.6900211
Florence SC USA,41,2019-10-21,34.1984435,-79.7671658
Ft. Myers FL USA,24,2019-10-21,26.640628,-81.8723084
Ft. Smith AR USA,19,2019-10-21,35.3872218,-94.4248983
Gainesville FL USA,35,2019-10-21,29.67357765,-82.32337460192167
Grand Rapids MI USA,7,2019-10-21,42.9142413,-85.533004
Green Bay WI USA,14,2019-10-21,44.5126379,-88.0125794
Greensboro NC USA,17,2019-10-21,36.0726355,-79.7919754
Greenville NC USA,32,2019-10-21,35.612661,-77.3663538
Greenville SC USA,13,2019-10-21,34.851354,-82.3984882
Harrisburg PA USA,16,2019-10-21,40.2663107,-76.8861122
Harrisonburg VA USA,61,2019-10-21,38.4493315,-78.8688833
Houston TX USA,4,2019-10-21,29.7589382,-95.3676974
Huntsville AL USA,16,2019-10-21,33.554113,-86.804219
Indianapolis IN USA,11,2019-10-21,39.7683331,-86.1583502
Jacksonville FL USA,33,2019-10-21,30.3321838,-81.655651
Johnstown PA USA,20,2019-10-21,40.3267407,-78.9219698
Kansas City MO USA,7,2019-10-21,39.100105,-94.5781416
Knoxville TN USA,11,2019-10-21,35.9603948,-83.9210261
La Crosse WI USA,30,2019-10-21,43.8014053,-91.2395429
Lansing MI USA,22,2019-10-21,42.7338147,-84.5207088
Las Vegas NV USA,6,2019-10-21,36.1672559,-115.1485163
Lexington KY USA,20,2019-10-21,38.0464066,-84.4970393
Little Rock AR USA,12,2019-10-21,34.7464809,-92.2895948
Los Angeles CA USA,3,2019-10-21,34.0536909,-118.2427666
Louisville KY USA,6,2019-10-21,38.2542376,-85.759407
Macon GA USA,43,2019-10-21,32.8406946,-83.6324022
Madison WI USA,13,2019-10-21,43.074761,-89.3837613
Marquette MI USA,81,2019-10-21,46.4481521,-87.6305899
Medford OR USA,39,2019-10-21,42.3264181,-122.8718605
Memphis TN USA,9,2019-10-21,35.1490215,-90.0516285
Miami FL USA,21,2019-10-21,25.7742658,-80.1936589
Milwaukee WI USA,5,2019-10-21,43.0349931,-87.922497
Minneapolis MN USA,7,2019-10-21,44.9772995,-93.2654692
Mobile AL USA,11,2019-10-21,39.092585,-84.853229
Nashville TN USA,8,2019-10-21,36.1622296,-86.7743531
New Orleans LA USA,8,2019-10-21,29.9499323,-90.0701156
New York NY USA,4,2019-10-21,40.7127281,-74.0060152
Norfolk VA USA,13,2019-10-21,36.8889933,-76.2481624
Omaha NE USA,14,2019-10-21,41.2587459,-95.9383758
Orlando FL USA,22,2019-10-21,28.5479786,-81.41278418563017
Paducah KY USA,44,2019-10-21,37.0833893,-88.6000478
Panama City FL USA,47,2019-10-21,30.1600827,-85.6545729
Peoria IL USA,23,2019-10-21,40.6938609,-89.5891008
Philadelphia PA USA,1,2019-10-21,39.9527237,-75.1635262
Phoenix AZ USA,2,2019-10-21,33.4484367,-112.0741417
Pittsburgh PA USA,5,2019-10-21,40.4416941,-79.9900861
Portland OR USA,4,2019-10-21,45.5202471,-122.6741949
Portland ME USA,29,2019-10-21,43.6610277,-70.2548596
Providence RI USA,8,2019-10-21,41.8239891,-71.4128343
Raleigh NC USA,13,2019-10-21,35.7803977,-78.6390989
Richmond VA USA,28,2019-10-21,37.5385087,-77.43428
Rochester NY USA,13,2019-10-21,43.157285,-77.615214
Salt Lake City UT USA,4,2019-10-21,40.7596198,-111.8867975
San Diego CA USA,10,2019-10-21,32.7174209,-117.1627714
San Francisco CA USA,3,2019-10-21,37.7790262,-122.4199061
Savannah GA USA,22,2019-10-21,32.0809263,-81.0911768
Seattle WA USA,8,2019-10-21,47.6038321,-122.3300624
Sioux Falls SD USA,24,2019-10-21,43.5499749,-96.700327
South Bend IN USA,40,2019-10-21,41.6833813,-86.2500066
St. Louis MO USA,7,2019-10-21,38.6268039,-90.1994097
Tallahassee FL USA,21,2019-10-21,30.4380832,-84.2809332
Tampa FL USA,18,2019-10-21,27.9518491,-82.4563972
Terre Haute IN USA,58,2019-10-21,39.4667025,-87.4139119
Tulsa OK USA,11,2019-10-21,36.1556805,-95.9929113
Washington DC USA,5,2019-10-21,38.8948932,-77.0365529
Watertown NY USA,74,2019-10-21,43.9747838,-75.9107565
Wausau WI USA,77,2019-10-21,44.9596017,-89.6298239
West Palm Beach FL USA,29,2019-10-21,26.7153425,-80.0533746
Wheeling WV USA,64,2019-10-21,40.0639616,-80.7209149
Wichita Falls TX USA,45,2019-10-21,33.9137085,-98.4933873
Wichita KS USA,15,2019-10-21,37.6922361,-97.3375448
Wilmington NC USA,60,2019-10-21,34.2257282,-77.9447107
Albuquerque NM USA,6,2019-10-28,35.0841034,-106.6509851
Amarillo TX USA,24,2019-10-28,35.2072185,-101.8338246
Atlanta GA USA,4,2019-10-28,33.7490987,-84.3901849
Bakersfield CA USA,17,2019-10-28,35.3738712,-119.0194639
Baltimore MD USA,3,2019-10-28,39.284749399999995,-76.62047463969989
Beaumont TX USA,29,2019-10-28,30.0860459,-94.1018461
Binghamton NY USA,33,2019-10-28,42.096968,-75.914341
Boston MA USA,1,2019-10-28,42.3602534,-71.0582912
Buffalo NY USA,6,2019-10-28,42.8867166,-78.8783922
Charleston SC USA,22,2019-10-28,32.7876012,-79.9402728
Charlotte NC USA,3,2019-10-28,35.2270869,-80.8431268
Chattanooga TN USA,9,2019-10-28,35.0457219,-85.3094883
Chicago IL USA,3,2019-10-28,41.8755616,-87.6244212
Cincinnati OH USA,4,2019-10-28,39.1014537,-84.5124602
Cleveland OH USA,2,2019-10-28,41.5051613,-81.6934446
Colorado Springs CO USA,10,2019-10-28,38.8339578,-104.8253485
Columbia SC USA,19,2019-10-28,34.0007493,-81.0343313
Columbia MO USA,24,2019-10-28,38.951883,-92.3337366
Columbus OH USA,4,2019-10-28,39.9622601,-83.0007065
Columbus MS USA,7,2019-10-28,43.336875649999996,-89.0196532340367
Corpus Christi TX USA,21,2019-10-28,27.7477253,-97.4014129
Dallas TX USA,3,2019-10-28,32.7762719,-96.7968559
Denver CO USA,4,2019-10-28,39.7348381,-104.9653271
Des Moines IA USA,8,2019-10-28,41.5910641,-93.6037149
Detroit MI USA,2,2019-10-28,42.3315509,-83.0466403
Elmira NY USA,53,2019-10-28,42.0897965,-76.8077338
Evansville IN USA,18,2019-10-28,37.9747645,-87.5558483
Fairbanks AK USA,100,2019-10-28,64.837845,-147.716675
Florence SC USA,19,2019-10-28,34.1984435,-79.7671658
Ft. Myers FL USA,13,2019-10-28,26.640628,-81.8723084
Gainesville FL USA,24,2019-10-28,29.67357765,-82.32337460192167
Grand Junction CO USA,57,2019-10-28,39.063956,-108.5507317
Green Bay WI USA,10,2019-10-28,44.5126379,-88.0125794
Greenville NC USA,21,2019-10-28,35.612661,-77.3663538
Greenville SC USA,9,2019-10-28,34.851354,-82.3984882
Harrisburg PA USA,5,2019-10-28,40.2663107,-76.8861122
Hartford CT USA,5,2019-10-28,43.648048,-70.241416
Honolulu HI USA,15,2019-10-28,21.304547,-157.8556764
Houston TX USA,5,2019-10-28,29.7589382,-95.3676974
Huntsville AL USA,23,2019-10-28,33.554113,-86.804219
Idaho Falls ID USA,30,2019-10-28,43.4935245,-112.0400919
Indianapolis IN USA,7,2019-10-28,39.7683331,-86.1583502
Jacksonville FL USA,10,2019-10-28,30.3321838,-81.655651
Kansas City MO USA,5,2019-10-28,39.100105,-94.5781416
Knoxville TN USA,8,2019-10-28,35.9603948,-83.9210261
Lansing MI USA,15,2019-10-28,42.7338147,-84.5207088
Lexington KY USA,9,2019-10-28,38.0464066,-84.4970393
Macon GA USA,19,2019-10-28,32.8406946,-83.6324022
Madison WI USA,9,2019-10-28,43.074761,-89.3837613
Memphis TN USA,6,2019-10-28,35.1490215,-90.0516285
Miami FL USA,11,2019-10-28,25.7742658,-80.1936589
Milwaukee WI USA,11,2019-10-28,43.0349931,-87.922497
Minneapolis MN USA,5,2019-10-28,44.9772995,-93.2654692
Monterey CA USA,15,2019-10-28,36.2231079,-121.3877428
Nashville TN USA,5,2019-10-28,36.1622296,-86.7743531
New Orleans LA USA,11,2019-10-28,29.9499323,-90.0701156
New York NY USA,2,2019-10-28,40.7127281,-74.0060152
Norfolk VA USA,11,2019-10-28,36.8889933,-76.2481624
Oklahoma City OK USA,6,2019-10-28,35.4729886,-97.5170536
Omaha NE USA,7,2019-10-28,41.2587459,-95.9383758
Orlando FL USA,8,2019-10-28,28.5479786,-81.41278418563017
Panama City FL USA,32,2019-10-28,30.1600827,-85.6545729
Peoria IL USA,15,2019-10-28,40.6938609,-89.5891008
Philadelphia PA USA,2,2019-10-28,39.9527237,-75.1635262
Phoenix AZ USA,3,2019-10-28,33.4484367,-112.0741417
Portland OR USA,4,2019-10-28,45.5202471,-122.6741949
Portland ME USA,10,2019-10-28,43.6610277,-70.2548596
Providence RI USA,6,2019-10-28,41.8239891,-71.4128343
Raleigh NC USA,10,2019-10-28,35.7803977,-78.6390989
Richmond VA USA,6,2019-10-28,37.5385087,-77.43428
Roanoke VA USA,17,2019-10-28,37.270973,-79.9414313
Sacramento CA USA,2,2019-10-28,38.5815719,-121.4943996
San Antonio TX USA,4,2019-10-28,29.4246002,-98.4951405
San Diego CA USA,2,2019-10-28,32.7174209,-117.1627714
San Francisco CA USA,1,2019-10-28,37.7790262,-122.4199061
Savannah GA USA,14,2019-10-28,32.0809263,-81.0911768
Seattle WA USA,2,2019-10-28,47.6038321,-122.3300624
Sioux Falls SD USA,17,2019-10-28,43.5499749,-96.700327
Spokane WA USA,9,2019-10-28,47.6579425,-117.4212265
Springfield MO USA,6,2019-10-28,37.2166779,-93.2920373
Springfield MA USA,13,2019-10-28,42.1014831,-72.589811
St. Louis MO USA,6,2019-10-28,38.6268039,-90.1994097
Syracuse NY USA,10,2019-10-28,43.0481221,-76.1474244
Tallahassee FL USA,14,2019-10-28,30.4380832,-84.2809332
Tampa FL USA,11,2019-10-28,27.9518491,-82.4563972
Tucson AZ USA,9,2019-10-28,32.2228765,-110.9748477
Waco TX USA,9,2019-10-28,31.549333,-97.1466695
Washington DC USA,6,2019-10-28,38.8948932,-77.0365529
West Palm Beach FL USA,22,2019-10-28,26.7153425,-80.0533746
Wichita KS USA,10,2019-10-28,37.6922361,-97.3375448
Wilmington NC USA,41,2019-10-28,34.2257282,-77.9447107
Yakima WA USA,17,2019-10-28,46.601557,-120.5108421
Youngstown OH USA,18,2019-10-28,41.1035786,-80.6520161
Albany GA USA,40,2019-11-04,40.0555158,-82.8457691
Anchorage AK USA,19,2019-11-04,61.2163129,-149.8948523
Atlanta GA USA,3,2019-11-04,33.7490987,-84.3901849
Austin TX USA,4,2019-11-04,30.2711286,-97.7436995
Bakersfield CA USA,19,2019-11-04,35.3738712,-119.0194639
Baltimore MD USA,6,2019-11-04,39.284749399999995,-76.62047463969989
Biloxi MS USA,35,2019-11-04,30.374673,-88.84594333482862
Boston MA USA,2,2019-11-04,42.3602534,-71.0582912
Buffalo NY USA,7,2019-11-04,42.8867166,-78.8783922
Burlington VT USA,14,2019-11-04,44.4762975,-73.2135472
Casper WY USA,100,2019-11-04,39.4632037,-75.7079641
Cedar Rapids IA USA,13,2019-11-04,41.9758872,-91.6704053
Charleston SC USA,24,2019-11-04,32.7876012,-79.9402728
Charleston WV USA,14,2019-11-04,38.3505995,-81.6332812
Charlotte NC USA,3,2019-11-04,35.2270869,-80.8431268
Chicago IL USA,3,2019-11-04,41.8755616,-87.6244212
Cincinnati OH USA,4,2019-11-04,39.1014537,-84.5124602
Clarksburg WV USA,63,2019-11-04,39.2806451,-80.3445341
Columbia SC USA,21,2019-11-04,34.0007493,-81.0343313
Columbia MO USA,27,2019-11-04,38.951883,-92.3337366
Columbus OH USA,4,2019-11-04,39.9622601,-83.0007065
Dallas TX USA,1,2019-11-04,32.7762719,-96.7968559
Davenport IA USA,18,2019-11-04,41.5236436,-90.5776368
Denver CO USA,3,2019-11-04,39.7348381,-104.9653271
Des Moines IA USA,9,2019-11-04,41.5910641,-93.6037149
Detroit MI USA,5,2019-11-04,42.3315509,-83.0466403
El Paso TX USA,11,2019-11-04,31.7754152,-106.4646348
Florence SC USA,25,2019-11-04,34.1984435,-79.7671658
Ft. Myers FL USA,8,2019-11-04,26.640628,-81.8723084
Gainesville FL USA,40,2019-11-04,29.67357765,-82.32337460192167
Grand Rapids MI USA,5,2019-11-04,42.9142413,-85.533004
Greensboro NC USA,6,2019-11-04,36.0726355,-79.7919754
Greenville NC USA,16,2019-11-04,35.612661,-77.3663538
Greenville SC USA,5,2019-11-04,34.851354,-82.3984882
Harrisburg PA USA,8,2019-11-04,40.2663107,-76.8861122
Hartford CT USA,7,2019-11-04,43.648048,-70.241416
Houston TX USA,3,2019-11-04,29.7589382,-95.3676974
Indianapolis IN USA,3,2019-11-04,39.7683331,-86.1583502
Jacksonville FL USA,15,2019-11-04,30.3321838,-81.655651
Kansas City MO USA,8,2019-11-04,39.100105,-94.5781416
Knoxville TN USA,9,2019-11-04,35.9603948,-83.9210261
La Crosse WI USA,22,2019-11-04,43.8014053,-91.2395429
Lansing MI USA,17,2019-11-04,42.7338147,-84.5207088
Las Vegas NV USA,4,2019-11-04,36.1672559,-115.1485163
Lexington KY USA,10,2019-11-04,38.0464066,-84.4970393
Little Rock AR USA,9,2019-11-04,34.7464809,-92.2895948
Los Angeles CA USA,1,2019-11-04,34.0536909,-118.2427666
Lubbock TX USA,27,2019-11-04,33.5635206,-101.879336
Madison WI USA,10,2019-11-04,43.074761,-89.3837613
Memphis TN USA,7,2019-11-04,35.1490215,-90.0516285
Miami FL USA,13,2019-11-04,25.7742658,-80.1936589
Milwaukee WI USA,4,2019-11-04,43.0349931,-87.922497
Minneapolis MN USA,2,2019-11-04,44.9772995,-93.2654692
Mobile AL USA,8,2019-11-04,39.092585,-84.853229
Nashville TN USA,3,2019-11-04,36.1622296,-86.7743531
New York NY USA,2,2019-11-04,40.7127281,-74.0060152
Norfolk VA USA,12,2019-11-04,36.8889933,-76.2481624
Oklahoma City OK USA,13,2019-11-04,35.4729886,-97.5170536
Omaha NE USA,8,2019-11-04,41.2587459,-95.9383758
Orlando FL USA,10,2019-11-04,28.5479786,-81.41278418563017
Philadelphia PA USA,2,2019-11-04,39.9527237,-75.1635262
Phoenix AZ USA,4,2019-11-04,33.4484367,-112.0741417
Pittsburgh PA USA,4,2019-11-04,40.4416941,-79.9900861
Portland OR USA,3,2019-11-04,45.5202471,-122.6741949
Providence RI USA,6,2019-11-04,41.8239891,-71.4128343
Raleigh NC USA,7,2019-11-04,35.7803977,-78.6390989
Roanoke VA USA,10,2019-11-04,37.270973,-79.9414313
Rockford IL USA,28,2019-11-04,42.2713945,-89.093966
Sacramento CA USA,3,2019-11-04,38.5815719,-121.4943996
Salt Lake City UT USA,3,2019-11-04,40.7596198,-111.8867975
San Diego CA USA,5,2019-11-04,32.7174209,-117.1627714
San Francisco CA USA,1,2019-11-04,37.7790262,-122.4199061
Savannah GA USA,12,2019-11-04,32.0809263,-81.0911768
Seattle WA USA,4,2019-11-04,47.6038321,-122.3300624
Sioux City IA USA,35,2019-11-04,42.4966815,-96.4058782
Syracuse NY USA,21,2019-11-04,43.0481221,-76.1474244
Tallahassee FL USA,16,2019-11-04,30.4380832,-84.2809332
Tampa FL USA,8,2019-11-04,27.9518491,-82.4563972
Tulsa OK USA,9,2019-11-04,36.1556805,-95.9929113
Tyler TX USA,19,2019-11-04,32.3512601,-95.3010624
Waco TX USA,11,2019-11-04,31.549333,-97.1466695
Washington DC USA,5,2019-11-04,38.8948932,-77.0365529
West Palm Beach FL USA,22,2019-11-04,26.7153425,-80.0533746
Wichita Falls TX USA,34,2019-11-04,33.9137085,-98.4933873
Wichita KS USA,11,2019-11-04,37.6922361,-97.3375448
Wilkes Barre PA USA,9,2019-11-04,41.2464824,-75.8817316
Wilmington NC USA,23,2019-11-04,34.2257282,-77.9447107
Youngstown OH USA,21,2019-11-04,41.1035786,-80.6520161
Amarillo TX USA,11,2019-11-11,35.2072185,-101.8338246
Atlanta GA USA,2,2019-11-11,33.7490987,-84.3901849
Augusta GA USA,7,2019-11-11,33.4709714,-81.9748429
Austin TX USA,4,2019-11-11,30.2711286,-97.7436995
Baltimore MD USA,2,2019-11-11,39.284749399999995,-76.62047463969989
Bangor ME USA,15,2019-11-11,44.8011821,-68.7778138
Bluefield WV USA,21,2019-11-11,37.2698395,-81.2223195
Boston MA USA,1,2019-11-11,42.3602534,-71.0582912
Buffalo NY USA,3,2019-11-11,42.8867166,-78.8783922
Cedar Rapids IA USA,10,2019-11-11,41.9758872,-91.6704053
Charleston SC USA,9,2019-11-11,32.7876012,-79.9402728
Charlotte NC USA,3,2019-11-11,35.2270869,-80.8431268
Chicago IL USA,1,2019-11-11,41.8755616,-87.6244212
Cincinnati OH USA,2,2019-11-11,39.1014537,-84.5124602
Cleveland OH USA,1,2019-11-11,41.5051613,-81.6934446
Colorado Springs CO USA,5,2019-11-11,38.8339578,-104.8253485
Columbia SC USA,7,2019-11-11,34.0007493,-81.0343313
Columbus OH USA,2,2019-11-11,39.9622601,-83.0007065
Columbus MS USA,3,2019-11-11,43.336875649999996,-89.0196532340367
Dallas TX USA,1,2019-11-11,32.7762719,-96.7968559
Denver CO USA,2,2019-11-11,39.7348381,-104.9653271
Detroit MI USA,2,2019-11-11,42.3315509,-83.0466403
El Paso TX USA,5,2019-11-11,31.7754152,-106.4646348
Fargo ND USA,8,2019-11-11,46.877229,-96.789821
Florence SC USA,6,2019-11-11,34.1984435,-79.7671658
Ft. Myers FL USA,7,2019-11-11,26.640628,-81.8723084
Gainesville FL USA,11,2019-11-11,29.67357765,-82.32337460192167
Green Bay WI USA,4,2019-11-11,44.5126379,-88.0125794
Greensboro NC USA,3,2019-11-11,36.0726355,-79.7919754
Greenville NC USA,13,2019-11-11,35.612661,-77.3663538
Greenville SC USA,6,2019-11-11,34.851354,-82.3984882
Harrisonburg VA USA,19,2019-11-11,38.4493315,-78.8688833
Hartford CT USA,3,2019-11-11,43.648048,-70.241416
Houston TX USA,1,2019-11-11,29.7589382,-95.3676974
Indianapolis IN USA,3,2019-11-11,39.7683331,-86.1583502
Jacksonville FL USA,17,2019-11-11,30.3321838,-81.655651
Johnstown PA USA,6,2019-11-11,40.3267407,-78.9219698
Joplin MO USA,16,2019-11-11,37.08418,-94.51323
Kansas City MO USA,2,2019-11-11,39.100105,-94.5781416
Knoxville TN USA,3,2019-11-11,35.9603948,-83.9210261
Lansing MI USA,7,2019-11-11,42.7338147,-84.5207088
Las Vegas NV USA,2,2019-11-11,36.1672559,-115.1485163
Lincoln NE USA,7,2019-11-11,40.8088861,-96.7077751
Los Angeles CA USA,1,2019-11-11,34.0536909,-118.2427666
Macon GA USA,9,2019-11-11,32.8406946,-83.6324022
Madison WI USA,8,2019-11-11,43.074761,-89.3837613
Medford OR USA,12,2019-11-11,42.3264181,-122.8718605
Miami FL USA,4,2019-11-11,25.7742658,-80.1936589
Milwaukee WI USA,2,2019-11-11,43.0349931,-87.922497
Minneapolis MN USA,2,2019-11-11,44.9772995,-93.2654692
Mobile AL USA,3,2019-11-11,39.092585,-84.853229
Nashville TN USA,1,2019-11-11,36.1622296,-86.7743531
New Orleans LA USA,2,2019-11-11,29.9499323,-90.0701156
New York NY USA,1,2019-11-11,40.7127281,-74.0060152
Norfolk VA USA,7,2019-11-11,36.8889933,-76.2481624
Oklahoma City OK USA,4,2019-11-11,35.4729886,-97.5170536
Orlando FL USA,5,2019-11-11,28.5479786,-81.41278418563017
Ottumwa IA USA,48,2019-11-11,41.0200145,-92.4112963
Philadelphia PA USA,1,2019-11-11,39.9527237,-75.1635262
Pittsburgh PA USA,1,2019-11-11,40.4416941,-79.9900861
Portland OR USA,2,2019-11-11,45.5202471,-122.6741949
Portland ME USA,5,2019-11-11,43.6610277,-70.2548596
Presque Isle ME USA,100,2019-11-11,46.681479,-68.016357
Providence RI USA,3,2019-11-11,41.8239891,-71.4128343
Raleigh NC USA,4,2019-11-11,35.7803977,-78.6390989
Roanoke VA USA,4,2019-11-11,37.270973,-79.9414313
Rochester NY USA,4,2019-11-11,43.157285,-77.615214
Sacramento CA USA,2,2019-11-11,38.5815719,-121.4943996
Salisbury MD USA,12,2019-11-11,38.3662114,-75.6008881
Salt Lake City UT USA,3,2019-11-11,40.7596198,-111.8867975
San Angelo TX USA,29,2019-11-11,31.4648357,-100.4398442
San Antonio TX USA,2,2019-11-11,29.4246002,-98.4951405
San Diego CA USA,1,2019-11-11,32.7174209,-117.1627714
San Francisco CA USA,1,2019-11-11,37.7790262,-122.4199061
Savannah GA USA,5,2019-11-11,32.0809263,-81.0911768
Seattle WA USA,1,2019-11-11,47.6038321,-122.3300624
Springfield MO USA,2,2019-11-11,37.2166779,-93.2920373
Springfield MA USA,6,2019-11-11,42.1014831,-72.589811
St. Louis MO USA,2,2019-11-11,38.6268039,-90.1994097
Syracuse NY USA,4,2019-11-11,43.0481221,-76.1474244
Tampa FL USA,4,2019-11-11,27.9518491,-82.4563972
Terre Haute IN USA,17,2019-11-11,39.4667025,-87.4139119
Toledo OH USA,4,2019-11-11,41.6786754,-83.5127283
Tulsa OK USA,3,2019-11-11,36.1556805,-95.9929113
Washington DC USA,1,2019-11-11,38.8948932,-77.0365529
West Palm Beach FL USA,8,2019-11-11,26.7153425,-80.0533746
Wichita KS USA,4,2019-11-11,37.6922361,-97.3375448
Wilmington NC USA,18,2019-11-11,34.2257282,-77.9447107
Albany NY USA,6,2019-11-18,42.6511674,-73.754968
Atlanta GA USA,3,2019-11-18,33.7490987,-84.3901849
Austin TX USA,6,2019-11-18,30.2711286,-97.7436995
Bakersfield CA USA,16,2019-11-18,35.3738712,-119.0194639
Baltimore MD USA,5,2019-11-18,39.284749399999995,-76.62047463969989
Baton Rouge LA USA,12,2019-11-18,30.4459596,-91.18738
Birmingham AL USA,5,2019-11-18,33.570499,-86.765783
Boston MA USA,2,2019-11-18,42.3602534,-71.0582912
Buffalo NY USA,6,2019-11-18,42.8867166,-78.8783922
Burlington VT USA,12,2019-11-18,44.4762975,-73.2135472
Charleston SC USA,10,2019-11-18,32.7876012,-79.9402728
Charlotte NC USA,5,2019-11-18,35.2270869,-80.8431268
Chicago IL USA,2,2019-11-18,41.8755616,-87.6244212
Cleveland OH USA,2,2019-11-18,41.5051613,-81.6934446
Colorado Springs CO USA,10,2019-11-18,38.8339578,-104.8253485
Columbus OH USA,3,2019-11-18,39.9622601,-83.0007065
Columbus MS USA,23,2019-11-18,43.336875649999996,-89.0196532340367
Dallas TX USA,3,2019-11-18,32.7762719,-96.7968559
Dayton OH USA,9,2019-11-18,39.7589478,-84.1916069
Denver CO USA,2,2019-11-18,39.7348381,-104.9653271
Des Moines IA USA,8,2019-11-18,41.5910641,-93.6037149
Detroit MI USA,2,2019-11-18,42.3315509,-83.0466403
Dothan AL USA,49,2019-11-18,31.2237434,-85.3933906
El Paso TX USA,9,2019-11-18,31.7754152,-106.4646348
Evansville IN USA,16,2019-11-18,37.9747645,-87.5558483
Fairbanks AK USA,100,2019-11-18,64.837845,-147.716675
Florence SC USA,20,2019-11-18,34.1984435,-79.7671658
Fresno CA USA,6,2019-11-18,36.7295295,-119.70886126075588
Ft. Myers FL USA,22,2019-11-18,26.640628,-81.8723084
Grand Rapids MI USA,5,2019-11-18,42.9142413,-85.533004
Green Bay WI USA,10,2019-11-18,44.5126379,-88.0125794
Greenville NC USA,14,2019-11-18,35.612661,-77.3663538
Greenville SC USA,9,2019-11-18,34.851354,-82.3984882
Harlingen TX USA,8,2019-11-18,26.1908241,-97.6959794
Harrisburg PA USA,5,2019-11-18,40.2663107,-76.8861122
Hartford CT USA,6,2019-11-18,43.648048,-70.241416
Honolulu HI USA,22,2019-11-18,21.304547,-157.8556764
Houston TX USA,2,2019-11-18,29.7589382,-95.3676974
Indianapolis IN USA,3,2019-11-18,39.7683331,-86.1583502
Jackson TN USA,54,2019-11-18,35.6144446,-88.8177418
Jacksonville FL USA,12,2019-11-18,30.3321838,-81.655651
Kansas City MO USA,4,2019-11-18,39.100105,-94.5781416
Knoxville TN USA,7,2019-11-18,35.9603948,-83.9210261
Lafayette LA USA,21,2019-11-18,30.2240897,-92.0198427
Little Rock AR USA,15,2019-11-18,34.7464809,-92.2895948
Los Angeles CA USA,1,2019-11-18,34.0536909,-118.2427666
Louisville KY USA,8,2019-11-18,38.2542376,-85.759407
Memphis TN USA,4,2019-11-18,35.1490215,-90.0516285
Miami FL USA,6,2019-11-18,25.7742658,-80.1936589
Milwaukee WI USA,3,2019-11-18,43.0349931,-87.922497
Minneapolis MN USA,3,2019-11-18,44.9772995,-93.2654692
Mobile AL USA,10,2019-11-18,39.092585,-84.853229
Montgomery AL USA,20,2019-11-18,40.85239,-78.266098
Nashville TN USA,6,2019-11-18,36.1622296,-86.7743531
New Orleans LA USA,5,2019-11-18,29.9499323,-90.0701156
New York NY USA,2,2019-11-18,40.7127281,-74.0060152
Norfolk VA USA,6,2019-11-18,36.8889933,-76.2481624
Oklahoma City OK USA,5,2019-11-18,35.4729886,-97.5170536
Omaha NE USA,7,2019-11-18,41.2587459,-95.9383758
Orlando FL USA,8,2019-11-18,28.5479786,-81.41278418563017
Peoria IL USA,15,2019-11-18,40.6938609,-89.5891008
Philadelphia PA USA,3,2019-11-18,39.9527237,-75.1635262
Phoenix AZ USA,5,2019-11-18,33.4484367,-112.0741417
Pittsburgh PA USA,3,2019-11-18,40.4416941,-79.9900861
Portland OR USA,3,2019-11-18,45.5202471,-122.6741949
Portland ME USA,10,2019-11-18,43.6610277,-70.2548596
Raleigh NC USA,3,2019-11-18,35.7803977,-78.6390989
Sacramento CA USA,2,2019-11-18,38.5815719,-121.4943996
Salt Lake City UT USA,3,2019-11-18,40.7596198,-111.8867975
San Diego CA USA,2,2019-11-18,32.7174209,-117.1627714
