geoName,interest,date,lat,long
Seattle,100,2019-01-14,47.6038321,-122.3300624
Boston MA,62,2019-02-11,42.3602534,-71.0582912
Detroit MI,100,2019-02-11,42.3315509,-83.0466403
San Antonio TX,100,2019-06-24,29.4246002,-98.4951405
Gainesville FL,100,2019-07-08,29.67357765,-82.32337460192167
Washington DC,4,2019-07-08,38.8948932,-77.0365529
Lafayette LA,100,2019-07-15,30.2240897,-92.0198427
West Palm Beach,100,2019-07-22,26.7153425,-80.0533746
Omaha NE,100,2019-07-29,41.2587459,-95.9383758
Norfolk,39,2019-08-12,52.666667,1.0
Savannah GA,100,2019-08-12,43.4129206,-79.7028276
Albany,21,2019-08-19,42.6511674,-73.754968
Albuquerque,9,2019-08-19,35.0841034,-106.6509851
Amarillo TX,42,2019-08-19,35.2072185,-101.8338246
Atlanta GA,5,2019-08-19,33.7490987,-84.3901849
Augusta GA,28,2019-08-19,33.4709714,-81.9748429
Austin TX,5,2019-08-19,30.2711286,-97.7436995
Baltimore MD,11,2019-08-19,39.2908816,-76.610759
Baton Rouge LA,52,2019-08-19,30.4459596,-91.18738
Biloxi,54,2019-08-19,30.374673,-88.84594333482862
Binghamton NY,59,2019-08-19,42.096968,-75.914341
Boston MA,6,2019-08-19,42.3602534,-71.0582912
Buffalo NY,14,2019-08-19,42.8867166,-78.8783922
Burlington VT,22,2019-08-19,44.4762975,-73.2135472
Charleston SC,60,2019-08-19,32.7876012,-79.9402728
Charleston,23,2019-08-19,32.7876012,-79.9402728
Charlotte NC,28,2019-08-19,35.2270869,-80.8431268
Charlottesville VA,69,2019-08-19,38.029306,-78.4766781
Chicago IL,4,2019-08-19,41.8755616,-87.6244212
Cincinnati OH,6,2019-08-19,39.1014537,-84.5124602
Cleveland,6,2019-08-19,41.5051613,-81.6934446
Colorado Springs,33,2019-08-19,38.8339578,-104.8253485
Columbia SC,34,2019-08-19,34.0007493,-81.0343313
Columbus GA,32,2019-08-19,43.1830762,-79.8147518
Columbus,59,2019-08-19,39.9622601,-83.0007065
Corpus Christi TX,69,2019-08-19,27.7477253,-97.4014129
Dallas,3,2019-08-19,32.7762719,-96.7968559
Davenport IA,27,2019-08-19,41.5236436,-90.5776368
Denver CO,3,2019-08-19,39.7348381,-104.9653271
Detroit MI,5,2019-08-19,42.3315509,-83.0466403
Duluth MN,49,2019-08-19,46.7729322,-92.1251218
Eugene OR,30,2019-08-19,44.0505054,-123.0950506
Evansville IN,28,2019-08-19,4.5777639,-7.6472486
Flint,19,2019-08-19,43.0161693,-83.6900211
Florence,45,2019-08-19,43.7698712,11.2555757
Ft. Myers,70,2019-08-19,26.640628,-81.8723084
Gainesville FL,39,2019-08-19,29.67357765,-82.32337460192167
Grand Rapids,9,2019-08-19,42.9632405,-85.6678639
Green Bay,18,2019-08-19,44.5126379,-88.0125794
Greensboro,10,2019-08-19,36.0726355,-79.7919754
Greenville,43,2019-08-19,34.851354,-82.3984882
Greenville,32,2019-08-19,34.851354,-82.3984882
Hartford,11,2019-08-19,41.764582,-72.6908547
Houston TX,10,2019-08-19,29.7589382,-95.3676974
Jackson MS,22,2019-08-19,28.530801699999998,-81.30324431076107
Jackson TN,93,2019-08-19,35.6144446,-88.8177418
Jacksonville FL,23,2019-08-19,30.3321838,-81.655651
Kansas City MO,9,2019-08-19,39.100105,-94.5781416
Lafayette LA,37,2019-08-19,30.2240897,-92.0198427
Las Vegas NV,13,2019-08-19,36.1672559,-115.1485163
Lexington KY,15,2019-08-19,38.0464066,-84.4970393
Little Rock,13,2019-08-19,34.7464809,-92.2895948
Los Angeles CA,3,2019-08-19,34.0536909,-118.2427666
Louisville KY,9,2019-08-19,38.2542376,-85.759407
Miami,55,2019-08-19,25.7742658,-80.1936589
Minneapolis,6,2019-08-19,44.9772995,-93.2654692
Mobile AL,36,2019-08-19,39.092585,-84.853229
Nashville TN,7,2019-08-19,36.1622296,-86.7743531
New Orleans LA,9,2019-08-19,29.9499323,-90.0701156
New York NY,7,2019-08-19,40.7127281,-74.0060152
Norfolk,19,2019-08-19,52.666667,1.0
Orlando,48,2019-08-19,28.5421109,-81.3790304
Panama City FL,100,2019-08-19,30.1600827,-85.6545729
Peoria,26,2019-08-19,40.6938609,-89.5891008
Philadelphia PA,5,2019-08-19,39.9527237,-75.1635262
Phoenix AZ,4,2019-08-19,33.4484367,-112.0741417
Pittsburgh PA,12,2019-08-19,40.4416941,-79.9900861
Portland OR,9,2019-08-19,45.5202471,-122.6741949
Providence RI,20,2019-08-19,51.4325409,-2.6642358
Raleigh,27,2019-08-19,35.7803977,-78.6390989
Salisbury MD,34,2019-08-19,38.3662114,-75.6008881
Salt Lake City UT,5,2019-08-19,40.7596198,-111.8867975
San Antonio TX,12,2019-08-19,29.4246002,-98.4951405
San Diego CA,6,2019-08-19,32.7174209,-117.1627714
San Francisco,4,2019-08-19,37.7790262,-122.4199061
Savannah GA,43,2019-08-19,43.4129206,-79.7028276
Seattle,5,2019-08-19,47.6038321,-122.3300624
Sioux City IA,55,2019-08-19,42.4966815,-96.4058782
Springfield MO,18,2019-08-19,37.2166779,-93.2920373
St. Louis MO,10,2019-08-19,38.6529545,-90.24111656024635
Tallahassee FL,51,2019-08-19,30.4380832,-84.2809332
Tampa,39,2019-08-19,27.9477595,-82.458444
Toledo OH,35,2019-08-19,41.6786754,-83.5127283
Traverse City,33,2019-08-19,44.7606441,-85.6165301
Tucson,15,2019-08-19,32.2228765,-110.9748477
Waco,35,2019-08-19,31.549333,-97.1466695
Washington DC,6,2019-08-19,38.8948932,-77.0365529
West Palm Beach,44,2019-08-19,26.7153425,-80.0533746
Wilkes Barre,21,2019-08-19,41.2464824,-75.8817316
Wilmington NC,50,2019-08-19,34.2257282,-77.9447107
Abilene,2,2019-08-26,32.44645,-99.7475905
Albany GA,22,2019-08-26,51.7468576,-0.3383107
Albany,6,2019-08-26,42.6511674,-73.754968
Albuquerque,3,2019-08-26,35.0841034,-106.6509851
Alexandria LA,4,2019-08-26,31.199004,29.894378
Alpena MI,5,2019-08-26,45.0176181,-83.6670019
Amarillo TX,2,2019-08-26,35.2072185,-101.8338246
Anchorage AK,3,2019-08-26,61.2163129,-149.8948523
Atlanta GA,11,2019-08-26,33.7490987,-84.3901849
Augusta GA,16,2019-08-26,33.4709714,-81.9748429
Austin TX,4,2019-08-26,30.2711286,-97.7436995
Bakersfield CA,1,2019-08-26,35.3738712,-119.0194639
Baltimore MD,5,2019-08-26,39.2908816,-76.610759
Bangor ME,6,2019-08-26,29.0659229,-110.97133
Baton Rouge LA,7,2019-08-26,30.4459596,-91.18738
Beaumont,5,2019-08-26,30.0860459,-94.1018461
Bend OR,3,2019-08-26,44.0581728,-121.3153096
"Billings, MT",2,2019-08-26,45.7874957,-108.49607
Biloxi,15,2019-08-26,30.374673,-88.84594333482862
Binghamton NY,6,2019-08-26,42.096968,-75.914341
Birmingham AL,8,2019-08-26,33.570499,-86.765783
Bluefield,5,2019-08-26,37.2698395,-81.2223195
Boise ID,2,2019-08-26,43.6166163,-116.200886
Boston MA,5,2019-08-26,42.3602534,-71.0582912
Bowling Green KY,5,2019-08-26,36.9903199,-86.4436018
Buffalo NY,6,2019-08-26,42.8867166,-78.8783922
Burlington VT,6,2019-08-26,44.4762975,-73.2135472
Butte,3,2019-08-26,39.6519275,-121.5858444
Casper,3,2019-08-26,42.866632,-106.313081
Cedar Rapids,3,2019-08-26,41.9758872,-91.6704053
Champaign,3,2019-08-26,40.1164205,-88.2433829
Charleston SC,42,2019-08-26,32.7876012,-79.9402728
Charleston,5,2019-08-26,32.7876012,-79.9402728
Charlotte NC,13,2019-08-26,35.2270869,-80.8431268
Charlottesville VA,5,2019-08-26,38.029306,-78.4766781
Chattanooga TN,7,2019-08-26,35.0457219,-85.3094883
Cheyenne WY,3,2019-08-26,45.2519491,-75.7306849
Chicago IL,4,2019-08-26,41.8755616,-87.6244212
Chico,2,2019-08-26,39.7284945,-121.8374777
Cincinnati OH,5,2019-08-26,39.1014537,-84.5124602
Clarksburg,5,2019-08-26,39.2806451,-80.3445341
Cleveland,8,2019-08-26,41.5051613,-81.6934446
Colorado Springs,4,2019-08-26,38.8339578,-104.8253485
Columbia SC,18,2019-08-26,34.0007493,-81.0343313
Columbia,3,2019-08-26,2.8894434,-73.783892
Columbus GA,10,2019-08-26,43.1830762,-79.8147518
Columbus OH,4,2019-08-26,39.9622601,-83.0007065
Columbus,4,2019-08-26,39.9622601,-83.0007065
Corpus Christi TX,4,2019-08-26,27.7477253,-97.4014129
Dallas,4,2019-08-26,32.7762719,-96.7968559
Davenport IA,3,2019-08-26,41.5236436,-90.5776368
Dayton OH,5,2019-08-26,39.7589478,-84.1916069
Denver CO,4,2019-08-26,39.7348381,-104.9653271
Des Moines,3,2019-08-26,41.5910641,-93.6037149
Detroit MI,4,2019-08-26,42.3315509,-83.0466403
Dothan AL,16,2019-08-26,31.2237434,-85.3933906
Duluth MN,4,2019-08-26,46.7729322,-92.1251218
El Paso TX,2,2019-08-26,31.7754152,-106.4646348
Elmira NY,5,2019-08-26,42.0897965,-76.8077338
Erie PA,5,2019-08-26,42.1294712,-80.0852695
Eugene OR,3,2019-08-26,44.0505054,-123.0950506
Eureka CA,1,2019-08-26,45.4985271,-62.6816736
Evansville IN,4,2019-08-26,4.5777639,-7.6472486
Fairbanks AK,4,2019-08-26,64.837845,-147.716675
Fargo,3,2019-08-26,46.877229,-96.789821
Flint,4,2019-08-26,43.0161693,-83.6900211
Florence,28,2019-08-26,43.7698712,11.2555757
Fresno,1,2019-08-26,36.7295295,-119.70886126075588
Ft. Myers,71,2019-08-26,26.640628,-81.8723084
Ft. Smith,3,2019-08-26,35.3872218,-94.4248983
Ft. Wayne IN,4,2019-08-26,41.0799898,-85.1386015
Gainesville FL,73,2019-08-26,29.67357765,-82.32337460192167
Grand Junction,4,2019-08-26,39.063956,-108.5507317
Grand Rapids,4,2019-08-26,42.9632405,-85.6678639
Great Falls MT,3,2019-08-26,47.5048851,-111.2918908
Green Bay,4,2019-08-26,44.5126379,-88.0125794
Greensboro,10,2019-08-26,36.0726355,-79.7919754
Greenville,29,2019-08-26,34.851354,-82.3984882
Greenville,11,2019-08-26,34.851354,-82.3984882
Greenwood,2,2019-08-26,37.8709542,-96.2471338
Harlingen,2,2019-08-26,26.1908241,-97.6959794
Harrisburg,5,2019-08-26,40.2663107,-76.8861122
Harrisonburg VA,5,2019-08-26,38.4493315,-78.8688833
Hartford,6,2019-08-26,41.764582,-72.6908547
Hattiesburg,7,2019-08-26,31.3271189,-89.2903392
Helena MT,3,2019-08-26,46.5927425,-112.0362771
Honolulu HI,3,2019-08-26,21.304547,-157.8556764
Houston TX,4,2019-08-26,29.7589382,-95.3676974
Huntsville,5,2019-08-26,34.729847,-86.5859011
Idaho Falls,3,2019-08-26,43.4935245,-112.0400919
Indianapolis IN,4,2019-08-26,39.7683331,-86.1583502
Jackson MS,5,2019-08-26,28.530801699999998,-81.30324431076107
Jackson TN,4,2019-08-26,35.6144446,-88.8177418
Jacksonville FL,62,2019-08-26,30.3321838,-81.655651
Johnstown,5,2019-08-26,40.3267407,-78.9219698
Jonesboro AR,3,2019-08-26,35.8428646,-90.7034522
Joplin MO,3,2019-08-26,37.08418,-94.51323
Juneau AK,5,2019-08-26,58.3019496,-134.419734
Kansas City MO,3,2019-08-26,39.100105,-94.5781416
Knoxville TN,7,2019-08-26,35.9603948,-83.9210261
La Crosse,3,2019-08-26,43.8014053,-91.2395429
Lafayette IN,3,2019-08-26,40.4167022,-86.8752869
Lafayette LA,5,2019-08-26,30.2240897,-92.0198427
Lake Charles LA,6,2019-08-26,30.2265949,-93.2173759
Lansing MI,4,2019-08-26,42.7338147,-84.5207088
Laredo TX,2,2019-08-26,27.5199841,-99.4953764
Las Vegas NV,3,2019-08-26,36.1672559,-115.1485163
Lexington KY,5,2019-08-26,38.0464066,-84.4970393
Lima OH,4,2019-08-26,40.7399785,-84.105006
Lincoln,3,2019-08-26,47.8299069,-118.414727
Little Rock,4,2019-08-26,34.7464809,-92.2895948
Los Angeles CA,2,2019-08-26,34.0536909,-118.2427666
Louisville KY,5,2019-08-26,38.2542376,-85.759407
Lubbock TX,2,2019-08-26,33.5635206,-101.879336
Macon GA,14,2019-08-26,32.8406946,-83.6324022
Madison WI,4,2019-08-26,43.074761,-89.3837613
Mankato MN,3,2019-08-26,44.1634663,-93.9993505
Marquette MI,4,2019-08-26,46.4481521,-87.6305899
Medford,3,2019-08-26,42.4184296,-71.1061639
Memphis TN,4,2019-08-26,35.1490215,-90.0516285
Meridian MS,7,2019-08-26,43.61732135,-116.40613112241579
Miami,82,2019-08-26,25.7742658,-80.1936589
Milwaukee WI,4,2019-08-26,43.0349931,-87.922497
Minneapolis,3,2019-08-26,44.9772995,-93.2654692
Minot,2,2019-08-26,47.6698594,4.8786165
Missoula MT,3,2019-08-26,46.8701049,-113.9952672
Mobile AL,22,2019-08-26,39.092585,-84.853229
Monroe LA,4,2019-08-26,38.2722313,-90.1792484
Monterey,2,2019-08-26,36.2231079,-121.3877428
Montgomery,9,2019-08-26,32.3669656,-86.3006485
Nashville TN,6,2019-08-26,36.1622296,-86.7743531
New Orleans LA,10,2019-08-26,29.9499323,-90.0701156
New York NY,5,2019-08-26,40.7127281,-74.0060152
Norfolk,10,2019-08-26,52.666667,1.0
North Platte NE,2,2019-08-26,41.1238873,-100.7654232
Odessa,2,2019-08-26,46.4873195,30.7392776
Oklahoma City OK,3,2019-08-26,35.4729886,-97.5170536
Omaha NE,3,2019-08-26,41.2587459,-95.9383758
Orlando,86,2019-08-26,28.5421109,-81.3790304
Ottumwa IA,2,2019-08-26,41.0200145,-92.4112963
Paducah KY,4,2019-08-26,37.0833893,-88.6000478
Palm Springs CA,3,2019-08-26,33.8246269,-116.540303
Panama City FL,52,2019-08-26,30.1600827,-85.6545729
Parkersburg WV,5,2019-08-26,39.2699565,-81.5506916
Peoria,4,2019-08-26,40.6938609,-89.5891008
Philadelphia PA,5,2019-08-26,39.9527237,-75.1635262
Phoenix AZ,3,2019-08-26,33.4484367,-112.0741417
Pittsburgh PA,5,2019-08-26,40.4416941,-79.9900861
Portland OR,3,2019-08-26,45.5202471,-122.6741949
Portland,7,2019-08-26,45.5202471,-122.6741949
Presque Isle ME,3,2019-08-26,46.681479,-68.016357
Providence RI,6,2019-08-26,51.4325409,-2.6642358
Quincy IL,4,2019-08-26,39.9368363,-120.9471764
Raleigh,16,2019-08-26,35.7803977,-78.6390989
Rapid City SD,3,2019-08-26,44.081176,-103.228006
Reno NV,3,2019-08-26,39.5261206,-119.8126581
Richmond,7,2019-08-26,37.5385087,-77.43428
Roanoke,7,2019-08-26,37.270973,-79.9414313
Rochester MN,4,2019-08-26,44.0234387,-92.4630182
Rochester NY,5,2019-08-26,43.157285,-77.615214
Rockford IL,4,2019-08-26,42.2713945,-89.093966
Sacramento,2,2019-08-26,38.5815719,-121.4943996
Salisbury MD,8,2019-08-26,38.3662114,-75.6008881
Salt Lake City UT,3,2019-08-26,40.7596198,-111.8867975
San Angelo TX,4,2019-08-26,31.4648357,-100.4398442
San Antonio TX,4,2019-08-26,29.4246002,-98.4951405
San Diego CA,2,2019-08-26,32.7174209,-117.1627714
San Francisco,2,2019-08-26,37.7790262,-122.4199061
Santa Barbara,3,2019-08-26,34.4221319,-119.7026673
Savannah GA,49,2019-08-26,43.4129206,-79.7028276
Seattle,3,2019-08-26,47.6038321,-122.3300624
Sherman TX,2,2019-08-26,36.2452294,-101.8858689
Shreveport LA,3,2019-08-26,32.5221828,-93.7651944
Sioux City IA,2,2019-08-26,42.4966815,-96.4058782
Sioux Fall,2,2019-08-26,46.737158,-90.8801835
South Bend,5,2019-08-26,41.6833813,-86.2500066
Spokane WA,3,2019-08-26,47.6579425,-117.4212265
Springfield MO,5,2019-08-26,37.2166779,-93.2920373
Springfield,4,2019-08-26,39.7990175,-89.6439575
St. Joseph MO,3,2019-08-26,39.7686055,-94.8466322
St. Louis MO,4,2019-08-26,38.6529545,-90.24111656024635
Syracuse NY,4,2019-08-26,43.0481221,-76.1474244
Tallahassee FL,50,2019-08-26,30.4380832,-84.2809332
Tampa,64,2019-08-26,27.9477595,-82.458444
Terre Haute IN,4,2019-08-26,39.4667025,-87.4139119
Toledo OH,4,2019-08-26,41.6786754,-83.5127283
Topeka KS,2,2019-08-26,39.049011,-95.677556
Traverse City,6,2019-08-26,44.7606441,-85.6165301
Tri,7,2019-08-26,35.875259,-78.7751271
Tucson,3,2019-08-26,32.2228765,-110.9748477
Tulsa OK,3,2019-08-26,36.1556805,-95.9929113
Twin Falls ID,3,2019-08-26,42.5704219,-114.4603171
Tyler,3,2019-08-26,32.3512601,-95.3010624
Utica NY,5,2019-08-26,43.1009031,-75.2326641
Victoria TX,4,2019-08-26,28.8026443,-96.9766308
Waco,4,2019-08-26,31.549333,-97.1466695
Washington DC,6,2019-08-26,38.8948932,-77.0365529
Watertown NY,6,2019-08-26,43.9747838,-75.9107565
Wausau,3,2019-08-26,44.9596017,-89.6298239
West Palm Beach,100,2019-08-26,26.7153425,-80.0533746
Wheeling WV,5,2019-08-26,40.0639616,-80.7209149
Wichita Falls TX,3,2019-08-26,33.9137085,-98.4933873
Wichita,3,2019-08-26,37.6922361,-97.3375448
Wilkes Barre,6,2019-08-26,41.2464824,-75.8817316
Wilmington NC,36,2019-08-26,34.2257282,-77.9447107
Yakima,2,2019-08-26,46.601557,-120.5108421
Youngstown OH,4,2019-08-26,41.1035786,-80.6520161
Yuma AZ,1,2019-08-26,32.6926588,-114.6276157
Zanesville OH,5,2019-08-26,39.9403453,-82.0131924
Abilene,4,2019-09-02,32.44645,-99.7475905
Albany GA,27,2019-09-02,51.7468576,-0.3383107
Albany,9,2019-09-02,42.6511674,-73.754968
Albuquerque,6,2019-09-02,35.0841034,-106.6509851
Alexandria LA,6,2019-09-02,31.199004,29.894378
Alpena MI,8,2019-09-02,45.0176181,-83.6670019
Amarillo TX,4,2019-09-02,35.2072185,-101.8338246
Anchorage AK,7,2019-09-02,61.2163129,-149.8948523
Atlanta GA,15,2019-09-02,33.7490987,-84.3901849
Augusta GA,30,2019-09-02,33.4709714,-81.9748429
Austin TX,6,2019-09-02,30.2711286,-97.7436995
Bakersfield CA,3,2019-09-02,35.3738712,-119.0194639
Baltimore MD,10,2019-09-02,39.2908816,-76.610759
Bangor ME,13,2019-09-02,29.0659229,-110.97133
Baton Rouge LA,7,2019-09-02,30.4459596,-91.18738
Beaumont,5,2019-09-02,30.0860459,-94.1018461
Bend OR,7,2019-09-02,44.0581728,-121.3153096
"Billings, MT",6,2019-09-02,45.7874957,-108.49607
Biloxi,14,2019-09-02,30.374673,-88.84594333482862
Binghamton NY,8,2019-09-02,42.096968,-75.914341
Birmingham AL,9,2019-09-02,33.570499,-86.765783
Bluefield,11,2019-09-02,37.2698395,-81.2223195
Boise ID,5,2019-09-02,43.6166163,-116.200886
Boston MA,8,2019-09-02,42.3602534,-71.0582912
Bowling Green KY,6,2019-09-02,36.9903199,-86.4436018
Buffalo NY,8,2019-09-02,42.8867166,-78.8783922
Burlington VT,10,2019-09-02,44.4762975,-73.2135472
Butte,7,2019-09-02,39.6519275,-121.5858444
Casper,4,2019-09-02,42.866632,-106.313081
Cedar Rapids,6,2019-09-02,41.9758872,-91.6704053
Champaign,7,2019-09-02,40.1164205,-88.2433829
Charleston SC,81,2019-09-02,32.7876012,-79.9402728
Charleston,10,2019-09-02,32.7876012,-79.9402728
Charlotte NC,26,2019-09-02,35.2270869,-80.8431268
Charlottesville VA,11,2019-09-02,38.029306,-78.4766781
Chattanooga TN,11,2019-09-02,35.0457219,-85.3094883
Cheyenne WY,7,2019-09-02,45.2519491,-75.7306849
Chicago IL,6,2019-09-02,41.8755616,-87.6244212
Chico,6,2019-09-02,39.7284945,-121.8374777
Cincinnati OH,8,2019-09-02,39.1014537,-84.5124602
Clarksburg,13,2019-09-02,39.2806451,-80.3445341
Cleveland,10,2019-09-02,41.5051613,-81.6934446
Colorado Springs,8,2019-09-02,38.8339578,-104.8253485
Columbia SC,39,2019-09-02,34.0007493,-81.0343313
Columbia,6,2019-09-02,2.8894434,-73.783892
Columbus GA,13,2019-09-02,43.1830762,-79.8147518
Columbus OH,7,2019-09-02,39.9622601,-83.0007065
Columbus,6,2019-09-02,39.9622601,-83.0007065
Corpus Christi TX,6,2019-09-02,27.7477253,-97.4014129
Dallas,6,2019-09-02,32.7762719,-96.7968559
Davenport IA,7,2019-09-02,41.5236436,-90.5776368
Dayton OH,9,2019-09-02,39.7589478,-84.1916069
Denver CO,7,2019-09-02,39.7348381,-104.9653271
Des Moines,6,2019-09-02,41.5910641,-93.6037149
Detroit MI,7,2019-09-02,42.3315509,-83.0466403
Dothan AL,18,2019-09-02,31.2237434,-85.3933906
Duluth MN,6,2019-09-02,46.7729322,-92.1251218
El Paso TX,4,2019-09-02,31.7754152,-106.4646348
Elmira NY,8,2019-09-02,42.0897965,-76.8077338
Erie PA,8,2019-09-02,42.1294712,-80.0852695
Eugene OR,6,2019-09-02,44.0505054,-123.0950506
Eureka CA,7,2019-09-02,45.4985271,-62.6816736
Evansville IN,7,2019-09-02,4.5777639,-7.6472486
Fairbanks AK,6,2019-09-02,64.837845,-147.716675
Fargo,5,2019-09-02,46.877229,-96.789821
Flint,6,2019-09-02,43.0161693,-83.6900211
Florence,73,2019-09-02,43.7698712,11.2555757
Fresno,3,2019-09-02,36.7295295,-119.70886126075588
Ft. Myers,44,2019-09-02,26.640628,-81.8723084
Ft. Smith,5,2019-09-02,35.3872218,-94.4248983
Ft. Wayne IN,7,2019-09-02,41.0799898,-85.1386015
Gainesville FL,56,2019-09-02,29.67357765,-82.32337460192167
Glendive MT,9,2019-09-02,47.10529,-104.71246
Grand Junction,7,2019-09-02,39.063956,-108.5507317
Grand Rapids,7,2019-09-02,42.9632405,-85.6678639
Great Falls MT,5,2019-09-02,47.5048851,-111.2918908
Green Bay,7,2019-09-02,44.5126379,-88.0125794
Greensboro,24,2019-09-02,36.0726355,-79.7919754
Greenville,81,2019-09-02,34.851354,-82.3984882
Greenville,22,2019-09-02,34.851354,-82.3984882
Greenwood,2,2019-09-02,37.8709542,-96.2471338
Harlingen,3,2019-09-02,26.1908241,-97.6959794
Harrisburg,9,2019-09-02,40.2663107,-76.8861122
Harrisonburg VA,13,2019-09-02,38.4493315,-78.8688833
Hartford,9,2019-09-02,41.764582,-72.6908547
Hattiesburg,8,2019-09-02,31.3271189,-89.2903392
Helena MT,8,2019-09-02,46.5927425,-112.0362771
Honolulu HI,6,2019-09-02,21.304547,-157.8556764
Houston TX,6,2019-09-02,29.7589382,-95.3676974
Huntsville,8,2019-09-02,34.729847,-86.5859011
Idaho Falls,6,2019-09-02,43.4935245,-112.0400919
Indianapolis IN,7,2019-09-02,39.7683331,-86.1583502
Jackson MS,6,2019-09-02,28.530801699999998,-81.30324431076107
Jackson TN,7,2019-09-02,35.6144446,-88.8177418
Jacksonville FL,59,2019-09-02,30.3321838,-81.655651
Johnstown,10,2019-09-02,40.3267407,-78.9219698
Jonesboro AR,5,2019-09-02,35.8428646,-90.7034522
Joplin MO,6,2019-09-02,37.08418,-94.51323
Juneau AK,11,2019-09-02,58.3019496,-134.419734
Kansas City MO,6,2019-09-02,39.100105,-94.5781416
Knoxville TN,13,2019-09-02,35.9603948,-83.9210261
La Crosse,6,2019-09-02,43.8014053,-91.2395429
Lafayette IN,4,2019-09-02,40.4167022,-86.8752869
Lafayette LA,5,2019-09-02,30.2240897,-92.0198427
Lake Charles LA,6,2019-09-02,30.2265949,-93.2173759
Lansing MI,6,2019-09-02,42.7338147,-84.5207088
Laredo TX,2,2019-09-02,27.5199841,-99.4953764
Las Vegas NV,6,2019-09-02,36.1672559,-115.1485163
Lexington KY,8,2019-09-02,38.0464066,-84.4970393
Lima OH,7,2019-09-02,40.7399785,-84.105006
Lincoln,4,2019-09-02,47.8299069,-118.414727
Little Rock,6,2019-09-02,34.7464809,-92.2895948
Los Angeles CA,4,2019-09-02,34.0536909,-118.2427666
Louisville KY,8,2019-09-02,38.2542376,-85.759407
Lubbock TX,4,2019-09-02,33.5635206,-101.879336
Macon GA,22,2019-09-02,32.8406946,-83.6324022
Madison WI,6,2019-09-02,43.074761,-89.3837613
Mankato MN,5,2019-09-02,44.1634663,-93.9993505
Marquette MI,9,2019-09-02,46.4481521,-87.6305899
Medford,6,2019-09-02,42.4184296,-71.1061639
Memphis TN,6,2019-09-02,35.1490215,-90.0516285
Meridian MS,7,2019-09-02,43.61732135,-116.40613112241579
Miami,44,2019-09-02,25.7742658,-80.1936589
Milwaukee WI,6,2019-09-02,43.0349931,-87.922497
Minneapolis,5,2019-09-02,44.9772995,-93.2654692
Minot,5,2019-09-02,47.6698594,4.8786165
Missoula MT,8,2019-09-02,46.8701049,-113.9952672
Mobile AL,17,2019-09-02,39.092585,-84.853229
Monroe LA,5,2019-09-02,38.2722313,-90.1792484
Monterey,4,2019-09-02,36.2231079,-121.3877428
Montgomery,9,2019-09-02,32.3669656,-86.3006485
Nashville TN,9,2019-09-02,36.1622296,-86.7743531
New Orleans LA,9,2019-09-02,29.9499323,-90.0701156
New York NY,8,2019-09-02,40.7127281,-74.0060152
Norfolk,41,2019-09-02,52.666667,1.0
North Platte NE,8,2019-09-02,41.1238873,-100.7654232
Odessa,4,2019-09-02,46.4873195,30.7392776
Oklahoma City OK,5,2019-09-02,35.4729886,-97.5170536
Omaha NE,6,2019-09-02,41.2587459,-95.9383758
Orlando,66,2019-09-02,28.5421109,-81.3790304
Ottumwa IA,6,2019-09-02,41.0200145,-92.4112963
Paducah KY,6,2019-09-02,37.0833893,-88.6000478
Palm Springs CA,4,2019-09-02,33.8246269,-116.540303
Panama City FL,36,2019-09-02,30.1600827,-85.6545729
Parkersburg WV,8,2019-09-02,39.2699565,-81.5506916
Peoria,8,2019-09-02,40.6938609,-89.5891008
Philadelphia PA,8,2019-09-02,39.9527237,-75.1635262
Phoenix AZ,5,2019-09-02,33.4484367,-112.0741417
Pittsburgh PA,9,2019-09-02,40.4416941,-79.9900861
Portland OR,6,2019-09-02,45.5202471,-122.6741949
Portland,10,2019-09-02,45.5202471,-122.6741949
Presque Isle ME,11,2019-09-02,46.681479,-68.016357
Providence RI,10,2019-09-02,51.4325409,-2.6642358
Quincy IL,8,2019-09-02,39.9368363,-120.9471764
Raleigh,41,2019-09-02,35.7803977,-78.6390989
Rapid City SD,5,2019-09-02,44.081176,-103.228006
Reno NV,6,2019-09-02,39.5261206,-119.8126581
Richmond,17,2019-09-02,37.5385087,-77.43428
Roanoke,15,2019-09-02,37.270973,-79.9414313
Rochester MN,7,2019-09-02,44.0234387,-92.4630182
Rochester NY,8,2019-09-02,43.157285,-77.615214
Rockford IL,6,2019-09-02,42.2713945,-89.093966
Sacramento,4,2019-09-02,38.5815719,-121.4943996
Salisbury MD,17,2019-09-02,38.3662114,-75.6008881
Salt Lake City UT,6,2019-09-02,40.7596198,-111.8867975
San Angelo TX,6,2019-09-02,31.4648357,-100.4398442
San Antonio TX,5,2019-09-02,29.4246002,-98.4951405
San Diego CA,5,2019-09-02,32.7174209,-117.1627714
San Francisco,4,2019-09-02,37.7790262,-122.4199061
Santa Barbara,4,2019-09-02,34.4221319,-119.7026673
Savannah GA,74,2019-09-02,43.4129206,-79.7028276
Seattle,6,2019-09-02,47.6038321,-122.3300624
Sherman TX,5,2019-09-02,36.2452294,-101.8858689
Shreveport LA,5,2019-09-02,32.5221828,-93.7651944
Sioux City IA,4,2019-09-02,42.4966815,-96.4058782
Sioux Fall,5,2019-09-02,46.737158,-90.8801835
South Bend,8,2019-09-02,41.6833813,-86.2500066
Spokane WA,6,2019-09-02,47.6579425,-117.4212265
Springfield MO,6,2019-09-02,37.2166779,-93.2920373
Springfield,7,2019-09-02,39.7990175,-89.6439575
St. Joseph MO,6,2019-09-02,39.7686055,-94.8466322
St. Louis MO,6,2019-09-02,38.6529545,-90.24111656024635
Syracuse NY,8,2019-09-02,43.0481221,-76.1474244
Tallahassee FL,37,2019-09-02,30.4380832,-84.2809332
Tampa,43,2019-09-02,27.9477595,-82.458444
Terre Haute IN,8,2019-09-02,39.4667025,-87.4139119
Toledo OH,7,2019-09-02,41.6786754,-83.5127283
Topeka KS,5,2019-09-02,39.049011,-95.677556
Traverse City,9,2019-09-02,44.7606441,-85.6165301
Tri,12,2019-09-02,35.875259,-78.7751271
Tucson,5,2019-09-02,32.2228765,-110.9748477
Tulsa OK,6,2019-09-02,36.1556805,-95.9929113
Twin Falls ID,7,2019-09-02,42.5704219,-114.4603171
Tyler,5,2019-09-02,32.3512601,-95.3010624
Utica NY,9,2019-09-02,43.1009031,-75.2326641
Victoria TX,7,2019-09-02,28.8026443,-96.9766308
Waco,5,2019-09-02,31.549333,-97.1466695
Washington DC,10,2019-09-02,38.8948932,-77.0365529
Watertown NY,8,2019-09-02,43.9747838,-75.9107565
Wausau,7,2019-09-02,44.9596017,-89.6298239
West Palm Beach,57,2019-09-02,26.7153425,-80.0533746
Wheeling WV,9,2019-09-02,40.0639616,-80.7209149
Wichita Falls TX,6,2019-09-02,33.9137085,-98.4933873
Wichita,5,2019-09-02,37.6922361,-97.3375448
Wilkes Barre,9,2019-09-02,41.2464824,-75.8817316
Wilmington NC,100,2019-09-02,34.2257282,-77.9447107
Yakima,5,2019-09-02,46.601557,-120.5108421
Youngstown OH,8,2019-09-02,41.1035786,-80.6520161
Yuma AZ,4,2019-09-02,32.6926588,-114.6276157
Zanesville OH,10,2019-09-02,39.9403453,-82.0131924
Abilene,17,2019-09-09,32.44645,-99.7475905
Albany GA,34,2019-09-09,51.7468576,-0.3383107
Albany,22,2019-09-09,42.6511674,-73.754968
Albuquerque,10,2019-09-09,35.0841034,-106.6509851
Alexandria LA,19,2019-09-09,31.199004,29.894378
Alpena MI,100,2019-09-09,45.0176181,-83.6670019
Amarillo TX,17,2019-09-09,35.2072185,-101.8338246
Anchorage AK,17,2019-09-09,61.2163129,-149.8948523
Atlanta GA,20,2019-09-09,33.7490987,-84.3901849
Augusta GA,30,2019-09-09,33.4709714,-81.9748429
Austin TX,18,2019-09-09,30.2711286,-97.7436995
Bakersfield CA,13,2019-09-09,35.3738712,-119.0194639
Baltimore MD,16,2019-09-09,39.2908816,-76.610759
Bangor ME,31,2019-09-09,29.0659229,-110.97133
Baton Rouge LA,17,2019-09-09,30.4459596,-91.18738
Beaumont,20,2019-09-09,30.0860459,-94.1018461
Bend OR,40,2019-09-09,44.0581728,-121.3153096
"Billings, MT",16,2019-09-09,45.7874957,-108.49607
Biloxi,24,2019-09-09,30.374673,-88.84594333482862
Binghamton NY,27,2019-09-09,42.096968,-75.914341
Birmingham AL,13,2019-09-09,33.570499,-86.765783
Bluefield,26,2019-09-09,37.2698395,-81.2223195
Boise ID,16,2019-09-09,43.6166163,-116.200886
Boston MA,13,2019-09-09,42.3602534,-71.0582912
Bowling Green KY,21,2019-09-09,36.9903199,-86.4436018
Buffalo NY,19,2019-09-09,42.8867166,-78.8783922
Burlington VT,23,2019-09-09,44.4762975,-73.2135472
Butte,13,2019-09-09,39.6519275,-121.5858444
Casper,33,2019-09-09,42.866632,-106.313081
Cedar Rapids,18,2019-09-09,41.9758872,-91.6704053
Champaign,13,2019-09-09,40.1164205,-88.2433829
Charleston SC,57,2019-09-09,32.7876012,-79.9402728
Charleston,20,2019-09-09,32.7876012,-79.9402728
Charlotte NC,28,2019-09-09,35.2270869,-80.8431268
Charlottesville VA,28,2019-09-09,38.029306,-78.4766781
Chattanooga TN,15,2019-09-09,35.0457219,-85.3094883
Cheyenne WY,44,2019-09-09,45.2519491,-75.7306849
Chicago IL,16,2019-09-09,41.8755616,-87.6244212
Chico,21,2019-09-09,39.7284945,-121.8374777
Cincinnati OH,16,2019-09-09,39.1014537,-84.5124602
Clarksburg,23,2019-09-09,39.2806451,-80.3445341
Cleveland,16,2019-09-09,41.5051613,-81.6934446
Colorado Springs,16,2019-09-09,38.8339578,-104.8253485
Columbia SC,39,2019-09-09,34.0007493,-81.0343313
Columbia,21,2019-09-09,2.8894434,-73.783892
Columbus GA,15,2019-09-09,43.1830762,-79.8147518
Columbus OH,14,2019-09-09,39.9622601,-83.0007065
Columbus,19,2019-09-09,39.9622601,-83.0007065
Corpus Christi TX,11,2019-09-09,27.7477253,-97.4014129
Dallas,13,2019-09-09,32.7762719,-96.7968559
Davenport IA,11,2019-09-09,41.5236436,-90.5776368
Dayton OH,14,2019-09-09,39.7589478,-84.1916069
Denver CO,16,2019-09-09,39.7348381,-104.9653271
Des Moines,21,2019-09-09,41.5910641,-93.6037149
Detroit MI,14,2019-09-09,42.3315509,-83.0466403
Dothan AL,23,2019-09-09,31.2237434,-85.3933906
Duluth MN,12,2019-09-09,46.7729322,-92.1251218
El Paso TX,11,2019-09-09,31.7754152,-106.4646348
Elmira NY,22,2019-09-09,42.0897965,-76.8077338
Erie PA,21,2019-09-09,42.1294712,-80.0852695
Eugene OR,10,2019-09-09,44.0505054,-123.0950506
Eureka CA,28,2019-09-09,45.4985271,-62.6816736
Evansville IN,21,2019-09-09,4.5777639,-7.6472486
Fairbanks AK,26,2019-09-09,64.837845,-147.716675
Fargo,16,2019-09-09,46.877229,-96.789821
Flint,16,2019-09-09,43.0161693,-83.6900211
Florence,50,2019-09-09,43.7698712,11.2555757
Fresno,8,2019-09-09,36.7295295,-119.70886126075588
Ft. Myers,41,2019-09-09,26.640628,-81.8723084
Ft. Smith,14,2019-09-09,35.3872218,-94.4248983
Ft. Wayne IN,12,2019-09-09,41.0799898,-85.1386015
Gainesville FL,25,2019-09-09,29.67357765,-82.32337460192167
Grand Junction,16,2019-09-09,39.063956,-108.5507317
Grand Rapids,16,2019-09-09,42.9632405,-85.6678639
Great Falls MT,23,2019-09-09,47.5048851,-111.2918908
Green Bay,21,2019-09-09,44.5126379,-88.0125794
Greensboro,30,2019-09-09,36.0726355,-79.7919754
Greenville,51,2019-09-09,34.851354,-82.3984882
Greenville,24,2019-09-09,34.851354,-82.3984882
Harlingen,7,2019-09-09,26.1908241,-97.6959794
Harrisburg,20,2019-09-09,40.2663107,-76.8861122
Harrisonburg VA,26,2019-09-09,38.4493315,-78.8688833
Hartford,18,2019-09-09,41.764582,-72.6908547
Hattiesburg,28,2019-09-09,31.3271189,-89.2903392
Honolulu HI,16,2019-09-09,21.304547,-157.8556764
Houston TX,13,2019-09-09,29.7589382,-95.3676974
Huntsville,15,2019-09-09,34.729847,-86.5859011
Idaho Falls,22,2019-09-09,43.4935245,-112.0400919
Indianapolis IN,16,2019-09-09,39.7683331,-86.1583502
Jackson MS,17,2019-09-09,28.530801699999998,-81.30324431076107
Jackson TN,16,2019-09-09,35.6144446,-88.8177418
Jacksonville FL,46,2019-09-09,30.3321838,-81.655651
Johnstown,29,2019-09-09,40.3267407,-78.9219698
Jonesboro AR,17,2019-09-09,35.8428646,-90.7034522
Joplin MO,19,2019-09-09,37.08418,-94.51323
Juneau AK,37,2019-09-09,58.3019496,-134.419734
Kansas City MO,12,2019-09-09,39.100105,-94.5781416
Knoxville TN,16,2019-09-09,35.9603948,-83.9210261
La Crosse,18,2019-09-09,43.8014053,-91.2395429
Lafayette IN,14,2019-09-09,40.4167022,-86.8752869
Lafayette LA,10,2019-09-09,30.2240897,-92.0198427
Lake Charles LA,52,2019-09-09,30.2265949,-93.2173759
Lansing MI,20,2019-09-09,42.7338147,-84.5207088
Laredo TX,12,2019-09-09,27.5199841,-99.4953764
Las Vegas NV,12,2019-09-09,36.1672559,-115.1485163
Lexington KY,14,2019-09-09,38.0464066,-84.4970393
Lima OH,23,2019-09-09,40.7399785,-84.105006
Lincoln,13,2019-09-09,47.8299069,-118.414727
Little Rock,12,2019-09-09,34.7464809,-92.2895948
Los Angeles CA,11,2019-09-09,34.0536909,-118.2427666
Louisville KY,16,2019-09-09,38.2542376,-85.759407
Lubbock TX,17,2019-09-09,33.5635206,-101.879336
Macon GA,16,2019-09-09,32.8406946,-83.6324022
Madison WI,16,2019-09-09,43.074761,-89.3837613
Mankato MN,26,2019-09-09,44.1634663,-93.9993505
Marquette MI,30,2019-09-09,46.4481521,-87.6305899
Medford,10,2019-09-09,42.4184296,-71.1061639
Memphis TN,15,2019-09-09,35.1490215,-90.0516285
Meridian MS,29,2019-09-09,43.61732135,-116.40613112241579
Miami,54,2019-09-09,25.7742658,-80.1936589
Milwaukee WI,17,2019-09-09,43.0349931,-87.922497
Minneapolis,18,2019-09-09,44.9772995,-93.2654692
Minot,8,2019-09-09,47.6698594,4.8786165
Missoula MT,20,2019-09-09,46.8701049,-113.9952672
Mobile AL,24,2019-09-09,39.092585,-84.853229
Monroe LA,10,2019-09-09,38.2722313,-90.1792484
Monterey,11,2019-09-09,36.2231079,-121.3877428
Montgomery,26,2019-09-09,32.3669656,-86.3006485
Nashville TN,13,2019-09-09,36.1622296,-86.7743531
New Orleans LA,17,2019-09-09,29.9499323,-90.0701156
New York NY,16,2019-09-09,40.7127281,-74.0060152
Norfolk,35,2019-09-09,52.666667,1.0
North Platte NE,78,2019-09-09,41.1238873,-100.7654232
Odessa,16,2019-09-09,46.4873195,30.7392776
Oklahoma City OK,12,2019-09-09,35.4729886,-97.5170536
Omaha NE,17,2019-09-09,41.2587459,-95.9383758
Orlando,48,2019-09-09,28.5421109,-81.3790304
Ottumwa IA,29,2019-09-09,41.0200145,-92.4112963
Paducah KY,11,2019-09-09,37.0833893,-88.6000478
Palm Springs CA,26,2019-09-09,33.8246269,-116.540303
Panama City FL,73,2019-09-09,30.1600827,-85.6545729
Peoria,18,2019-09-09,40.6938609,-89.5891008
Philadelphia PA,17,2019-09-09,39.9527237,-75.1635262
Phoenix AZ,13,2019-09-09,33.4484367,-112.0741417
Pittsburgh PA,18,2019-09-09,40.4416941,-79.9900861
Portland OR,17,2019-09-09,45.5202471,-122.6741949
Portland,18,2019-09-09,45.5202471,-122.6741949
Presque Isle ME,58,2019-09-09,46.681479,-68.016357
Providence RI,16,2019-09-09,51.4325409,-2.6642358
Quincy IL,15,2019-09-09,39.9368363,-120.9471764
Raleigh,25,2019-09-09,35.7803977,-78.6390989
Rapid City SD,12,2019-09-09,44.081176,-103.228006
Reno NV,15,2019-09-09,39.5261206,-119.8126581
Richmond,19,2019-09-09,37.5385087,-77.43428
Roanoke,25,2019-09-09,37.270973,-79.9414313
Rochester MN,25,2019-09-09,44.0234387,-92.4630182
Rochester NY,17,2019-09-09,43.157285,-77.615214
Rockford IL,13,2019-09-09,42.2713945,-89.093966
Sacramento,11,2019-09-09,38.5815719,-121.4943996
Salisbury MD,13,2019-09-09,38.3662114,-75.6008881
Salt Lake City UT,13,2019-09-09,40.7596198,-111.8867975
San Angelo TX,54,2019-09-09,31.4648357,-100.4398442
San Antonio TX,15,2019-09-09,29.4246002,-98.4951405
San Diego CA,13,2019-09-09,32.7174209,-117.1627714
San Francisco,11,2019-09-09,37.7790262,-122.4199061
Santa Barbara,11,2019-09-09,34.4221319,-119.7026673
Savannah GA,69,2019-09-09,43.4129206,-79.7028276
Seattle,14,2019-09-09,47.6038321,-122.3300624
Sherman TX,19,2019-09-09,36.2452294,-101.8858689
Shreveport LA,17,2019-09-09,32.5221828,-93.7651944
Sioux City IA,25,2019-09-09,42.4966815,-96.4058782
Sioux Fall,16,2019-09-09,46.737158,-90.8801835
South Bend,18,2019-09-09,41.6833813,-86.2500066
Spokane WA,18,2019-09-09,47.6579425,-117.4212265
Springfield MO,9,2019-09-09,37.2166779,-93.2920373
Springfield,24,2019-09-09,39.7990175,-89.6439575
St. Joseph MO,59,2019-09-09,39.7686055,-94.8466322
St. Louis MO,15,2019-09-09,38.6529545,-90.24111656024635
Syracuse NY,23,2019-09-09,43.0481221,-76.1474244
Tallahassee FL,45,2019-09-09,30.4380832,-84.2809332
Tampa,36,2019-09-09,27.9477595,-82.458444
Terre Haute IN,11,2019-09-09,39.4667025,-87.4139119
Toledo OH,21,2019-09-09,41.6786754,-83.5127283
Topeka KS,20,2019-09-09,39.049011,-95.677556
Traverse City,27,2019-09-09,44.7606441,-85.6165301
Tri,15,2019-09-09,35.875259,-78.7751271
Tucson,18,2019-09-09,32.2228765,-110.9748477
Tulsa OK,14,2019-09-09,36.1556805,-95.9929113
Twin Falls ID,19,2019-09-09,42.5704219,-114.4603171
Tyler,13,2019-09-09,32.3512601,-95.3010624
Utica NY,35,2019-09-09,43.1009031,-75.2326641
Waco,12,2019-09-09,31.549333,-97.1466695
Washington DC,20,2019-09-09,38.8948932,-77.0365529
Watertown NY,20,2019-09-09,43.9747838,-75.9107565
Wausau,25,2019-09-09,44.9596017,-89.6298239
West Palm Beach,61,2019-09-09,26.7153425,-80.0533746
Wheeling WV,20,2019-09-09,40.0639616,-80.7209149
Wichita Falls TX,17,2019-09-09,33.9137085,-98.4933873
Wichita,14,2019-09-09,37.6922361,-97.3375448
Wilkes Barre,22,2019-09-09,41.2464824,-75.8817316
Wilmington NC,45,2019-09-09,34.2257282,-77.9447107
Yakima,21,2019-09-09,46.601557,-120.5108421
Youngstown OH,15,2019-09-09,41.1035786,-80.6520161
Yuma AZ,24,2019-09-09,32.6926588,-114.6276157
Abilene,14,2019-09-16,32.44645,-99.7475905
Albany GA,17,2019-09-16,51.7468576,-0.3383107
Albany,6,2019-09-16,42.6511674,-73.754968
Albuquerque,5,2019-09-16,35.0841034,-106.6509851
Amarillo TX,8,2019-09-16,35.2072185,-101.8338246
Anchorage AK,8,2019-09-16,61.2163129,-149.8948523
Atlanta GA,8,2019-09-16,33.7490987,-84.3901849
Augusta GA,14,2019-09-16,33.4709714,-81.9748429
Austin TX,7,2019-09-16,30.2711286,-97.7436995
Bakersfield CA,6,2019-09-16,35.3738712,-119.0194639
Baltimore MD,6,2019-09-16,39.2908816,-76.610759
Bangor ME,20,2019-09-16,29.0659229,-110.97133
Baton Rouge LA,9,2019-09-16,30.4459596,-91.18738
Beaumont,18,2019-09-16,30.0860459,-94.1018461
Bend OR,16,2019-09-16,44.0581728,-121.3153096
"Billings, MT",14,2019-09-16,45.7874957,-108.49607
Biloxi,11,2019-09-16,30.374673,-88.84594333482862
Binghamton NY,11,2019-09-16,42.096968,-75.914341
Birmingham AL,3,2019-09-16,33.570499,-86.765783
Boise ID,4,2019-09-16,43.6166163,-116.200886
Boston MA,4,2019-09-16,42.3602534,-71.0582912
Buffalo NY,6,2019-09-16,42.8867166,-78.8783922
Burlington VT,4,2019-09-16,44.4762975,-73.2135472
Cedar Rapids,4,2019-09-16,41.9758872,-91.6704053
Champaign,5,2019-09-16,40.1164205,-88.2433829
Charleston SC,39,2019-09-16,32.7876012,-79.9402728
Charleston,7,2019-09-16,32.7876012,-79.9402728
Charlotte NC,9,2019-09-16,35.2270869,-80.8431268
Charlottesville VA,11,2019-09-16,38.029306,-78.4766781
Chattanooga TN,7,2019-09-16,35.0457219,-85.3094883
Cheyenne WY,27,2019-09-16,45.2519491,-75.7306849
Chicago IL,4,2019-09-16,41.8755616,-87.6244212
Chico,8,2019-09-16,39.7284945,-121.8374777
Cincinnati OH,4,2019-09-16,39.1014537,-84.5124602
Clarksburg,18,2019-09-16,39.2806451,-80.3445341
Cleveland,6,2019-09-16,41.5051613,-81.6934446
Colorado Springs,9,2019-09-16,38.8339578,-104.8253485
Columbia SC,16,2019-09-16,34.0007493,-81.0343313
Columbia,7,2019-09-16,2.8894434,-73.783892
Columbus GA,6,2019-09-16,43.1830762,-79.8147518
Columbus OH,7,2019-09-16,39.9622601,-83.0007065
Corpus Christi TX,7,2019-09-16,27.7477253,-97.4014129
Dallas,5,2019-09-16,32.7762719,-96.7968559
Davenport IA,10,2019-09-16,41.5236436,-90.5776368
Dayton OH,5,2019-09-16,39.7589478,-84.1916069
Denver CO,5,2019-09-16,39.7348381,-104.9653271
Des Moines,12,2019-09-16,41.5910641,-93.6037149
Detroit MI,6,2019-09-16,42.3315509,-83.0466403
Duluth MN,17,2019-09-16,46.7729322,-92.1251218
El Paso TX,6,2019-09-16,31.7754152,-106.4646348
Elmira NY,17,2019-09-16,42.0897965,-76.8077338
Erie PA,10,2019-09-16,42.1294712,-80.0852695
Eugene OR,6,2019-09-16,44.0505054,-123.0950506
Eureka CA,22,2019-09-16,45.4985271,-62.6816736
Evansville IN,6,2019-09-16,4.5777639,-7.6472486
Fairbanks AK,30,2019-09-16,64.837845,-147.716675
Fargo,6,2019-09-16,46.877229,-96.789821
Flint,6,2019-09-16,43.0161693,-83.6900211
Florence,20,2019-09-16,43.7698712,11.2555757
Fresno,2,2019-09-16,36.7295295,-119.70886126075588
Ft. Myers,19,2019-09-16,26.640628,-81.8723084
Ft. Smith,7,2019-09-16,35.3872218,-94.4248983
Gainesville FL,19,2019-09-16,29.67357765,-82.32337460192167
Grand Junction,19,2019-09-16,39.063956,-108.5507317
Grand Rapids,7,2019-09-16,42.9632405,-85.6678639
Green Bay,4,2019-09-16,44.5126379,-88.0125794
Greensboro,7,2019-09-16,36.0726355,-79.7919754
Greenville,28,2019-09-16,34.851354,-82.3984882
Greenville,12,2019-09-16,34.851354,-82.3984882
Harlingen,3,2019-09-16,26.1908241,-97.6959794
Harrisburg,7,2019-09-16,40.2663107,-76.8861122
Harrisonburg VA,23,2019-09-16,38.4493315,-78.8688833
Hartford,6,2019-09-16,41.764582,-72.6908547
Hattiesburg,17,2019-09-16,31.3271189,-89.2903392
Helena MT,100,2019-09-16,46.5927425,-112.0362771
Honolulu HI,4,2019-09-16,21.304547,-157.8556764
Houston TX,8,2019-09-16,29.7589382,-95.3676974
Huntsville,6,2019-09-16,34.729847,-86.5859011
Idaho Falls,9,2019-09-16,43.4935245,-112.0400919
Indianapolis IN,7,2019-09-16,39.7683331,-86.1583502
Jackson MS,4,2019-09-16,28.530801699999998,-81.30324431076107
Jackson TN,20,2019-09-16,35.6144446,-88.8177418
Jacksonville FL,15,2019-09-16,30.3321838,-81.655651
Johnstown,6,2019-09-16,40.3267407,-78.9219698
Jonesboro AR,19,2019-09-16,35.8428646,-90.7034522
Joplin MO,11,2019-09-16,37.08418,-94.51323
Kansas City MO,5,2019-09-16,39.100105,-94.5781416
Knoxville TN,5,2019-09-16,35.9603948,-83.9210261
La Crosse,7,2019-09-16,43.8014053,-91.2395429
Lafayette LA,7,2019-09-16,30.2240897,-92.0198427
Lansing MI,7,2019-09-16,42.7338147,-84.5207088
Las Vegas NV,4,2019-09-16,36.1672559,-115.1485163
Lexington KY,7,2019-09-16,38.0464066,-84.4970393
Lincoln,8,2019-09-16,47.8299069,-118.414727
Little Rock,6,2019-09-16,34.7464809,-92.2895948
Los Angeles CA,3,2019-09-16,34.0536909,-118.2427666
Louisville KY,6,2019-09-16,38.2542376,-85.759407
Lubbock TX,8,2019-09-16,33.5635206,-101.879336
Macon GA,13,2019-09-16,32.8406946,-83.6324022
Madison WI,6,2019-09-16,43.074761,-89.3837613
Mankato MN,24,2019-09-16,44.1634663,-93.9993505
Marquette MI,18,2019-09-16,46.4481521,-87.6305899
Medford,8,2019-09-16,42.4184296,-71.1061639
Memphis TN,4,2019-09-16,35.1490215,-90.0516285
Meridian MS,36,2019-09-16,43.61732135,-116.40613112241579
Miami,20,2019-09-16,25.7742658,-80.1936589
Milwaukee WI,6,2019-09-16,43.0349931,-87.922497
Minneapolis,6,2019-09-16,44.9772995,-93.2654692
Minot,9,2019-09-16,47.6698594,4.8786165
Missoula MT,12,2019-09-16,46.8701049,-113.9952672
Mobile AL,12,2019-09-16,39.092585,-84.853229
Monroe LA,11,2019-09-16,38.2722313,-90.1792484
Monterey,10,2019-09-16,36.2231079,-121.3877428
Montgomery,7,2019-09-16,32.3669656,-86.3006485
Nashville TN,5,2019-09-16,36.1622296,-86.7743531
New Orleans LA,7,2019-09-16,29.9499323,-90.0701156
New York NY,4,2019-09-16,40.7127281,-74.0060152
Norfolk,11,2019-09-16,52.666667,1.0
Odessa,16,2019-09-16,46.4873195,30.7392776
Oklahoma City OK,5,2019-09-16,35.4729886,-97.5170536
Omaha NE,7,2019-09-16,41.2587459,-95.9383758
Orlando,18,2019-09-16,28.5421109,-81.3790304
Paducah KY,10,2019-09-16,37.0833893,-88.6000478
Palm Springs CA,12,2019-09-16,33.8246269,-116.540303
Panama City FL,20,2019-09-16,30.1600827,-85.6545729
Peoria,10,2019-09-16,40.6938609,-89.5891008
Philadelphia PA,6,2019-09-16,39.9527237,-75.1635262
Phoenix AZ,5,2019-09-16,33.4484367,-112.0741417
Pittsburgh PA,6,2019-09-16,40.4416941,-79.9900861
Portland OR,4,2019-09-16,45.5202471,-122.6741949
Portland,6,2019-09-16,45.5202471,-122.6741949
Providence RI,5,2019-09-16,51.4325409,-2.6642358
Raleigh,10,2019-09-16,35.7803977,-78.6390989
Reno NV,8,2019-09-16,39.5261206,-119.8126581
Richmond,4,2019-09-16,37.5385087,-77.43428
Roanoke,7,2019-09-16,37.270973,-79.9414313
Rochester MN,18,2019-09-16,44.0234387,-92.4630182
Rochester NY,3,2019-09-16,43.157285,-77.615214
Rockford IL,16,2019-09-16,42.2713945,-89.093966
Sacramento,5,2019-09-16,38.5815719,-121.4943996
Salisbury MD,12,2019-09-16,38.3662114,-75.6008881
Salt Lake City UT,5,2019-09-16,40.7596198,-111.8867975
San Angelo TX,22,2019-09-16,31.4648357,-100.4398442
San Antonio TX,7,2019-09-16,29.4246002,-98.4951405
San Diego CA,6,2019-09-16,32.7174209,-117.1627714
San Francisco,3,2019-09-16,37.7790262,-122.4199061
Santa Barbara,7,2019-09-16,34.4221319,-119.7026673
Savannah GA,22,2019-09-16,43.4129206,-79.7028276
Seattle,4,2019-09-16,47.6038321,-122.3300624
Sherman TX,13,2019-09-16,36.2452294,-101.8858689
Shreveport LA,14,2019-09-16,32.5221828,-93.7651944
Sioux Fall,7,2019-09-16,46.737158,-90.8801835
South Bend,11,2019-09-16,41.6833813,-86.2500066
Spokane WA,6,2019-09-16,47.6579425,-117.4212265
Springfield MO,4,2019-09-16,37.2166779,-93.2920373
Springfield,4,2019-09-16,39.7990175,-89.6439575
St. Louis MO,5,2019-09-16,38.6529545,-90.24111656024635
Syracuse NY,3,2019-09-16,43.0481221,-76.1474244
Tallahassee FL,11,2019-09-16,30.4380832,-84.2809332
Tampa,13,2019-09-16,27.9477595,-82.458444
Terre Haute IN,13,2019-09-16,39.4667025,-87.4139119
Toledo OH,17,2019-09-16,41.6786754,-83.5127283
Topeka KS,8,2019-09-16,39.049011,-95.677556
Traverse City,10,2019-09-16,44.7606441,-85.6165301
Tri,7,2019-09-16,35.875259,-78.7751271
Tucson,6,2019-09-16,32.2228765,-110.9748477
Tulsa OK,3,2019-09-16,36.1556805,-95.9929113
Twin Falls ID,22,2019-09-16,42.5704219,-114.4603171
Tyler,12,2019-09-16,32.3512601,-95.3010624
Victoria TX,49,2019-09-16,28.8026443,-96.9766308
Waco,7,2019-09-16,31.549333,-97.1466695
Washington DC,6,2019-09-16,38.8948932,-77.0365529
Wausau,17,2019-09-16,44.9596017,-89.6298239
West Palm Beach,35,2019-09-16,26.7153425,-80.0533746
Wheeling WV,29,2019-09-16,40.0639616,-80.7209149
Wichita Falls TX,10,2019-09-16,33.9137085,-98.4933873
Wichita,11,2019-09-16,37.6922361,-97.3375448
Wilkes Barre,5,2019-09-16,41.2464824,-75.8817316
Wilmington NC,33,2019-09-16,34.2257282,-77.9447107
Yakima,6,2019-09-16,46.601557,-120.5108421
Youngstown OH,10,2019-09-16,41.1035786,-80.6520161
Yuma AZ,12,2019-09-16,32.6926588,-114.6276157
Albany GA,43,2019-09-23,51.7468576,-0.3383107
Albany,13,2019-09-23,42.6511674,-73.754968
Albuquerque,7,2019-09-23,35.0841034,-106.6509851
Atlanta GA,9,2019-09-23,33.7490987,-84.3901849
Austin TX,7,2019-09-23,30.2711286,-97.7436995
Baltimore MD,9,2019-09-23,39.2908816,-76.610759
Bangor ME,37,2019-09-23,29.0659229,-110.97133
Baton Rouge LA,15,2019-09-23,30.4459596,-91.18738
Bend OR,30,2019-09-23,44.0581728,-121.3153096
Binghamton NY,21,2019-09-23,42.096968,-75.914341
Birmingham AL,6,2019-09-23,33.570499,-86.765783
Boise ID,8,2019-09-23,43.6166163,-116.200886
Boston MA,8,2019-09-23,42.3602534,-71.0582912
Bowling Green KY,32,2019-09-23,36.9903199,-86.4436018
Buffalo NY,11,2019-09-23,42.8867166,-78.8783922
Burlington VT,11,2019-09-23,44.4762975,-73.2135472
Cedar Rapids,7,2019-09-23,41.9758872,-91.6704053
Champaign,14,2019-09-23,40.1164205,-88.2433829
Charleston SC,37,2019-09-23,32.7876012,-79.9402728
Charlotte NC,15,2019-09-23,35.2270869,-80.8431268
Chattanooga TN,10,2019-09-23,35.0457219,-85.3094883
Cheyenne WY,50,2019-09-23,45.2519491,-75.7306849
Chicago IL,6,2019-09-23,41.8755616,-87.6244212
Cincinnati OH,8,2019-09-23,39.1014537,-84.5124602
Cleveland,5,2019-09-23,41.5051613,-81.6934446
Colorado Springs,6,2019-09-23,38.8339578,-104.8253485
Columbia SC,23,2019-09-23,34.0007493,-81.0343313
Columbus OH,5,2019-09-23,39.9622601,-83.0007065
Dallas,5,2019-09-23,32.7762719,-96.7968559
Davenport IA,9,2019-09-23,41.5236436,-90.5776368
Dayton OH,6,2019-09-23,39.7589478,-84.1916069
Denver CO,7,2019-09-23,39.7348381,-104.9653271
Des Moines,7,2019-09-23,41.5910641,-93.6037149
Detroit MI,7,2019-09-23,42.3315509,-83.0466403
Dothan AL,31,2019-09-23,31.2237434,-85.3933906
Duluth MN,51,2019-09-23,46.7729322,-92.1251218
El Paso TX,6,2019-09-23,31.7754152,-106.4646348
Erie PA,18,2019-09-23,42.1294712,-80.0852695
Eugene OR,10,2019-09-23,44.0505054,-123.0950506
Fargo,11,2019-09-23,46.877229,-96.789821
Flint,6,2019-09-23,43.0161693,-83.6900211
Florence,24,2019-09-23,43.7698712,11.2555757
Fresno,15,2019-09-23,36.7295295,-119.70886126075588
Ft. Myers,16,2019-09-23,26.640628,-81.8723084
Ft. Smith,18,2019-09-23,35.3872218,-94.4248983
Ft. Wayne IN,10,2019-09-23,41.0799898,-85.1386015
Gainesville FL,29,2019-09-23,29.67357765,-82.32337460192167
Grand Rapids,10,2019-09-23,42.9632405,-85.6678639
Green Bay,15,2019-09-23,44.5126379,-88.0125794
Greensboro,10,2019-09-23,36.0726355,-79.7919754
Greenville,44,2019-09-23,34.851354,-82.3984882
Greenville,9,2019-09-23,34.851354,-82.3984882
Harrisburg,11,2019-09-23,40.2663107,-76.8861122
Harrisonburg VA,25,2019-09-23,38.4493315,-78.8688833
Hartford,5,2019-09-23,41.764582,-72.6908547
Hattiesburg,31,2019-09-23,31.3271189,-89.2903392
Honolulu HI,5,2019-09-23,21.304547,-157.8556764
Houston TX,4,2019-09-23,29.7589382,-95.3676974
Huntsville,7,2019-09-23,34.729847,-86.5859011
Idaho Falls,18,2019-09-23,43.4935245,-112.0400919
Indianapolis IN,6,2019-09-23,39.7683331,-86.1583502
Jackson MS,8,2019-09-23,28.530801699999998,-81.30324431076107
Jacksonville FL,22,2019-09-23,30.3321838,-81.655651
Johnstown,12,2019-09-23,40.3267407,-78.9219698
Kansas City MO,4,2019-09-23,39.100105,-94.5781416
Knoxville TN,11,2019-09-23,35.9603948,-83.9210261
Lafayette IN,33,2019-09-23,40.4167022,-86.8752869
Lake Charles LA,30,2019-09-23,30.2265949,-93.2173759
Lansing MI,14,2019-09-23,42.7338147,-84.5207088
Laredo TX,27,2019-09-23,27.5199841,-99.4953764
Las Vegas NV,3,2019-09-23,36.1672559,-115.1485163
Lexington KY,8,2019-09-23,38.0464066,-84.4970393
Lincoln,12,2019-09-23,47.8299069,-118.414727
Little Rock,5,2019-09-23,34.7464809,-92.2895948
Los Angeles CA,3,2019-09-23,34.0536909,-118.2427666
Louisville KY,7,2019-09-23,38.2542376,-85.759407
Lubbock TX,15,2019-09-23,33.5635206,-101.879336
Macon GA,12,2019-09-23,32.8406946,-83.6324022
Madison WI,5,2019-09-23,43.074761,-89.3837613
Marquette MI,34,2019-09-23,46.4481521,-87.6305899
Memphis TN,8,2019-09-23,35.1490215,-90.0516285
Miami,24,2019-09-23,25.7742658,-80.1936589
Milwaukee WI,8,2019-09-23,43.0349931,-87.922497
Minneapolis,6,2019-09-23,44.9772995,-93.2654692
Missoula MT,22,2019-09-23,46.8701049,-113.9952672
Mobile AL,11,2019-09-23,39.092585,-84.853229
Montgomery,13,2019-09-23,32.3669656,-86.3006485
Nashville TN,3,2019-09-23,36.1622296,-86.7743531
New Orleans LA,6,2019-09-23,29.9499323,-90.0701156
New York NY,5,2019-09-23,40.7127281,-74.0060152
Norfolk,18,2019-09-23,52.666667,1.0
Odessa,14,2019-09-23,46.4873195,30.7392776
Oklahoma City OK,6,2019-09-23,35.4729886,-97.5170536
Omaha NE,4,2019-09-23,41.2587459,-95.9383758
Orlando,27,2019-09-23,28.5421109,-81.3790304
Palm Springs CA,34,2019-09-23,33.8246269,-116.540303
Panama City FL,19,2019-09-23,30.1600827,-85.6545729
Parkersburg WV,57,2019-09-23,39.2699565,-81.5506916
Peoria,9,2019-09-23,40.6938609,-89.5891008
Philadelphia PA,5,2019-09-23,39.9527237,-75.1635262
Phoenix AZ,5,2019-09-23,33.4484367,-112.0741417
Pittsburgh PA,7,2019-09-23,40.4416941,-79.9900861
Portland OR,4,2019-09-23,45.5202471,-122.6741949
Portland,6,2019-09-23,45.5202471,-122.6741949
Providence RI,5,2019-09-23,51.4325409,-2.6642358
Raleigh,17,2019-09-23,35.7803977,-78.6390989
Reno NV,13,2019-09-23,39.5261206,-119.8126581
Richmond,15,2019-09-23,37.5385087,-77.43428
Roanoke,9,2019-09-23,37.270973,-79.9414313
Rochester MN,17,2019-09-23,44.0234387,-92.4630182
Rochester NY,6,2019-09-23,43.157285,-77.615214
Sacramento,5,2019-09-23,38.5815719,-121.4943996
Salisbury MD,16,2019-09-23,38.3662114,-75.6008881
Salt Lake City UT,9,2019-09-23,40.7596198,-111.8867975
San Antonio TX,5,2019-09-23,29.4246002,-98.4951405
San Diego CA,5,2019-09-23,32.7174209,-117.1627714
San Francisco,4,2019-09-23,37.7790262,-122.4199061
Santa Barbara,8,2019-09-23,34.4221319,-119.7026673
Savannah GA,22,2019-09-23,43.4129206,-79.7028276
Seattle,3,2019-09-23,47.6038321,-122.3300624
Sherman TX,26,2019-09-23,36.2452294,-101.8858689
Shreveport LA,18,2019-09-23,32.5221828,-93.7651944
Sioux City IA,29,2019-09-23,42.4966815,-96.4058782
South Bend,11,2019-09-23,41.6833813,-86.2500066
Spokane WA,17,2019-09-23,47.6579425,-117.4212265
Springfield MO,10,2019-09-23,37.2166779,-93.2920373
Springfield,8,2019-09-23,39.7990175,-89.6439575
St. Louis MO,4,2019-09-23,38.6529545,-90.24111656024635
Syracuse NY,6,2019-09-23,43.0481221,-76.1474244
Tallahassee FL,12,2019-09-23,30.4380832,-84.2809332
Tampa,17,2019-09-23,27.9477595,-82.458444
Terre Haute IN,24,2019-09-23,39.4667025,-87.4139119
Toledo OH,14,2019-09-23,41.6786754,-83.5127283
Traverse City,12,2019-09-23,44.7606441,-85.6165301
Tucson,6,2019-09-23,32.2228765,-110.9748477
Tulsa OK,5,2019-09-23,36.1556805,-95.9929113
Twin Falls ID,42,2019-09-23,42.5704219,-114.4603171
Tyler,11,2019-09-23,32.3512601,-95.3010624
Utica NY,40,2019-09-23,43.1009031,-75.2326641
Waco,11,2019-09-23,31.549333,-97.1466695
Washington DC,7,2019-09-23,38.8948932,-77.0365529
Watertown NY,29,2019-09-23,43.9747838,-75.9107565
Wausau,31,2019-09-23,44.9596017,-89.6298239
West Palm Beach,39,2019-09-23,26.7153425,-80.0533746
Wheeling WV,27,2019-09-23,40.0639616,-80.7209149
Wichita,8,2019-09-23,37.6922361,-97.3375448
Wilkes Barre,8,2019-09-23,41.2464824,-75.8817316
Wilmington NC,49,2019-09-23,34.2257282,-77.9447107
Youngstown OH,17,2019-09-23,41.1035786,-80.6520161
Yuma AZ,32,2019-09-23,32.6926588,-114.6276157
Zanesville OH,100,2019-09-23,39.9403453,-82.0131924
Albany,2,2019-09-30,42.6511674,-73.754968
Albuquerque,5,2019-09-30,35.0841034,-106.6509851
Atlanta GA,3,2019-09-30,33.7490987,-84.3901849
Augusta GA,6,2019-09-30,33.4709714,-81.9748429
Austin TX,2,2019-09-30,30.2711286,-97.7436995
Baltimore MD,4,2019-09-30,39.2908816,-76.610759
Bangor ME,11,2019-09-30,29.0659229,-110.97133
Bend OR,50,2019-09-30,44.0581728,-121.3153096
"Billings, MT",15,2019-09-30,45.7874957,-108.49607
Biloxi,21,2019-09-30,30.374673,-88.84594333482862
Binghamton NY,11,2019-09-30,42.096968,-75.914341
Birmingham AL,3,2019-09-30,33.570499,-86.765783
Boise ID,8,2019-09-30,43.6166163,-116.200886
Boston MA,2,2019-09-30,42.3602534,-71.0582912
Cedar Rapids,4,2019-09-30,41.9758872,-91.6704053
Champaign,4,2019-09-30,40.1164205,-88.2433829
Charleston SC,12,2019-09-30,32.7876012,-79.9402728
Charleston,9,2019-09-30,32.7876012,-79.9402728
Charlotte NC,4,2019-09-30,35.2270869,-80.8431268
Chattanooga TN,4,2019-09-30,35.0457219,-85.3094883
Chicago IL,2,2019-09-30,41.8755616,-87.6244212
Cincinnati OH,2,2019-09-30,39.1014537,-84.5124602
Cleveland,1,2019-09-30,41.5051613,-81.6934446
Colorado Springs,3,2019-09-30,38.8339578,-104.8253485
Columbia SC,5,2019-09-30,34.0007493,-81.0343313
Columbia,8,2019-09-30,2.8894434,-73.783892
Columbus OH,4,2019-09-30,39.9622601,-83.0007065
Dallas,2,2019-09-30,32.7762719,-96.7968559
Davenport IA,5,2019-09-30,41.5236436,-90.5776368
Dayton OH,5,2019-09-30,39.7589478,-84.1916069
Denver CO,3,2019-09-30,39.7348381,-104.9653271
Des Moines,5,2019-09-30,41.5910641,-93.6037149
Detroit MI,2,2019-09-30,42.3315509,-83.0466403
Dothan AL,17,2019-09-30,31.2237434,-85.3933906
Duluth MN,9,2019-09-30,46.7729322,-92.1251218
El Paso TX,9,2019-09-30,31.7754152,-106.4646348
Eugene OR,6,2019-09-30,44.0505054,-123.0950506
Evansville IN,6,2019-09-30,4.5777639,-7.6472486
Fargo,6,2019-09-30,46.877229,-96.789821
Flint,4,2019-09-30,43.0161693,-83.6900211
Florence,11,2019-09-30,43.7698712,11.2555757
Fresno,2,2019-09-30,36.7295295,-119.70886126075588
Ft. Myers,9,2019-09-30,26.640628,-81.8723084
Ft. Smith,4,2019-09-30,35.3872218,-94.4248983
Ft. Wayne IN,11,2019-09-30,41.0799898,-85.1386015
Gainesville FL,8,2019-09-30,29.67357765,-82.32337460192167
Grand Rapids,2,2019-09-30,42.9632405,-85.6678639
Green Bay,7,2019-09-30,44.5126379,-88.0125794
Greensboro,4,2019-09-30,36.0726355,-79.7919754
Greenville,6,2019-09-30,34.851354,-82.3984882
Greenville,6,2019-09-30,34.851354,-82.3984882
Harrisburg,6,2019-09-30,40.2663107,-76.8861122
Hartford,3,2019-09-30,41.764582,-72.6908547
Honolulu HI,3,2019-09-30,21.304547,-157.8556764
Houston TX,2,2019-09-30,29.7589382,-95.3676974
Huntsville,4,2019-09-30,34.729847,-86.5859011
Indianapolis IN,2,2019-09-30,39.7683331,-86.1583502
Jackson MS,4,2019-09-30,28.530801699999998,-81.30324431076107
Jacksonville FL,6,2019-09-30,30.3321838,-81.655651
Johnstown,7,2019-09-30,40.3267407,-78.9219698
Kansas City MO,2,2019-09-30,39.100105,-94.5781416
Knoxville TN,3,2019-09-30,35.9603948,-83.9210261
La Crosse,7,2019-09-30,43.8014053,-91.2395429
Las Vegas NV,3,2019-09-30,36.1672559,-115.1485163
Lexington KY,6,2019-09-30,38.0464066,-84.4970393
Lincoln,5,2019-09-30,47.8299069,-118.414727
Little Rock,3,2019-09-30,34.7464809,-92.2895948
Los Angeles CA,1,2019-09-30,34.0536909,-118.2427666
Louisville KY,3,2019-09-30,38.2542376,-85.759407
Macon GA,7,2019-09-30,32.8406946,-83.6324022
Madison WI,3,2019-09-30,43.074761,-89.3837613
Medford,9,2019-09-30,42.4184296,-71.1061639
Miami,7,2019-09-30,25.7742658,-80.1936589
Milwaukee WI,3,2019-09-30,43.0349931,-87.922497
Minneapolis,2,2019-09-30,44.9772995,-93.2654692
Mobile AL,2,2019-09-30,39.092585,-84.853229
Nashville TN,4,2019-09-30,36.1622296,-86.7743531
New Orleans LA,2,2019-09-30,29.9499323,-90.0701156
New York NY,2,2019-09-30,40.7127281,-74.0060152
Norfolk,7,2019-09-30,52.666667,1.0
North Platte NE,100,2019-09-30,41.1238873,-100.7654232
Oklahoma City OK,2,2019-09-30,35.4729886,-97.5170536
Omaha NE,2,2019-09-30,41.2587459,-95.9383758
Orlando,9,2019-09-30,28.5421109,-81.3790304
Paducah KY,10,2019-09-30,37.0833893,-88.6000478
Panama City FL,16,2019-09-30,30.1600827,-85.6545729
Philadelphia PA,2,2019-09-30,39.9527237,-75.1635262
Phoenix AZ,2,2019-09-30,33.4484367,-112.0741417
Pittsburgh PA,2,2019-09-30,40.4416941,-79.9900861
Portland OR,2,2019-09-30,45.5202471,-122.6741949
Presque Isle ME,79,2019-09-30,46.681479,-68.016357
Providence RI,3,2019-09-30,51.4325409,-2.6642358
Quincy IL,19,2019-09-30,39.9368363,-120.9471764
Raleigh,6,2019-09-30,35.7803977,-78.6390989
Rapid City SD,25,2019-09-30,44.081176,-103.228006
Reno NV,5,2019-09-30,39.5261206,-119.8126581
Richmond,4,2019-09-30,37.5385087,-77.43428
Roanoke,4,2019-09-30,37.270973,-79.9414313
Rochester NY,3,2019-09-30,43.157285,-77.615214
Rockford IL,8,2019-09-30,42.2713945,-89.093966
Sacramento,2,2019-09-30,38.5815719,-121.4943996
Salisbury MD,9,2019-09-30,38.3662114,-75.6008881
Salt Lake City UT,2,2019-09-30,40.7596198,-111.8867975
San Angelo TX,22,2019-09-30,31.4648357,-100.4398442
San Antonio TX,2,2019-09-30,29.4246002,-98.4951405
San Diego CA,2,2019-09-30,32.7174209,-117.1627714
San Francisco,1,2019-09-30,37.7790262,-122.4199061
Santa Barbara,5,2019-09-30,34.4221319,-119.7026673
Savannah GA,11,2019-09-30,43.4129206,-79.7028276
Seattle,2,2019-09-30,47.6038321,-122.3300624
Shreveport LA,6,2019-09-30,32.5221828,-93.7651944
Sioux City IA,11,2019-09-30,42.4966815,-96.4058782
Sioux Fall,6,2019-09-30,46.737158,-90.8801835
South Bend,7,2019-09-30,41.6833813,-86.2500066
Spokane WA,3,2019-09-30,47.6579425,-117.4212265
Springfield MO,4,2019-09-30,37.2166779,-93.2920373
Springfield,9,2019-09-30,39.7990175,-89.6439575
St. Louis MO,2,2019-09-30,38.6529545,-90.24111656024635
Syracuse NY,6,2019-09-30,43.0481221,-76.1474244
Tallahassee FL,6,2019-09-30,30.4380832,-84.2809332
Tampa,7,2019-09-30,27.9477595,-82.458444
Toledo OH,5,2019-09-30,41.6786754,-83.5127283
Topeka KS,16,2019-09-30,39.049011,-95.677556
Tucson,3,2019-09-30,32.2228765,-110.9748477
Tulsa OK,3,2019-09-30,36.1556805,-95.9929113
Waco,3,2019-09-30,31.549333,-97.1466695
Washington DC,3,2019-09-30,38.8948932,-77.0365529
Watertown NY,16,2019-09-30,43.9747838,-75.9107565
Wausau,9,2019-09-30,44.9596017,-89.6298239
West Palm Beach,13,2019-09-30,26.7153425,-80.0533746
Wheeling WV,15,2019-09-30,40.0639616,-80.7209149
Wichita,6,2019-09-30,37.6922361,-97.3375448
Wilkes Barre,4,2019-09-30,41.2464824,-75.8817316
Wilmington NC,11,2019-09-30,34.2257282,-77.9447107
Yakima,6,2019-09-30,46.601557,-120.5108421
Youngstown OH,6,2019-09-30,41.1035786,-80.6520161
Albany GA,22,2019-10-07,51.7468576,-0.3383107
Albuquerque,3,2019-10-07,35.0841034,-106.6509851
Atlanta GA,5,2019-10-07,33.7490987,-84.3901849
Augusta GA,10,2019-10-07,33.4709714,-81.9748429
Austin TX,4,2019-10-07,30.2711286,-97.7436995
Baltimore MD,3,2019-10-07,39.2908816,-76.610759
Baton Rouge LA,15,2019-10-07,30.4459596,-91.18738
Beaumont,18,2019-10-07,30.0860459,-94.1018461
Binghamton NY,20,2019-10-07,42.096968,-75.914341
Birmingham AL,5,2019-10-07,33.570499,-86.765783
Boston MA,4,2019-10-07,42.3602534,-71.0582912
Buffalo NY,4,2019-10-07,42.8867166,-78.8783922
Casper,53,2019-10-07,42.866632,-106.313081
Cedar Rapids,7,2019-10-07,41.9758872,-91.6704053
Charleston SC,15,2019-10-07,32.7876012,-79.9402728
Charleston,8,2019-10-07,32.7876012,-79.9402728
Charlotte NC,7,2019-10-07,35.2270869,-80.8431268
Chattanooga TN,7,2019-10-07,35.0457219,-85.3094883
Chicago IL,3,2019-10-07,41.8755616,-87.6244212
Chico,14,2019-10-07,39.7284945,-121.8374777
Cincinnati OH,4,2019-10-07,39.1014537,-84.5124602
Cleveland,4,2019-10-07,41.5051613,-81.6934446
Colorado Springs,6,2019-10-07,38.8339578,-104.8253485
Columbia SC,9,2019-10-07,34.0007493,-81.0343313
Columbia,29,2019-10-07,2.8894434,-73.783892
Columbus GA,12,2019-10-07,43.1830762,-79.8147518
Columbus OH,3,2019-10-07,39.9622601,-83.0007065
Dallas,3,2019-10-07,32.7762719,-96.7968559
Davenport IA,10,2019-10-07,41.5236436,-90.5776368
Dayton OH,6,2019-10-07,39.7589478,-84.1916069
Denver CO,4,2019-10-07,39.7348381,-104.9653271
Des Moines,5,2019-10-07,41.5910641,-93.6037149
Detroit MI,2,2019-10-07,42.3315509,-83.0466403
Dothan AL,63,2019-10-07,31.2237434,-85.3933906
Duluth MN,17,2019-10-07,46.7729322,-92.1251218
Erie PA,19,2019-10-07,42.1294712,-80.0852695
Evansville IN,12,2019-10-07,4.5777639,-7.6472486
Fargo,20,2019-10-07,46.877229,-96.789821
Flint,7,2019-10-07,43.0161693,-83.6900211
Florence,19,2019-10-07,43.7698712,11.2555757
Fresno,6,2019-10-07,36.7295295,-119.70886126075588
Ft. Myers,18,2019-10-07,26.640628,-81.8723084
Ft. Smith,8,2019-10-07,35.3872218,-94.4248983
Gainesville FL,24,2019-10-07,29.67357765,-82.32337460192167
Grand Junction,36,2019-10-07,39.063956,-108.5507317
Grand Rapids,6,2019-10-07,42.9632405,-85.6678639
Green Bay,8,2019-10-07,44.5126379,-88.0125794
Greensboro,6,2019-10-07,36.0726355,-79.7919754
Greenville,27,2019-10-07,34.851354,-82.3984882
Greenville,6,2019-10-07,34.851354,-82.3984882
Harlingen,5,2019-10-07,26.1908241,-97.6959794
Harrisburg,3,2019-10-07,40.2663107,-76.8861122
Harrisonburg VA,25,2019-10-07,38.4493315,-78.8688833
Hartford,5,2019-10-07,41.764582,-72.6908547
Houston TX,2,2019-10-07,29.7589382,-95.3676974
Huntsville,7,2019-10-07,34.729847,-86.5859011
Idaho Falls,18,2019-10-07,43.4935245,-112.0400919
Indianapolis IN,6,2019-10-07,39.7683331,-86.1583502
Jackson MS,12,2019-10-07,28.530801699999998,-81.30324431076107
Jacksonville FL,14,2019-10-07,30.3321838,-81.655651
Johnstown,8,2019-10-07,40.3267407,-78.9219698
Jonesboro AR,37,2019-10-07,35.8428646,-90.7034522
Kansas City MO,4,2019-10-07,39.100105,-94.5781416
Knoxville TN,5,2019-10-07,35.9603948,-83.9210261
La Crosse,12,2019-10-07,43.8014053,-91.2395429
Lansing MI,9,2019-10-07,42.7338147,-84.5207088
Las Vegas NV,2,2019-10-07,36.1672559,-115.1485163
Lexington KY,8,2019-10-07,38.0464066,-84.4970393
Little Rock,7,2019-10-07,34.7464809,-92.2895948
Los Angeles CA,2,2019-10-07,34.0536909,-118.2427666
Louisville KY,4,2019-10-07,38.2542376,-85.759407
Lubbock TX,15,2019-10-07,33.5635206,-101.879336
Macon GA,12,2019-10-07,32.8406946,-83.6324022
Madison WI,8,2019-10-07,43.074761,-89.3837613
Medford,16,2019-10-07,42.4184296,-71.1061639
Memphis TN,4,2019-10-07,35.1490215,-90.0516285
Miami,14,2019-10-07,25.7742658,-80.1936589
Milwaukee WI,3,2019-10-07,43.0349931,-87.922497
Minneapolis,4,2019-10-07,44.9772995,-93.2654692
Mobile AL,6,2019-10-07,39.092585,-84.853229
Monterey,9,2019-10-07,36.2231079,-121.3877428
Montgomery,13,2019-10-07,32.3669656,-86.3006485
Nashville TN,2,2019-10-07,36.1622296,-86.7743531
New Orleans LA,3,2019-10-07,29.9499323,-90.0701156
New York NY,3,2019-10-07,40.7127281,-74.0060152
Norfolk,13,2019-10-07,52.666667,1.0
Omaha NE,4,2019-10-07,41.2587459,-95.9383758
Orlando,10,2019-10-07,28.5421109,-81.3790304
Paducah KY,9,2019-10-07,37.0833893,-88.6000478
Panama City FL,26,2019-10-07,30.1600827,-85.6545729
Philadelphia PA,3,2019-10-07,39.9527237,-75.1635262
Phoenix AZ,3,2019-10-07,33.4484367,-112.0741417
Pittsburgh PA,6,2019-10-07,40.4416941,-79.9900861
Portland OR,2,2019-10-07,45.5202471,-122.6741949
Portland,6,2019-10-07,45.5202471,-122.6741949
Providence RI,5,2019-10-07,51.4325409,-2.6642358
Raleigh,9,2019-10-07,35.7803977,-78.6390989
Rapid City SD,30,2019-10-07,44.081176,-103.228006
Richmond,7,2019-10-07,37.5385087,-77.43428
Roanoke,8,2019-10-07,37.270973,-79.9414313
Rochester NY,6,2019-10-07,43.157285,-77.615214
Sacramento,2,2019-10-07,38.5815719,-121.4943996
Salisbury MD,16,2019-10-07,38.3662114,-75.6008881
Salt Lake City UT,5,2019-10-07,40.7596198,-111.8867975
San Antonio TX,2,2019-10-07,29.4246002,-98.4951405
San Diego CA,2,2019-10-07,32.7174209,-117.1627714
San Francisco,2,2019-10-07,37.7790262,-122.4199061
Santa Barbara,8,2019-10-07,34.4221319,-119.7026673
Savannah GA,16,2019-10-07,43.4129206,-79.7028276
Seattle,3,2019-10-07,47.6038321,-122.3300624
Sioux City IA,19,2019-10-07,42.4966815,-96.4058782
Spokane WA,6,2019-10-07,47.6579425,-117.4212265
Springfield MO,14,2019-10-07,37.2166779,-93.2920373
Springfield,8,2019-10-07,39.7990175,-89.6439575
St. Louis MO,2,2019-10-07,38.6529545,-90.24111656024635
Syracuse NY,6,2019-10-07,43.0481221,-76.1474244
Tallahassee FL,18,2019-10-07,30.4380832,-84.2809332
Tampa,9,2019-10-07,27.9477595,-82.458444
Toledo OH,6,2019-10-07,41.6786754,-83.5127283
Topeka KS,15,2019-10-07,39.049011,-95.677556
Tulsa OK,5,2019-10-07,36.1556805,-95.9929113
Tyler,11,2019-10-07,32.3512601,-95.3010624
Waco,11,2019-10-07,31.549333,-97.1466695
Washington DC,5,2019-10-07,38.8948932,-77.0365529
Wausau,16,2019-10-07,44.9596017,-89.6298239
West Palm Beach,11,2019-10-07,26.7153425,-80.0533746
Wichita Falls TX,19,2019-10-07,33.9137085,-98.4933873
Wichita,19,2019-10-07,37.6922361,-97.3375448
Wilkes Barre,10,2019-10-07,41.2464824,-75.8817316
Wilmington NC,33,2019-10-07,34.2257282,-77.9447107
Yakima,10,2019-10-07,46.601557,-120.5108421
Zanesville OH,100,2019-10-07,39.9403453,-82.0131924
Albuquerque,2,2019-10-14,35.0841034,-106.6509851
Alpena MI,100,2019-10-14,45.0176181,-83.6670019
Atlanta GA,2,2019-10-14,33.7490987,-84.3901849
Augusta GA,5,2019-10-14,33.4709714,-81.9748429
Austin TX,1,2019-10-14,30.2711286,-97.7436995
Baltimore MD,2,2019-10-14,39.2908816,-76.610759
Bangor ME,9,2019-10-14,29.0659229,-110.97133
Birmingham AL,1,2019-10-14,33.570499,-86.765783
Boise ID,3,2019-10-14,43.6166163,-116.200886
Boston MA,1,2019-10-14,42.3602534,-71.0582912
Buffalo NY,2,2019-10-14,42.8867166,-78.8783922
Butte,14,2019-10-14,39.6519275,-121.5858444
Cedar Rapids,3,2019-10-14,41.9758872,-91.6704053
Charleston SC,9,2019-10-14,32.7876012,-79.9402728
Charlotte NC,1,2019-10-14,35.2270869,-80.8431268
Chattanooga TN,3,2019-10-14,35.0457219,-85.3094883
Chicago IL,1,2019-10-14,41.8755616,-87.6244212
Chico,6,2019-10-14,39.7284945,-121.8374777
Cincinnati OH,1,2019-10-14,39.1014537,-84.5124602
Cleveland,2,2019-10-14,41.5051613,-81.6934446
Colorado Springs,3,2019-10-14,38.8339578,-104.8253485
Columbia SC,4,2019-10-14,34.0007493,-81.0343313
Columbus GA,5,2019-10-14,43.1830762,-79.8147518
Columbus OH,2,2019-10-14,39.9622601,-83.0007065
Corpus Christi TX,5,2019-10-14,27.7477253,-97.4014129
Dallas,1,2019-10-14,32.7762719,-96.7968559
Davenport IA,4,2019-10-14,41.5236436,-90.5776368
Dayton OH,3,2019-10-14,39.7589478,-84.1916069
Des Moines,4,2019-10-14,41.5910641,-93.6037149
El Paso TX,3,2019-10-14,31.7754152,-106.4646348
Erie PA,8,2019-10-14,42.1294712,-80.0852695
Eugene OR,4,2019-10-14,44.0505054,-123.0950506
Evansville IN,5,2019-10-14,4.5777639,-7.6472486
Fargo,5,2019-10-14,46.877229,-96.789821
Florence,8,2019-10-14,43.7698712,11.2555757
Ft. Myers,5,2019-10-14,26.640628,-81.8723084
Grand Junction,16,2019-10-14,39.063956,-108.5507317
Grand Rapids,2,2019-10-14,42.9632405,-85.6678639
Green Bay,3,2019-10-14,44.5126379,-88.0125794
Greensboro,4,2019-10-14,36.0726355,-79.7919754
Greenville,10,2019-10-14,34.851354,-82.3984882
Greenville,3,2019-10-14,34.851354,-82.3984882
Harlingen,4,2019-10-14,26.1908241,-97.6959794
Hartford,1,2019-10-14,41.764582,-72.6908547
Honolulu HI,2,2019-10-14,21.304547,-157.8556764
Huntsville,3,2019-10-14,34.729847,-86.5859011
Indianapolis IN,1,2019-10-14,39.7683331,-86.1583502
Jackson MS,7,2019-10-14,28.530801699999998,-81.30324431076107
Jackson TN,16,2019-10-14,35.6144446,-88.8177418
Jacksonville FL,7,2019-10-14,30.3321838,-81.655651
Kansas City MO,2,2019-10-14,39.100105,-94.5781416
Knoxville TN,2,2019-10-14,35.9603948,-83.9210261
La Crosse,5,2019-10-14,43.8014053,-91.2395429
Lafayette LA,6,2019-10-14,30.2240897,-92.0198427
Las Vegas NV,2,2019-10-14,36.1672559,-115.1485163
Lexington KY,2,2019-10-14,38.0464066,-84.4970393
Lincoln,4,2019-10-14,47.8299069,-118.414727
Little Rock,2,2019-10-14,34.7464809,-92.2895948
Los Angeles CA,1,2019-10-14,34.0536909,-118.2427666
Lubbock TX,13,2019-10-14,33.5635206,-101.879336
Macon GA,5,2019-10-14,32.8406946,-83.6324022
Madison WI,5,2019-10-14,43.074761,-89.3837613
Mankato MN,21,2019-10-14,44.1634663,-93.9993505
Memphis TN,2,2019-10-14,35.1490215,-90.0516285
Miami,6,2019-10-14,25.7742658,-80.1936589
Milwaukee WI,2,2019-10-14,43.0349931,-87.922497
Minneapolis,2,2019-10-14,44.9772995,-93.2654692
Mobile AL,4,2019-10-14,39.092585,-84.853229
Nashville TN,1,2019-10-14,36.1622296,-86.7743531
New Orleans LA,2,2019-10-14,29.9499323,-90.0701156
New York NY,1,2019-10-14,40.7127281,-74.0060152
Norfolk,5,2019-10-14,52.666667,1.0
Oklahoma City OK,2,2019-10-14,35.4729886,-97.5170536
Omaha NE,2,2019-10-14,41.2587459,-95.9383758
Orlando,5,2019-10-14,28.5421109,-81.3790304
Ottumwa IA,30,2019-10-14,41.0200145,-92.4112963
Paducah KY,4,2019-10-14,37.0833893,-88.6000478
Panama City FL,11,2019-10-14,30.1600827,-85.6545729
Peoria,4,2019-10-14,40.6938609,-89.5891008
Philadelphia PA,1,2019-10-14,39.9527237,-75.1635262
Pittsburgh PA,1,2019-10-14,40.4416941,-79.9900861
Portland OR,1,2019-10-14,45.5202471,-122.6741949
Providence RI,2,2019-10-14,51.4325409,-2.6642358
Raleigh,2,2019-10-14,35.7803977,-78.6390989
Reno NV,4,2019-10-14,39.5261206,-119.8126581
Richmond,2,2019-10-14,37.5385087,-77.43428
Roanoke,2,2019-10-14,37.270973,-79.9414313
Rochester MN,8,2019-10-14,44.0234387,-92.4630182
Rochester NY,4,2019-10-14,43.157285,-77.615214
Sacramento,1,2019-10-14,38.5815719,-121.4943996
Salisbury MD,7,2019-10-14,38.3662114,-75.6008881
Salt Lake City UT,2,2019-10-14,40.7596198,-111.8867975
San Antonio TX,2,2019-10-14,29.4246002,-98.4951405
San Diego CA,1,2019-10-14,32.7174209,-117.1627714
San Francisco,1,2019-10-14,37.7790262,-122.4199061
Savannah GA,7,2019-10-14,43.4129206,-79.7028276
Shreveport LA,8,2019-10-14,32.5221828,-93.7651944
Sioux Fall,5,2019-10-14,46.737158,-90.8801835
South Bend,4,2019-10-14,41.6833813,-86.2500066
Spokane WA,2,2019-10-14,47.6579425,-117.4212265
Springfield,4,2019-10-14,39.7990175,-89.6439575
St. Louis MO,2,2019-10-14,38.6529545,-90.24111656024635
Syracuse NY,3,2019-10-14,43.0481221,-76.1474244
Tallahassee FL,8,2019-10-14,30.4380832,-84.2809332
Tampa,5,2019-10-14,27.9477595,-82.458444
Traverse City,6,2019-10-14,44.7606441,-85.6165301
Tri,9,2019-10-14,35.875259,-78.7751271
Tyler,5,2019-10-14,32.3512601,-95.3010624
Waco,3,2019-10-14,31.549333,-97.1466695
Washington DC,1,2019-10-14,38.8948932,-77.0365529
Wausau,7,2019-10-14,44.9596017,-89.6298239
West Palm Beach,8,2019-10-14,26.7153425,-80.0533746
Wheeling WV,12,2019-10-14,40.0639616,-80.7209149
Wichita,3,2019-10-14,37.6922361,-97.3375448
Wilkes Barre,3,2019-10-14,41.2464824,-75.8817316
Wilmington NC,11,2019-10-14,34.2257282,-77.9447107
Abilene,64,2019-10-21,32.44645,-99.7475905
Albany GA,53,2019-10-21,51.7468576,-0.3383107
Albany,14,2019-10-21,42.6511674,-73.754968
Alexandria LA,100,2019-10-21,31.199004,29.894378
Atlanta GA,7,2019-10-21,33.7490987,-84.3901849
Augusta GA,25,2019-10-21,33.4709714,-81.9748429
Austin TX,9,2019-10-21,30.2711286,-97.7436995
Baltimore MD,5,2019-10-21,39.2908816,-76.610759
Baton Rouge LA,18,2019-10-21,30.4459596,-91.18738
Bend OR,75,2019-10-21,44.0581728,-121.3153096
Birmingham AL,8,2019-10-21,33.570499,-86.765783
Boise ID,18,2019-10-21,43.6166163,-116.200886
Boston MA,3,2019-10-21,42.3602534,-71.0582912
Buffalo NY,8,2019-10-21,42.8867166,-78.8783922
Charleston SC,21,2019-10-21,32.7876012,-79.9402728
Charleston,19,2019-10-21,32.7876012,-79.9402728
Charlotte NC,19,2019-10-21,35.2270869,-80.8431268
Charlottesville VA,51,2019-10-21,38.029306,-78.4766781
Chicago IL,5,2019-10-21,41.8755616,-87.6244212
Cincinnati OH,11,2019-10-21,39.1014537,-84.5124602
Cleveland,7,2019-10-21,41.5051613,-81.6934446
Columbia SC,21,2019-10-21,34.0007493,-81.0343313
Columbia,36,2019-10-21,2.8894434,-73.783892
Columbus GA,28,2019-10-21,43.1830762,-79.8147518
Columbus OH,5,2019-10-21,39.9622601,-83.0007065
Dallas,4,2019-10-21,32.7762719,-96.7968559
Denver CO,5,2019-10-21,39.7348381,-104.9653271
Detroit MI,5,2019-10-21,42.3315509,-83.0466403
Erie PA,43,2019-10-21,42.1294712,-80.0852695
Eugene OR,24,2019-10-21,44.0505054,-123.0950506
Fargo,26,2019-10-21,46.877229,-96.789821
Florence,51,2019-10-21,43.7698712,11.2555757
Ft. Myers,16,2019-10-21,26.640628,-81.8723084
Ft. Wayne IN,24,2019-10-21,41.0799898,-85.1386015
Gainesville FL,34,2019-10-21,29.67357765,-82.32337460192167
Grand Rapids,14,2019-10-21,42.9632405,-85.6678639
Green Bay,14,2019-10-21,44.5126379,-88.0125794
Greensboro,9,2019-10-21,36.0726355,-79.7919754
Greenville,42,2019-10-21,34.851354,-82.3984882
Greenville,7,2019-10-21,34.851354,-82.3984882
Harrisburg,8,2019-10-21,40.2663107,-76.8861122
Harrisonburg VA,59,2019-10-21,38.4493315,-78.8688833
Hartford,8,2019-10-21,41.764582,-72.6908547
Houston TX,3,2019-10-21,29.7589382,-95.3676974
Huntsville,16,2019-10-21,34.729847,-86.5859011
Indianapolis IN,7,2019-10-21,39.7683331,-86.1583502
Jackson MS,19,2019-10-21,28.530801699999998,-81.30324431076107
Jacksonville FL,15,2019-10-21,30.3321838,-81.655651
Kansas City MO,5,2019-10-21,39.100105,-94.5781416
Knoxville TN,17,2019-10-21,35.9603948,-83.9210261
Lafayette IN,83,2019-10-21,40.4167022,-86.8752869
Lafayette LA,32,2019-10-21,30.2240897,-92.0198427
Las Vegas NV,6,2019-10-21,36.1672559,-115.1485163
Lexington KY,13,2019-10-21,38.0464066,-84.4970393
Little Rock,12,2019-10-21,34.7464809,-92.2895948
Los Angeles CA,3,2019-10-21,34.0536909,-118.2427666
Louisville KY,9,2019-10-21,38.2542376,-85.759407
Macon GA,57,2019-10-21,32.8406946,-83.6324022
Madison WI,13,2019-10-21,43.074761,-89.3837613
Marquette MI,83,2019-10-21,46.4481521,-87.6305899
Medford,39,2019-10-21,42.4184296,-71.1061639
Memphis TN,10,2019-10-21,35.1490215,-90.0516285
Miami,22,2019-10-21,25.7742658,-80.1936589
Milwaukee WI,11,2019-10-21,43.0349931,-87.922497
Minneapolis,8,2019-10-21,44.9772995,-93.2654692
Mobile AL,11,2019-10-21,39.092585,-84.853229
Monroe LA,51,2019-10-21,38.2722313,-90.1792484
Monterey,21,2019-10-21,36.2231079,-121.3877428
Nashville TN,4,2019-10-21,36.1622296,-86.7743531
New York NY,4,2019-10-21,40.7127281,-74.0060152
Norfolk,17,2019-10-21,52.666667,1.0
Odessa,34,2019-10-21,46.4873195,30.7392776
Omaha NE,10,2019-10-21,41.2587459,-95.9383758
Orlando,24,2019-10-21,28.5421109,-81.3790304
Panama City FL,47,2019-10-21,30.1600827,-85.6545729
Peoria,23,2019-10-21,40.6938609,-89.5891008
Philadelphia PA,3,2019-10-21,39.9527237,-75.1635262
Phoenix AZ,7,2019-10-21,33.4484367,-112.0741417
Pittsburgh PA,10,2019-10-21,40.4416941,-79.9900861
Portland OR,4,2019-10-21,45.5202471,-122.6741949
Portland,21,2019-10-21,45.5202471,-122.6741949
Providence RI,8,2019-10-21,51.4325409,-2.6642358
Raleigh,9,2019-10-21,35.7803977,-78.6390989
Rapid City SD,71,2019-10-21,44.081176,-103.228006
Reno NV,21,2019-10-21,39.5261206,-119.8126581
Richmond,9,2019-10-21,37.5385087,-77.43428
Rochester NY,13,2019-10-21,43.157285,-77.615214
Sacramento,3,2019-10-21,38.5815719,-121.4943996
Salisbury MD,39,2019-10-21,38.3662114,-75.6008881
San Diego CA,6,2019-10-21,32.7174209,-117.1627714
San Francisco,3,2019-10-21,37.7790262,-122.4199061
Savannah GA,32,2019-10-21,43.4129206,-79.7028276
Seattle,7,2019-10-21,47.6038321,-122.3300624
Shreveport LA,21,2019-10-21,32.5221828,-93.7651944
Sioux City IA,47,2019-10-21,42.4966815,-96.4058782
Springfield MO,16,2019-10-21,37.2166779,-93.2920373
Syracuse NY,15,2019-10-21,43.0481221,-76.1474244
Tallahassee FL,43,2019-10-21,30.4380832,-84.2809332
Tampa,20,2019-10-21,27.9477595,-82.458444
Tulsa OK,11,2019-10-21,36.1556805,-95.9929113
Waco,14,2019-10-21,31.549333,-97.1466695
Washington DC,6,2019-10-21,38.8948932,-77.0365529
Wausau,39,2019-10-21,44.9596017,-89.6298239
West Palm Beach,32,2019-10-21,26.7153425,-80.0533746
Wichita Falls TX,45,2019-10-21,33.9137085,-98.4933873
Wilkes Barre,12,2019-10-21,41.2464824,-75.8817316
Wilmington NC,30,2019-10-21,34.2257282,-77.9447107
Yakima,25,2019-10-21,46.601557,-120.5108421
Albuquerque,5,2019-10-28,35.0841034,-106.6509851
Atlanta GA,4,2019-10-28,33.7490987,-84.3901849
Augusta GA,16,2019-10-28,33.4709714,-81.9748429
Austin TX,3,2019-10-28,30.2711286,-97.7436995
Baltimore MD,4,2019-10-28,39.2908816,-76.610759
Baton Rouge LA,18,2019-10-28,30.4459596,-91.18738
Boston MA,2,2019-10-28,42.3602534,-71.0582912
Buffalo NY,11,2019-10-28,42.8867166,-78.8783922
Charleston SC,17,2019-10-28,32.7876012,-79.9402728
Charlotte NC,5,2019-10-28,35.2270869,-80.8431268
Chattanooga TN,9,2019-10-28,35.0457219,-85.3094883
Chicago IL,3,2019-10-28,41.8755616,-87.6244212
Cincinnati OH,4,2019-10-28,39.1014537,-84.5124602
Cleveland,3,2019-10-28,41.5051613,-81.6934446
Colorado Springs,9,2019-10-28,38.8339578,-104.8253485
Columbia SC,18,2019-10-28,34.0007493,-81.0343313
Columbia,24,2019-10-28,2.8894434,-73.783892
Columbus GA,18,2019-10-28,43.1830762,-79.8147518
Columbus,6,2019-10-28,39.9622601,-83.0007065
Corpus Christi TX,20,2019-10-28,27.7477253,-97.4014129
Dallas,4,2019-10-28,32.7762719,-96.7968559
Dayton OH,9,2019-10-28,39.7589478,-84.1916069
Denver CO,2,2019-10-28,39.7348381,-104.9653271
Des Moines,8,2019-10-28,41.5910641,-93.6037149
Detroit MI,2,2019-10-28,42.3315509,-83.0466403
Duluth MN,28,2019-10-28,46.7729322,-92.1251218
El Paso TX,10,2019-10-28,31.7754152,-106.4646348
Evansville IN,17,2019-10-28,4.5777639,-7.6472486
Fairbanks AK,100,2019-10-28,64.837845,-147.716675
Florence,14,2019-10-28,43.7698712,11.2555757
Ft. Myers,13,2019-10-28,26.640628,-81.8723084
Gainesville FL,23,2019-10-28,29.67357765,-82.32337460192167
Grand Rapids,7,2019-10-28,42.9632405,-85.6678639
Greensboro,11,2019-10-28,36.0726355,-79.7919754
Greenville,28,2019-10-28,34.851354,-82.3984882
Greenville,9,2019-10-28,34.851354,-82.3984882
Harlingen,8,2019-10-28,26.1908241,-97.6959794
Hartford,3,2019-10-28,41.764582,-72.6908547
Honolulu HI,7,2019-10-28,21.304547,-157.8556764
Houston TX,2,2019-10-28,29.7589382,-95.3676974
Huntsville,11,2019-10-28,34.729847,-86.5859011
Indianapolis IN,4,2019-10-28,39.7683331,-86.1583502
Jackson MS,12,2019-10-28,28.530801699999998,-81.30324431076107
Jacksonville FL,15,2019-10-28,30.3321838,-81.655651
Kansas City MO,4,2019-10-28,39.100105,-94.5781416
Knoxville TN,8,2019-10-28,35.9603948,-83.9210261
La Crosse,19,2019-10-28,43.8014053,-91.2395429
Lafayette LA,21,2019-10-28,30.2240897,-92.0198427
Lansing MI,15,2019-10-28,42.7338147,-84.5207088
Las Vegas NV,8,2019-10-28,36.1672559,-115.1485163
Lexington KY,9,2019-10-28,38.0464066,-84.4970393
Little Rock,8,2019-10-28,34.7464809,-92.2895948
Los Angeles CA,1,2019-10-28,34.0536909,-118.2427666
Louisville KY,5,2019-10-28,38.2542376,-85.759407
Madison WI,8,2019-10-28,43.074761,-89.3837613
Marquette MI,55,2019-10-28,46.4481521,-87.6305899
Memphis TN,6,2019-10-28,35.1490215,-90.0516285
Miami,12,2019-10-28,25.7742658,-80.1936589
Milwaukee WI,7,2019-10-28,43.0349931,-87.922497
Minneapolis,3,2019-10-28,44.9772995,-93.2654692
Mobile AL,7,2019-10-28,39.092585,-84.853229
New Orleans LA,5,2019-10-28,29.9499323,-90.0701156
New York NY,2,2019-10-28,40.7127281,-74.0060152
Norfolk,6,2019-10-28,52.666667,1.0
Oklahoma City OK,6,2019-10-28,35.4729886,-97.5170536
Omaha NE,7,2019-10-28,41.2587459,-95.9383758
Orlando,12,2019-10-28,28.5421109,-81.3790304
Palm Springs CA,25,2019-10-28,33.8246269,-116.540303
Panama City FL,31,2019-10-28,30.1600827,-85.6545729
Philadelphia PA,3,2019-10-28,39.9527237,-75.1635262
Phoenix AZ,3,2019-10-28,33.4484367,-112.0741417
Portland OR,8,2019-10-28,45.5202471,-122.6741949
Portland,9,2019-10-28,45.5202471,-122.6741949
Providence RI,6,2019-10-28,51.4325409,-2.6642358
Raleigh,7,2019-10-28,35.7803977,-78.6390989
Reno NV,14,2019-10-28,39.5261206,-119.8126581
Richmond,16,2019-10-28,37.5385087,-77.43428
Roanoke,8,2019-10-28,37.270973,-79.9414313
Rochester NY,9,2019-10-28,43.157285,-77.615214
Sacramento,3,2019-10-28,38.5815719,-121.4943996
Salisbury MD,26,2019-10-28,38.3662114,-75.6008881
Salt Lake City UT,4,2019-10-28,40.7596198,-111.8867975
San Antonio TX,5,2019-10-28,29.4246002,-98.4951405
San Diego CA,5,2019-10-28,32.7174209,-117.1627714
San Francisco,1,2019-10-28,37.7790262,-122.4199061
Savannah GA,16,2019-10-28,43.4129206,-79.7028276
Seattle,2,2019-10-28,47.6038321,-122.3300624
Shreveport LA,14,2019-10-28,32.5221828,-93.7651944
South Bend,12,2019-10-28,41.6833813,-86.2500066
Syracuse NY,10,2019-10-28,43.0481221,-76.1474244
Tallahassee FL,14,2019-10-28,30.4380832,-84.2809332
Tampa,8,2019-10-28,27.9477595,-82.458444
Toledo OH,10,2019-10-28,41.6786754,-83.5127283
Traverse City,21,2019-10-28,44.7606441,-85.6165301
Waco,14,2019-10-28,31.549333,-97.1466695
Washington DC,6,2019-10-28,38.8948932,-77.0365529
Wausau,26,2019-10-28,44.9596017,-89.6298239
West Palm Beach,22,2019-10-28,26.7153425,-80.0533746
Wichita,10,2019-10-28,37.6922361,-97.3375448
Wilmington NC,30,2019-10-28,34.2257282,-77.9447107
Albany GA,39,2019-11-04,51.7468576,-0.3383107
Albany,7,2019-11-04,42.6511674,-73.754968
Anchorage AK,19,2019-11-04,61.2163129,-149.8948523
Atlanta GA,3,2019-11-04,33.7490987,-84.3901849
Bakersfield CA,18,2019-11-04,35.3738712,-119.0194639
Baltimore MD,7,2019-11-04,39.2908816,-76.610759
Biloxi,35,2019-11-04,30.374673,-88.84594333482862
Birmingham AL,6,2019-11-04,33.570499,-86.765783
Boise ID,14,2019-11-04,43.6166163,-116.200886
Boston MA,3,2019-11-04,42.3602534,-71.0582912
Buffalo NY,6,2019-11-04,42.8867166,-78.8783922
Burlington VT,14,2019-11-04,44.4762975,-73.2135472
Butte,58,2019-11-04,39.6519275,-121.5858444
Casper,100,2019-11-04,42.866632,-106.313081
Charleston SC,12,2019-11-04,32.7876012,-79.9402728
Chattanooga TN,11,2019-11-04,35.0457219,-85.3094883
Chicago IL,3,2019-11-04,41.8755616,-87.6244212
Chico,26,2019-11-04,39.7284945,-121.8374777
Clarksburg,62,2019-11-04,39.2806451,-80.3445341
Cleveland,2,2019-11-04,41.5051613,-81.6934446
Columbia SC,17,2019-11-04,34.0007493,-81.0343313
Columbus OH,4,2019-11-04,39.9622601,-83.0007065
Dallas,2,2019-11-04,32.7762719,-96.7968559
Davenport IA,18,2019-11-04,41.5236436,-90.5776368
Dayton OH,10,2019-11-04,39.7589478,-84.1916069
Denver CO,3,2019-11-04,39.7348381,-104.9653271
Detroit MI,4,2019-11-04,42.3315509,-83.0466403
El Paso TX,11,2019-11-04,31.7754152,-106.4646348
Florence,37,2019-11-04,43.7698712,11.2555757
Fresno,7,2019-11-04,36.7295295,-119.70886126075588
Ft. Myers,17,2019-11-04,26.640628,-81.8723084
Ft. Smith,14,2019-11-04,35.3872218,-94.4248983
Gainesville FL,26,2019-11-04,29.67357765,-82.32337460192167
Grand Rapids,5,2019-11-04,42.9632405,-85.6678639
Greensboro,6,2019-11-04,36.0726355,-79.7919754
Greenville,48,2019-11-04,34.851354,-82.3984882
Greenville,8,2019-11-04,34.851354,-82.3984882
Harrisburg,6,2019-11-04,40.2663107,-76.8861122
Hartford,7,2019-11-04,41.764582,-72.6908547
Houston TX,4,2019-11-04,29.7589382,-95.3676974
Huntsville,12,2019-11-04,34.729847,-86.5859011
Indianapolis IN,3,2019-11-04,39.7683331,-86.1583502
Jackson TN,63,2019-11-04,35.6144446,-88.8177418
Jacksonville FL,17,2019-11-04,30.3321838,-81.655651
Johnstown,30,2019-11-04,40.3267407,-78.9219698
Kansas City MO,4,2019-11-04,39.100105,-94.5781416
Lake Charles LA,52,2019-11-04,30.2265949,-93.2173759
Las Vegas NV,4,2019-11-04,36.1672559,-115.1485163
Lexington KY,10,2019-11-04,38.0464066,-84.4970393
Los Angeles CA,2,2019-11-04,34.0536909,-118.2427666
Macon GA,21,2019-11-04,32.8406946,-83.6324022
Madison WI,9,2019-11-04,43.074761,-89.3837613
Memphis TN,7,2019-11-04,35.1490215,-90.0516285
Miami,14,2019-11-04,25.7742658,-80.1936589
Milwaukee WI,4,2019-11-04,43.0349931,-87.922497
Minneapolis,2,2019-11-04,44.9772995,-93.2654692
Missoula MT,42,2019-11-04,46.8701049,-113.9952672
Mobile AL,16,2019-11-04,39.092585,-84.853229
Nashville TN,3,2019-11-04,36.1622296,-86.7743531
New Orleans LA,6,2019-11-04,29.9499323,-90.0701156
New York NY,2,2019-11-04,40.7127281,-74.0060152
Norfolk,7,2019-11-04,52.666667,1.0
Orlando,12,2019-11-04,28.5421109,-81.3790304
Paducah KY,16,2019-11-04,37.0833893,-88.6000478
Philadelphia PA,2,2019-11-04,39.9527237,-75.1635262
Phoenix AZ,4,2019-11-04,33.4484367,-112.0741417
Portland OR,6,2019-11-04,45.5202471,-122.6741949
Portland,11,2019-11-04,45.5202471,-122.6741949
Providence RI,6,2019-11-04,51.4325409,-2.6642358
Raleigh,5,2019-11-04,35.7803977,-78.6390989
Richmond,7,2019-11-04,37.5385087,-77.43428
Roanoke,9,2019-11-04,37.270973,-79.9414313
Rochester MN,31,2019-11-04,44.0234387,-92.4630182
Rockford IL,27,2019-11-04,42.2713945,-89.093966
Sacramento,3,2019-11-04,38.5815719,-121.4943996
San Antonio TX,4,2019-11-04,29.4246002,-98.4951405
San Francisco,2,2019-11-04,37.7790262,-122.4199061
Savannah GA,30,2019-11-04,43.4129206,-79.7028276
Seattle,4,2019-11-04,47.6038321,-122.3300624
Sioux City IA,34,2019-11-04,42.4966815,-96.4058782
St. Louis MO,8,2019-11-04,38.6529545,-90.24111656024635
Syracuse NY,11,2019-11-04,43.0481221,-76.1474244
Tallahassee FL,16,2019-11-04,30.4380832,-84.2809332
Tampa,8,2019-11-04,27.9477595,-82.458444
Tulsa OK,8,2019-11-04,36.1556805,-95.9929113
Waco,10,2019-11-04,31.549333,-97.1466695
Washington DC,4,2019-11-04,38.8948932,-77.0365529
West Palm Beach,27,2019-11-04,26.7153425,-80.0533746
Wichita Falls TX,34,2019-11-04,33.9137085,-98.4933873
Wilmington NC,44,2019-11-04,34.2257282,-77.9447107
Youngstown OH,21,2019-11-04,41.1035786,-80.6520161
Anchorage AK,27,2019-11-11,61.2163129,-149.8948523
Atlanta GA,4,2019-11-11,33.7490987,-84.3901849
Augusta GA,20,2019-11-11,33.4709714,-81.9748429
Austin TX,4,2019-11-11,30.2711286,-97.7436995
Baltimore MD,4,2019-11-11,39.2908816,-76.610759
Birmingham AL,6,2019-11-11,33.570499,-86.765783
Boston MA,3,2019-11-11,42.3602534,-71.0582912
Burlington VT,16,2019-11-11,44.4762975,-73.2135472
Butte,64,2019-11-11,39.6519275,-121.5858444
Cedar Rapids,13,2019-11-11,41.9758872,-91.6704053
Charleston SC,32,2019-11-11,32.7876012,-79.9402728
Charlotte NC,15,2019-11-11,35.2270869,-80.8431268
Chattanooga TN,14,2019-11-11,35.0457219,-85.3094883
Chicago IL,2,2019-11-11,41.8755616,-87.6244212
Cleveland,3,2019-11-11,41.5051613,-81.6934446
Colorado Springs,12,2019-11-11,38.8339578,-104.8253485
Columbia SC,11,2019-11-11,34.0007493,-81.0343313
Columbus OH,4,2019-11-11,39.9622601,-83.0007065
Dallas,3,2019-11-11,32.7762719,-96.7968559
Denver CO,2,2019-11-11,39.7348381,-104.9653271
Des Moines,10,2019-11-11,41.5910641,-93.6037149
Detroit MI,8,2019-11-11,42.3315509,-83.0466403
El Paso TX,12,2019-11-11,31.7754152,-106.4646348
Evansville IN,21,2019-11-11,4.5777639,-7.6472486
Flint,13,2019-11-11,43.0161693,-83.6900211
Florence,25,2019-11-11,43.7698712,11.2555757
Grand Rapids,6,2019-11-11,42.9632405,-85.6678639
Green Bay,12,2019-11-11,44.5126379,-88.0125794
Greensboro,7,2019-11-11,36.0726355,-79.7919754
Greenville,26,2019-11-11,34.851354,-82.3984882
Greenville,14,2019-11-11,34.851354,-82.3984882
Harlingen,10,2019-11-11,26.1908241,-97.6959794
Huntsville,14,2019-11-11,34.729847,-86.5859011
Jacksonville FL,13,2019-11-11,30.3321838,-81.655651
Johnstown,17,2019-11-11,40.3267407,-78.9219698
Kansas City MO,5,2019-11-11,39.100105,-94.5781416
Lima OH,100,2019-11-11,40.7399785,-84.105006
Lincoln,18,2019-11-11,47.8299069,-118.414727
Los Angeles CA,1,2019-11-11,34.0536909,-118.2427666
Macon GA,24,2019-11-11,32.8406946,-83.6324022
Madison WI,21,2019-11-11,43.074761,-89.3837613
Miami,12,2019-11-11,25.7742658,-80.1936589
Milwaukee WI,4,2019-11-11,43.0349931,-87.922497
Minneapolis,4,2019-11-11,44.9772995,-93.2654692
Mobile AL,9,2019-11-11,39.092585,-84.853229
New York NY,2,2019-11-11,40.7127281,-74.0060152
Norfolk,11,2019-11-11,52.666667,1.0
Oklahoma City OK,7,2019-11-11,35.4729886,-97.5170536
Orlando,8,2019-11-11,28.5421109,-81.3790304
Philadelphia PA,5,2019-11-11,39.9527237,-75.1635262
Phoenix AZ,4,2019-11-11,33.4484367,-112.0741417
Pittsburgh PA,6,2019-11-11,40.4416941,-79.9900861
Portland OR,3,2019-11-11,45.5202471,-122.6741949
Portland,12,2019-11-11,45.5202471,-122.6741949
Providence RI,7,2019-11-11,51.4325409,-2.6642358
Raleigh,7,2019-11-11,35.7803977,-78.6390989
Reno NV,18,2019-11-11,39.5261206,-119.8126581
Sacramento,3,2019-11-11,38.5815719,-121.4943996
Salt Lake City UT,7,2019-11-11,40.7596198,-111.8867975
San Angelo TX,77,2019-11-11,31.4648357,-100.4398442
San Francisco,3,2019-11-11,37.7790262,-122.4199061
Savannah GA,27,2019-11-11,43.4129206,-79.7028276
Seattle,6,2019-11-11,47.6038321,-122.3300624
Sioux City IA,39,2019-11-11,42.4966815,-96.4058782
Springfield MO,7,2019-11-11,37.2166779,-93.2920373
St. Louis MO,4,2019-11-11,38.6529545,-90.24111656024635
Syracuse NY,36,2019-11-11,43.0481221,-76.1474244
Tampa,5,2019-11-11,27.9477595,-82.458444
Terre Haute IN,47,2019-11-11,39.4667025,-87.4139119
Washington DC,7,2019-11-11,38.8948932,-77.0365529
Watertown NY,60,2019-11-11,43.9747838,-75.9107565
West Palm Beach,27,2019-11-11,26.7153425,-80.0533746
Wilkes Barre,10,2019-11-11,41.2464824,-75.8817316
Wilmington NC,25,2019-11-11,34.2257282,-77.9447107
Albany,6,2019-11-18,42.6511674,-73.754968
Albuquerque,5,2019-11-18,35.0841034,-106.6509851
Anchorage AK,23,2019-11-18,61.2163129,-149.8948523
Atlanta GA,3,2019-11-18,33.7490987,-84.3901849
Augusta GA,16,2019-11-18,33.4709714,-81.9748429
Austin TX,4,2019-11-18,30.2711286,-97.7436995
Bakersfield CA,15,2019-11-18,35.3738712,-119.0194639
Baltimore MD,3,2019-11-18,39.2908816,-76.610759
Baton Rouge LA,12,2019-11-18,30.4459596,-91.18738
Boston MA,2,2019-11-18,42.3602534,-71.0582912
Buffalo NY,6,2019-11-18,42.8867166,-78.8783922
Burlington VT,12,2019-11-18,44.4762975,-73.2135472
Charleston SC,27,2019-11-18,32.7876012,-79.9402728
Charlotte NC,5,2019-11-18,35.2270869,-80.8431268
Chicago IL,2,2019-11-18,41.8755616,-87.6244212
Colorado Springs,10,2019-11-18,38.8339578,-104.8253485
Columbia SC,18,2019-11-18,34.0007493,-81.0343313
Columbus,23,2019-11-18,39.9622601,-83.0007065
Corpus Christi TX,20,2019-11-18,27.7477253,-97.4014129
Dallas,3,2019-11-18,32.7762719,-96.7968559
Dayton OH,9,2019-11-18,39.7589478,-84.1916069
Denver CO,2,2019-11-18,39.7348381,-104.9653271
Des Moines,7,2019-11-18,41.5910641,-93.6037149
Detroit MI,2,2019-11-18,42.3315509,-83.0466403
El Paso TX,9,2019-11-18,31.7754152,-106.4646348
Evansville IN,16,2019-11-18,4.5777639,-7.6472486
Fairbanks AK,100,2019-11-18,64.837845,-147.716675
Flint,10,2019-11-18,43.0161693,-83.6900211
Florence,13,2019-11-18,43.7698712,11.2555757
Fresno,6,2019-11-18,36.7295295,-119.70886126075588
Ft. Myers,7,2019-11-18,26.640628,-81.8723084
Grand Rapids,11,2019-11-18,42.9632405,-85.6678639
Greenville,7,2019-11-18,34.851354,-82.3984882
Harlingen,8,2019-11-18,26.1908241,-97.6959794
Hartford,3,2019-11-18,41.764582,-72.6908547
Honolulu HI,14,2019-11-18,21.304547,-157.8556764
Houston TX,4,2019-11-18,29.7589382,-95.3676974
Indianapolis IN,6,2019-11-18,39.7683331,-86.1583502
Jackson MS,12,2019-11-18,28.530801699999998,-81.30324431076107
Jacksonville FL,10,2019-11-18,30.3321838,-81.655651
Knoxville TN,15,2019-11-18,35.9603948,-83.9210261
La Crosse,19,2019-11-18,43.8014053,-91.2395429
Las Vegas NV,4,2019-11-18,36.1672559,-115.1485163
Lincoln,14,2019-11-18,47.8299069,-118.414727
Little Rock,15,2019-11-18,34.7464809,-92.2895948
Los Angeles CA,1,2019-11-18,34.0536909,-118.2427666
Louisville KY,8,2019-11-18,38.2542376,-85.759407
Macon GA,19,2019-11-18,32.8406946,-83.6324022
Memphis TN,4,2019-11-18,35.1490215,-90.0516285
Miami,7,2019-11-18,25.7742658,-80.1936589
Milwaukee WI,3,2019-11-18,43.0349931,-87.922497
Minneapolis,2,2019-11-18,44.9772995,-93.2654692
Mobile AL,7,2019-11-18,39.092585,-84.853229
Montgomery,20,2019-11-18,32.3669656,-86.3006485
Nashville TN,3,2019-11-18,36.1622296,-86.7743531
New Orleans LA,9,2019-11-18,29.9499323,-90.0701156
New York NY,2,2019-11-18,40.7127281,-74.0060152
Norfolk,6,2019-11-18,52.666667,1.0
Omaha NE,7,2019-11-18,41.2587459,-95.9383758
Orlando,10,2019-11-18,28.5421109,-81.3790304
Palm Springs CA,24,2019-11-18,33.8246269,-116.540303
Philadelphia PA,2,2019-11-18,39.9527237,-75.1635262
Phoenix AZ,2,2019-11-18,33.4484367,-112.0741417
Pittsburgh PA,3,2019-11-18,40.4416941,-79.9900861
Portland OR,3,2019-11-18,45.5202471,-122.6741949
Portland,9,2019-11-18,45.5202471,-122.6741949
Raleigh,4,2019-11-18,35.7803977,-78.6390989
Richmond,6,2019-11-18,37.5385087,-77.43428
Roanoke,8,2019-11-18,37.270973,-79.9414313
Sacramento,2,2019-11-18,38.5815719,-121.4943996
Salisbury MD,26,2019-11-18,38.3662114,-75.6008881
Salt Lake City UT,3,2019-11-18,40.7596198,-111.8867975
San Antonio TX,3,2019-11-18,29.4246002,-98.4951405
San Diego CA,5,2019-11-18,32.7174209,-117.1627714
San Francisco,2,2019-11-18,37.7790262,-122.4199061
Santa Barbara,13,2019-11-18,34.4221319,-119.7026673
Savannah GA,21,2019-11-18,43.4129206,-79.7028276
Seattle,2,2019-11-18,47.6038321,-122.3300624
Sioux Fall,16,2019-11-18,46.737158,-90.8801835
South Bend,12,2019-11-18,41.6833813,-86.2500066
Springfield MO,5,2019-11-18,37.2166779,-93.2920373
St. Louis MO,3,2019-11-18,38.6529545,-90.24111656024635
Tallahassee FL,14,2019-11-18,30.4380832,-84.2809332
Tampa,10,2019-11-18,27.9477595,-82.458444
Toledo OH,9,2019-11-18,41.6786754,-83.5127283
Waco,9,2019-11-18,31.549333,-97.1466695
Washington DC,4,2019-11-18,38.8948932,-77.0365529
West Palm Beach,14,2019-11-18,26.7153425,-80.0533746
Wichita,9,2019-11-18,37.6922361,-97.3375448
Wilkes Barre,8,2019-11-18,41.2464824,-75.8817316
Wilmington NC,19,2019-11-18,34.2257282,-77.9447107
Albuquerque,3,2019-11-25,35.0841034,-106.6509851
Atlanta GA,2,2019-11-25,33.7490987,-84.3901849
Austin TX,2,2019-11-25,30.2711286,-97.7436995
Baltimore MD,3,2019-11-25,39.2908816,-76.610759
Boise ID,7,2019-11-25,43.6166163,-116.200886
Boston MA,1,2019-11-25,42.3602534,-71.0582912
Charleston SC,6,2019-11-25,32.7876012,-79.9402728
Charlotte NC,1,2019-11-25,35.2270869,-80.8431268
Chicago IL,1,2019-11-25,41.8755616,-87.6244212
Cincinnati OH,2,2019-11-25,39.1014537,-84.5124602
Cleveland,1,2019-11-25,41.5051613,-81.6934446
Colorado Springs,5,2019-11-25,38.8339578,-104.8253485
Columbus GA,11,2019-11-25,43.1830762,-79.8147518
Columbus OH,2,2019-11-25,39.9622601,-83.0007065
Dallas,1,2019-11-25,32.7762719,-96.7968559
Dayton OH,5,2019-11-25,39.7589478,-84.1916069
Denver CO,2,2019-11-25,39.7348381,-104.9653271
Detroit MI,1,2019-11-25,42.3315509,-83.0466403
Florence,7,2019-11-25,43.7698712,11.2555757
Ft. Myers,4,2019-11-25,26.640628,-81.8723084
Grand Rapids,3,2019-11-25,42.9632405,-85.6678639
Greensboro,2,2019-11-25,36.0726355,-79.7919754
Greenville,8,2019-11-25,34.851354,-82.3984882
Greenville,5,2019-11-25,34.851354,-82.3984882
Harlingen,4,2019-11-25,26.1908241,-97.6959794
Harrisburg,3,2019-11-25,40.2663107,-76.8861122
Hartford,3,2019-11-25,41.764582,-72.6908547
Houston TX,1,2019-11-25,29.7589382,-95.3676974
Indianapolis IN,2,2019-11-25,39.7683331,-86.1583502
Jackson MS,7,2019-11-25,28.530801699999998,-81.30324431076107
Jacksonville FL,3,2019-11-25,30.3321838,-81.655651
Johnstown,8,2019-11-25,40.3267407,-78.9219698
Juneau AK,100,2019-11-25,58.3019496,-134.419734
Lincoln,8,2019-11-25,47.8299069,-118.414727
Louisville KY,3,2019-11-25,38.2542376,-85.759407
Memphis TN,3,2019-11-25,35.1490215,-90.0516285
Miami,4,2019-11-25,25.7742658,-80.1936589
Minneapolis,1,2019-11-25,44.9772995,-93.2654692
Nashville TN,2,2019-11-25,36.1622296,-86.7743531
New Orleans LA,3,2019-11-25,29.9499323,-90.0701156
New York NY,1,2019-11-25,40.7127281,-74.0060152
Norfolk,5,2019-11-25,52.666667,1.0
Oklahoma City OK,3,2019-11-25,35.4729886,-97.5170536
Orlando,5,2019-11-25,28.5421109,-81.3790304
Paducah KY,8,2019-11-25,37.0833893,-88.6000478
Panama City FL,16,2019-11-25,30.1600827,-85.6545729
Philadelphia PA,1,2019-11-25,39.9527237,-75.1635262
Phoenix AZ,1,2019-11-25,33.4484367,-112.0741417
Pittsburgh PA,2,2019-11-25,40.4416941,-79.9900861
Portland OR,3,2019-11-25,45.5202471,-122.6741949
Providence RI,6,2019-11-25,51.4325409,-2.6642358
Raleigh,2,2019-11-25,35.7803977,-78.6390989
Reno NV,7,2019-11-25,39.5261206,-119.8126581
Richmond,3,2019-11-25,37.5385087,-77.43428
Roanoke,5,2019-11-25,37.270973,-79.9414313
Sacramento,1,2019-11-25,38.5815719,-121.4943996
San Antonio TX,1,2019-11-25,29.4246002,-98.4951405
Savannah GA,6,2019-11-25,43.4129206,-79.7028276
Shreveport LA,7,2019-11-25,32.5221828,-93.7651944
South Bend,14,2019-11-25,41.6833813,-86.2500066
Spokane WA,5,2019-11-25,47.6579425,-117.4212265
St. Louis MO,2,2019-11-25,38.6529545,-90.24111656024635
Tallahassee FL,9,2019-11-25,30.4380832,-84.2809332
Tampa,2,2019-11-25,27.9477595,-82.458444
Toledo OH,5,2019-11-25,41.6786754,-83.5127283
Tri,8,2019-11-25,35.875259,-78.7751271
Tucson,5,2019-11-25,32.2228765,-110.9748477
Washington DC,1,2019-11-25,38.8948932,-77.0365529
West Palm Beach,5,2019-11-25,26.7153425,-80.0533746
Wilmington NC,11,2019-11-25,34.2257282,-77.9447107
Albany GA,78,2019-12-02,51.7468576,-0.3383107
Atlanta GA,11,2019-12-02,33.7490987,-84.3901849
Augusta GA,36,2019-12-02,33.4709714,-81.9748429
Austin TX,7,2019-12-02,30.2711286,-97.7436995
Baltimore MD,7,2019-12-02,39.2908816,-76.610759
"Billings, MT",100,2019-12-02,45.7874957,-108.49607
Binghamton NY,72,2019-12-02,42.096968,-75.914341
Boston MA,3,2019-12-02,42.3602534,-71.0582912
Buffalo NY,13,2019-12-02,42.8867166,-78.8783922
Charleston SC,59,2019-12-02,32.7876012,-79.9402728
Charlotte NC,16,2019-12-02,35.2270869,-80.8431268
Chicago IL,2,2019-12-02,41.8755616,-87.6244212
Cincinnati OH,16,2019-12-02,39.1014537,-84.5124602
Columbia SC,20,2019-12-02,34.0007493,-81.0343313
Columbus OH,12,2019-12-02,39.9622601,-83.0007065
Dallas,2,2019-12-02,32.7762719,-96.7968559
Davenport IA,35,2019-12-02,41.5236436,-90.5776368
Dayton OH,20,2019-12-02,39.7589478,-84.1916069
Denver CO,8,2019-12-02,39.7348381,-104.9653271
Detroit MI,4,2019-12-02,42.3315509,-83.0466403
Evansville IN,37,2019-12-02,4.5777639,-7.6472486
Flint,23,2019-12-02,43.0161693,-83.6900211
Florence,40,2019-12-02,43.7698712,11.2555757
Ft. Myers,34,2019-12-02,26.640628,-81.8723084
Ft. Smith,27,2019-12-02,35.3872218,-94.4248983
Grand Rapids,11,2019-12-02,42.9632405,-85.6678639
Greensboro,13,2019-12-02,36.0726355,-79.7919754
Greenville,47,2019-12-02,34.851354,-82.3984882
Greenville,20,2019-12-02,34.851354,-82.3984882
Hartford,14,2019-12-02,41.764582,-72.6908547
Houston TX,4,2019-12-02,29.7589382,-95.3676974
Idaho Falls,68,2019-12-02,43.4935245,-112.0400919
Indianapolis IN,7,2019-12-02,39.7683331,-86.1583502
Jacksonville FL,34,2019-12-02,30.3321838,-81.655651
Johnstown,89,2019-12-02,40.3267407,-78.9219698
Kansas City MO,12,2019-12-02,39.100105,-94.5781416
Knoxville TN,17,2019-12-02,35.9603948,-83.9210261
La Crosse,44,2019-12-02,43.8014053,-91.2395429
Little Rock,17,2019-12-02,34.7464809,-92.2895948
Los Angeles CA,2,2019-12-02,34.0536909,-118.2427666
Louisville KY,23,2019-12-02,38.2542376,-85.759407
Madison WI,20,2019-12-02,43.074761,-89.3837613
Miami,13,2019-12-02,25.7742658,-80.1936589
Milwaukee WI,8,2019-12-02,43.0349931,-87.922497
Minneapolis,4,2019-12-02,44.9772995,-93.2654692
Monterey,32,2019-12-02,36.2231079,-121.3877428
Nashville TN,6,2019-12-02,36.1622296,-86.7743531
New York NY,4,2019-12-02,40.7127281,-74.0060152
Norfolk,10,2019-12-02,52.666667,1.0
Oklahoma City OK,12,2019-12-02,35.4729886,-97.5170536
Orlando,10,2019-12-02,28.5421109,-81.3790304
Panama City FL,73,2019-12-02,30.1600827,-85.6545729
Philadelphia PA,6,2019-12-02,39.9527237,-75.1635262
Phoenix AZ,7,2019-12-02,33.4484367,-112.0741417
Pittsburgh PA,7,2019-12-02,40.4416941,-79.9900861
Portland OR,6,2019-12-02,45.5202471,-122.6741949
Providence RI,12,2019-12-02,51.4325409,-2.6642358
Raleigh,12,2019-12-02,35.7803977,-78.6390989
Richmond,21,2019-12-02,37.5385087,-77.43428
Sacramento,5,2019-12-02,38.5815719,-121.4943996
Salisbury MD,59,2019-12-02,38.3662114,-75.6008881
Salt Lake City UT,6,2019-12-02,40.7596198,-111.8867975
San Antonio TX,7,2019-12-02,29.4246002,-98.4951405
San Diego CA,5,2019-12-02,32.7174209,-117.1627714
San Francisco,2,2019-12-02,37.7790262,-122.4199061
Santa Barbara,29,2019-12-02,34.4221319,-119.7026673
Savannah GA,49,2019-12-02,43.4129206,-79.7028276
Seattle,3,2019-12-02,47.6038321,-122.3300624
Sioux City IA,70,2019-12-02,42.4966815,-96.4058782
South Bend,28,2019-12-02,41.6833813,-86.2500066
St. Louis MO,13,2019-12-02,38.6529545,-90.24111656024635
Tallahassee FL,31,2019-12-02,30.4380832,-84.2809332
Tampa,7,2019-12-02,27.9477595,-82.458444
Tulsa OK,18,2019-12-02,36.1556805,-95.9929113
Washington DC,7,2019-12-02,38.8948932,-77.0365529
West Palm Beach,25,2019-12-02,26.7153425,-80.0533746
Wilmington NC,67,2019-12-02,34.2257282,-77.9447107
Atlanta GA,7,2019-12-09,33.7490987,-84.3901849
Baltimore MD,9,2019-12-09,39.2908816,-76.610759
Boise ID,25,2019-12-09,43.6166163,-116.200886
Boston MA,3,2019-12-09,42.3602534,-71.0582912
Buffalo NY,12,2019-12-09,42.8867166,-78.8783922
Charleston SC,22,2019-12-09,32.7876012,-79.9402728
Charlotte NC,9,2019-12-09,35.2270869,-80.8431268
Charlottesville VA,72,2019-12-09,38.029306,-78.4766781
Chicago IL,4,2019-12-09,41.8755616,-87.6244212
Cleveland,4,2019-12-09,41.5051613,-81.6934446
Columbus OH,7,2019-12-09,39.9622601,-83.0007065
Dallas,3,2019-12-09,32.7762719,-96.7968559
Denver CO,4,2019-12-09,39.7348381,-104.9653271
Des Moines,16,2019-12-09,41.5910641,-93.6037149
Detroit MI,3,2019-12-09,42.3315509,-83.0466403
El Paso TX,20,2019-12-09,31.7754152,-106.4646348
Fargo,35,2019-12-09,46.877229,-96.789821
Fresno,12,2019-12-09,36.7295295,-119.70886126075588
Grand Rapids,15,2019-12-09,42.9632405,-85.6678639
Greenville,28,2019-12-09,34.851354,-82.3984882
Greenville,9,2019-12-09,34.851354,-82.3984882
Harlingen,16,2019-12-09,26.1908241,-97.6959794
Harrisburg,21,2019-12-09,40.2663107,-76.8861122
Hartford,9,2019-12-09,41.764582,-72.6908547
Houston TX,4,2019-12-09,29.7589382,-95.3676974
Indianapolis IN,6,2019-12-09,39.7683331,-86.1583502
Jackson MS,25,2019-12-09,28.530801699999998,-81.30324431076107
Jacksonville FL,21,2019-12-09,30.3321838,-81.655651
Johnstown,27,2019-12-09,40.3267407,-78.9219698
