geoName,interest,date,lat,long
Chicago IL USA,4,2019-01-01,41.8755616,-87.6244212
Chico CA USA,100,2019-01-01,39.7284945,-121.8374777
Cincinnati OH USA,15,2019-01-01,39.1014537,-84.5124602
Grand Rapids MI USA,21,2019-01-01,42.9142413,-85.533004
St. Louis MO USA,12,2019-01-01,38.6268039,-90.1994097
Minneapolis MN USA,22,2019-01-07,44.9772995,-93.2654692
San Francisco CA USA,10,2019-01-07,37.7790262,-122.4199061
Seattle WA USA,18,2019-01-07,47.6038321,-122.3300624
Wilkes Barre PA USA,100,2019-01-07,41.2464824,-75.8817316
Boise ID USA,95,2019-01-14,43.6166163,-116.200886
Cleveland OH USA,18,2019-01-14,41.5051613,-81.6934446
Indianapolis IN USA,24,2019-01-14,39.7683331,-86.1583502
New York NY USA,2,2019-01-14,40.7127281,-74.0060152
Providence RI USA,44,2019-01-14,41.8239891,-71.4128343
South Bend IN USA,100,2019-01-14,41.6833813,-86.2500066
Houston TX USA,25,2019-01-21,29.7589382,-95.3676974
Tampa FL USA,40,2019-01-21,27.9518491,-82.4563972
West Palm Beach FL USA,100,2019-01-21,26.7153425,-80.0533746
Rochester NY USA,100,2019-01-28,43.157285,-77.615214
Washington DC USA,10,2019-01-28,38.8948932,-77.0365529
Austin TX USA,23,2019-02-04,30.2711286,-97.7436995
Chicago IL USA,6,2019-02-04,41.8755616,-87.6244212
Monterey CA USA,100,2019-02-04,36.2231079,-121.3877428
South Bend IN USA,94,2019-02-04,41.6833813,-86.2500066
Seattle WA USA,11,2019-02-11,47.6038321,-122.3300624
South Bend IN USA,100,2019-02-11,41.6833813,-86.2500066
Chicago IL USA,10,2019-02-18,41.8755616,-87.6244212
Dallas TX USA,11,2019-02-18,32.7762719,-96.7968559
Greenville SC USA,58,2019-02-18,34.851354,-82.3984882
Providence RI USA,73,2019-02-18,41.8239891,-71.4128343
Wilkes Barre PA USA,100,2019-02-18,41.2464824,-75.8817316
Charlotte NC USA,17,2019-02-25,35.2270869,-80.8431268
Johnstown PA USA,100,2019-02-25,40.3267407,-78.9219698
Nashville TN USA,20,2019-02-25,36.1622296,-86.7743531
Huntsville AL USA,100,2019-03-04,33.554113,-86.804219
Los Angeles CA USA,30,2019-03-11,34.0536909,-118.2427666
San Francisco CA USA,62,2019-03-11,37.7790262,-122.4199061
Tampa FL USA,100,2019-03-11,27.9518491,-82.4563972
Charlotte NC USA,16,2019-03-18,35.2270869,-80.8431268
Chattanooga TN USA,73,2019-03-18,35.0457219,-85.3094883
Ft. Wayne IN USA,100,2019-03-18,41.0799898,-85.1386015
Johnstown PA USA,81,2019-03-18,40.3267407,-78.9219698
Lansing MI USA,90,2019-03-18,42.7338147,-84.5207088
Baltimore MD USA,24,2019-03-25,39.284749399999995,-76.62047463969989
New Orleans LA USA,41,2019-03-25,29.9499323,-90.0701156
New York NY USA,2,2019-03-25,40.7127281,-74.0060152
South Bend IN USA,100,2019-03-25,41.6833813,-86.2500066
Buffalo NY USA,41,2019-04-01,42.8867166,-78.8783922
New York NY USA,6,2019-04-01,40.7127281,-74.0060152
Portland OR USA,18,2019-04-01,45.5202471,-122.6741949
Raleigh NC USA,15,2019-04-01,35.7803977,-78.6390989
San Diego CA USA,16,2019-04-01,32.7174209,-117.1627714
South Bend IN USA,100,2019-04-01,41.6833813,-86.2500066
Houston TX USA,6,2019-04-08,29.7589382,-95.3676974
La Crosse WI USA,100,2019-04-08,43.8014053,-91.2395429
Nashville TN USA,14,2019-04-08,36.1622296,-86.7743531
South Bend IN USA,65,2019-04-08,41.6833813,-86.2500066
Abilene TX USA,32,2019-04-15,32.44645,-99.7475905
Albany GA USA,25,2019-04-15,40.0555158,-82.8457691
Albany NY USA,59,2019-04-15,42.6511674,-73.754968
Albuquerque NM USA,51,2019-04-15,35.0841034,-106.6509851
Alexandria LA USA,31,2019-04-15,38.8147596,-77.09024765272724
Alpena MI USA,91,2019-04-15,45.0176181,-83.6670019
Amarillo TX USA,35,2019-04-15,35.2072185,-101.8338246
Anchorage AK USA,54,2019-04-15,61.2163129,-149.8948523
Atlanta GA USA,39,2019-04-15,33.7490987,-84.3901849
Augusta GA USA,45,2019-04-15,33.4709714,-81.9748429
Austin TX USA,47,2019-04-15,30.2711286,-97.7436995
Bakersfield CA USA,31,2019-04-15,35.3738712,-119.0194639
Baltimore MD USA,46,2019-04-15,39.284749399999995,-76.62047463969989
Bangor ME USA,57,2019-04-15,44.8011821,-68.7778138
Baton Rouge LA USA,36,2019-04-15,30.4459596,-91.18738
Beaumont TX USA,32,2019-04-15,30.0860459,-94.1018461
Bend OR USA,75,2019-04-15,44.0581728,-121.3153096
"Billings, MT USA",73,2019-04-15,45.7874957,-108.49607
Biloxi MS USA,36,2019-04-15,30.374673,-88.84594333482862
Binghamton NY USA,60,2019-04-15,42.096968,-75.914341
Birmingham AL USA,38,2019-04-15,33.570499,-86.765783
Bluefield WV USA,26,2019-04-15,37.2698395,-81.2223195
Boise ID USA,60,2019-04-15,43.6166163,-116.200886
Boston MA USA,50,2019-04-15,42.3602534,-71.0582912
Bowling Green KY USA,52,2019-04-15,36.9903199,-86.4436018
Buffalo NY USA,52,2019-04-15,42.8867166,-78.8783922
Burlington VT USA,74,2019-04-15,44.4762975,-73.2135472
Butte MT USA,54,2019-04-15,46.0131505,-112.5365089
Casper WY USA,76,2019-04-15,39.4632037,-75.7079641
Cedar Rapids IA USA,49,2019-04-15,41.9758872,-91.6704053
Champaign IL USA,58,2019-04-15,40.1164205,-88.2433829
Charleston SC USA,51,2019-04-15,32.7876012,-79.9402728
Charleston WV USA,31,2019-04-15,38.3505995,-81.6332812
Charlotte NC USA,48,2019-04-15,35.2270869,-80.8431268
Charlottesville VA USA,100,2019-04-15,38.029306,-78.4766781
Chattanooga TN USA,55,2019-04-15,35.0457219,-85.3094883
Cheyenne WY USA,52,2019-04-15,40.640361,-74.367318
Chicago IL USA,53,2019-04-15,41.8755616,-87.6244212
Chico CA USA,40,2019-04-15,39.7284945,-121.8374777
Cincinnati OH USA,49,2019-04-15,39.1014537,-84.5124602
Clarksburg WV USA,39,2019-04-15,39.2806451,-80.3445341
Cleveland OH USA,55,2019-04-15,41.5051613,-81.6934446
Colorado Springs CO USA,60,2019-04-15,38.8339578,-104.8253485
Columbia SC USA,42,2019-04-15,34.0007493,-81.0343313
Columbia MO USA,44,2019-04-15,38.951883,-92.3337366
Columbus GA USA,41,2019-04-15,32.4609764,-84.9877094
Columbus OH USA,52,2019-04-15,39.9622601,-83.0007065
Columbus MS USA,27,2019-04-15,43.336875649999996,-89.0196532340367
Corpus Christi TX USA,23,2019-04-15,27.7477253,-97.4014129
Dallas TX USA,43,2019-04-15,32.7762719,-96.7968559
Davenport IA USA,59,2019-04-15,41.5236436,-90.5776368
Dayton OH USA,47,2019-04-15,39.7589478,-84.1916069
Denver CO USA,60,2019-04-15,39.7348381,-104.9653271
Des Moines IA USA,50,2019-04-15,41.5910641,-93.6037149
Detroit MI USA,48,2019-04-15,42.3315509,-83.0466403
Dothan AL USA,18,2019-04-15,31.2237434,-85.3933906
Duluth MN USA,61,2019-04-15,46.7729322,-92.1251218
El Paso TX USA,29,2019-04-15,31.7754152,-106.4646348
Elmira NY USA,49,2019-04-15,42.0897965,-76.8077338
Erie PA USA,57,2019-04-15,42.1294712,-80.0852695
Eugene OR USA,60,2019-04-15,44.0505054,-123.0950506
Eureka CA USA,43,2019-04-15,40.8020712,-124.1636729
Evansville IN USA,43,2019-04-15,37.9747645,-87.5558483
Fairbanks AK USA,50,2019-04-15,64.837845,-147.716675
Fargo ND USA,39,2019-04-15,46.877229,-96.789821
Flint MI USA,48,2019-04-15,43.0161693,-83.6900211
Florence SC USA,28,2019-04-15,34.1984435,-79.7671658
Fresno CA USA,32,2019-04-15,36.7295295,-119.70886126075588
Ft. Myers FL USA,49,2019-04-15,26.640628,-81.8723084
Ft. Smith AR USA,49,2019-04-15,35.3872218,-94.4248983
Ft. Wayne IN USA,53,2019-04-15,41.0799898,-85.1386015
Gainesville FL USA,53,2019-04-15,29.67357765,-82.32337460192167
Grand Junction CO USA,49,2019-04-15,39.063956,-108.5507317
Grand Rapids MI USA,60,2019-04-15,42.9142413,-85.533004
Great Falls MT USA,42,2019-04-15,47.5048851,-111.2918908
Green Bay WI USA,54,2019-04-15,44.5126379,-88.0125794
Greensboro NC USA,41,2019-04-15,36.0726355,-79.7919754
Greenville NC USA,36,2019-04-15,35.612661,-77.3663538
Greenville SC USA,52,2019-04-15,34.851354,-82.3984882
Greenwood MS USA,18,2019-04-15,39.59493885,-86.12237861696312
Harlingen TX USA,17,2019-04-15,26.1908241,-97.6959794
Harrisburg PA USA,54,2019-04-15,40.2663107,-76.8861122
Harrisonburg VA USA,47,2019-04-15,38.4493315,-78.8688833
Hartford CT USA,52,2019-04-15,43.648048,-70.241416
Hattiesburg MS USA,29,2019-04-15,31.3271189,-89.2903392
Helena MT USA,45,2019-04-15,46.5927425,-112.0362771
Honolulu HI USA,46,2019-04-15,21.304547,-157.8556764
Houston TX USA,37,2019-04-15,29.7589382,-95.3676974
Huntsville AL USA,36,2019-04-15,33.554113,-86.804219
Idaho Falls ID USA,70,2019-04-15,43.4935245,-112.0400919
Indianapolis IN USA,52,2019-04-15,39.7683331,-86.1583502
Jackson MS USA,37,2019-04-15,28.530801699999998,-81.30324431076107
Jackson TN USA,22,2019-04-15,35.6144446,-88.8177418
Jacksonville FL USA,48,2019-04-15,30.3321838,-81.655651
Johnstown PA USA,51,2019-04-15,40.3267407,-78.9219698
Jonesboro AR USA,43,2019-04-15,35.8428646,-90.7034522
Joplin MO USA,47,2019-04-15,37.08418,-94.51323
Juneau AK USA,52,2019-04-15,58.3019496,-134.419734
Kansas City MO USA,49,2019-04-15,39.100105,-94.5781416
Knoxville TN USA,44,2019-04-15,35.9603948,-83.9210261
La Crosse WI USA,45,2019-04-15,43.8014053,-91.2395429
Lafayette IN USA,57,2019-04-15,40.4167022,-86.8752869
Lafayette LA USA,38,2019-04-15,30.2240897,-92.0198427
Lake Charles LA USA,54,2019-04-15,30.2265949,-93.2173759
Lansing MI USA,55,2019-04-15,42.7338147,-84.5207088
Laredo TX USA,16,2019-04-15,27.5199841,-99.4953764
Las Vegas NV USA,36,2019-04-15,36.1672559,-115.1485163
Lexington KY USA,49,2019-04-15,38.0464066,-84.4970393
Lima OH USA,37,2019-04-15,40.7399785,-84.105006
Lincoln NE USA,48,2019-04-15,40.8088861,-96.7077751
Little Rock AR USA,38,2019-04-15,34.7464809,-92.2895948
Los Angeles CA USA,44,2019-04-15,34.0536909,-118.2427666
Louisville KY USA,40,2019-04-15,38.2542376,-85.759407
Lubbock TX USA,43,2019-04-15,33.5635206,-101.879336
Macon GA USA,34,2019-04-15,32.8406946,-83.6324022
Madison WI USA,56,2019-04-15,43.074761,-89.3837613
Mankato MN USA,64,2019-04-15,44.1634663,-93.9993505
Marquette MI USA,70,2019-04-15,46.4481521,-87.6305899
Medford OR USA,59,2019-04-15,42.3264181,-122.8718605
Memphis TN USA,39,2019-04-15,35.1490215,-90.0516285
Meridian MS USA,37,2019-04-15,43.61732135,-116.40613112241579
Miami FL USA,40,2019-04-15,25.7742658,-80.1936589
Milwaukee WI USA,45,2019-04-15,43.0349931,-87.922497
Minneapolis MN USA,54,2019-04-15,44.9772995,-93.2654692
Minot ND USA,41,2019-04-15,48.23251,-101.296273
Missoula MT USA,80,2019-04-15,46.8701049,-113.9952672
Mobile AL USA,46,2019-04-15,39.092585,-84.853229
Monroe LA USA,23,2019-04-15,38.2722313,-90.1792484
Monterey CA USA,57,2019-04-15,36.2231079,-121.3877428
Montgomery AL USA,27,2019-04-15,40.85239,-78.266098
Nashville TN USA,44,2019-04-15,36.1622296,-86.7743531
New Orleans LA USA,45,2019-04-15,29.9499323,-90.0701156
New York NY USA,49,2019-04-15,40.7127281,-74.0060152
Norfolk VA USA,41,2019-04-15,36.8889933,-76.2481624
North Platte NE USA,69,2019-04-15,41.1238873,-100.7654232
Odessa TX USA,24,2019-04-15,31.8457149,-102.367687
Oklahoma City OK USA,61,2019-04-15,35.4729886,-97.5170536
Omaha NE USA,52,2019-04-15,41.2587459,-95.9383758
Orlando FL USA,46,2019-04-15,28.5479786,-81.41278418563017
Ottumwa IA USA,55,2019-04-15,41.0200145,-92.4112963
Paducah KY USA,37,2019-04-15,37.0833893,-88.6000478
Palm Springs CA USA,52,2019-04-15,33.8246269,-116.540303
Panama City FL USA,33,2019-04-15,30.1600827,-85.6545729
Parkersburg WV USA,28,2019-04-15,39.2699565,-81.5506916
Peoria IL USA,52,2019-04-15,40.6938609,-89.5891008
Philadelphia PA USA,51,2019-04-15,39.9527237,-75.1635262
Phoenix AZ USA,47,2019-04-15,33.4484367,-112.0741417
Pittsburgh PA USA,57,2019-04-15,40.4416941,-79.9900861
Portland OR USA,60,2019-04-15,45.5202471,-122.6741949
Portland ME USA,64,2019-04-15,43.6610277,-70.2548596
Presque Isle ME USA,61,2019-04-15,46.681479,-68.016357
Providence RI USA,59,2019-04-15,41.8239891,-71.4128343
Quincy IL USA,47,2019-04-15,42.2528772,-71.0022705
Raleigh NC USA,42,2019-04-15,35.7803977,-78.6390989
Rapid City SD USA,44,2019-04-15,44.081176,-103.228006
Reno NV USA,55,2019-04-15,39.5261206,-119.8126581
Richmond VA USA,49,2019-04-15,37.5385087,-77.43428
Roanoke VA USA,53,2019-04-15,37.270973,-79.9414313
Rochester MN USA,51,2019-04-15,44.0234387,-92.4630182
Rochester NY USA,57,2019-04-15,43.157285,-77.615214
Rockford IL USA,44,2019-04-15,42.2713945,-89.093966
Sacramento CA USA,43,2019-04-15,38.5815719,-121.4943996
Salisbury MD USA,30,2019-04-15,38.3662114,-75.6008881
Salt Lake City UT USA,60,2019-04-15,40.7596198,-111.8867975
San Angelo TX USA,55,2019-04-15,31.4648357,-100.4398442
San Antonio TX USA,35,2019-04-15,29.4246002,-98.4951405
San Diego CA USA,51,2019-04-15,32.7174209,-117.1627714
San Francisco CA USA,53,2019-04-15,37.7790262,-122.4199061
Santa Barbara CA USA,59,2019-04-15,34.4221319,-119.7026673
Savannah GA USA,39,2019-04-15,32.0809263,-81.0911768
Seattle WA USA,61,2019-04-15,47.6038321,-122.3300624
Sherman TX USA,27,2019-04-15,36.2452294,-101.8858689
Shreveport LA USA,26,2019-04-15,32.5221828,-93.7651944
Sioux City IA USA,40,2019-04-15,42.4966815,-96.4058782
Sioux Falls SD USA,48,2019-04-15,43.5499749,-96.700327
South Bend IN USA,77,2019-04-15,41.6833813,-86.2500066
Spokane WA USA,54,2019-04-15,47.6579425,-117.4212265
Springfield MO USA,48,2019-04-15,37.2166779,-93.2920373
Springfield MA USA,51,2019-04-15,42.1014831,-72.589811
St. Joseph MO USA,21,2019-04-15,39.7686055,-94.8466322
St. Louis MO USA,49,2019-04-15,38.6268039,-90.1994097
Syracuse NY USA,53,2019-04-15,43.0481221,-76.1474244
Tallahassee FL USA,39,2019-04-15,30.4380832,-84.2809332
Tampa FL USA,48,2019-04-15,27.9518491,-82.4563972
Terre Haute IN USA,48,2019-04-15,39.4667025,-87.4139119
Toledo OH USA,49,2019-04-15,41.6786754,-83.5127283
Topeka KS USA,56,2019-04-15,39.049011,-95.677556
Traverse City MI USA,56,2019-04-15,44.7606441,-85.6165301
Tri VA USA,39,2019-04-15,38.5467876,-77.3366491
Tucson AZ USA,51,2019-04-15,32.2228765,-110.9748477
Tulsa OK USA,46,2019-04-15,36.1556805,-95.9929113
Twin Falls ID USA,58,2019-04-15,42.5704219,-114.4603171
Tyler TX USA,37,2019-04-15,32.3512601,-95.3010624
Utica NY USA,48,2019-04-15,43.1009031,-75.2326641
Victoria TX USA,53,2019-04-15,28.8026443,-96.9766308
Waco TX USA,44,2019-04-15,31.549333,-97.1466695
Washington DC USA,52,2019-04-15,38.8948932,-77.0365529
Watertown NY USA,51,2019-04-15,43.9747838,-75.9107565
Wausau WI USA,49,2019-04-15,44.9596017,-89.6298239
West Palm Beach FL USA,51,2019-04-15,26.7153425,-80.0533746
Wheeling WV USA,49,2019-04-15,40.0639616,-80.7209149
Wichita Falls TX USA,32,2019-04-15,33.9137085,-98.4933873
Wichita KS USA,47,2019-04-15,37.6922361,-97.3375448
Wilkes Barre PA USA,45,2019-04-15,41.2464824,-75.8817316
Wilmington NC USA,74,2019-04-15,34.2257282,-77.9447107
Yakima WA USA,53,2019-04-15,46.601557,-120.5108421
Youngstown OH USA,46,2019-04-15,41.1035786,-80.6520161
Yuma AZ USA,30,2019-04-15,32.6926588,-114.6276157
Zanesville OH USA,37,2019-04-15,39.9403453,-82.0131924
Albany NY USA,8,2019-04-22,42.6511674,-73.754968
Albuquerque NM USA,5,2019-04-22,35.0841034,-106.6509851
Amarillo TX USA,12,2019-04-22,35.2072185,-101.8338246
Anchorage AK USA,11,2019-04-22,61.2163129,-149.8948523
Atlanta GA USA,7,2019-04-22,33.7490987,-84.3901849
Augusta GA USA,11,2019-04-22,33.4709714,-81.9748429
Austin TX USA,6,2019-04-22,30.2711286,-97.7436995
Bakersfield CA USA,12,2019-04-22,35.3738712,-119.0194639
Baltimore MD USA,6,2019-04-22,39.284749399999995,-76.62047463969989
Bangor ME USA,22,2019-04-22,44.8011821,-68.7778138
Baton Rouge LA USA,13,2019-04-22,30.4459596,-91.18738
Beaumont TX USA,14,2019-04-22,30.0860459,-94.1018461
Bend OR USA,24,2019-04-22,44.0581728,-121.3153096
"Billings, MT USA",44,2019-04-22,45.7874957,-108.49607
Biloxi MS USA,17,2019-04-22,30.374673,-88.84594333482862
Binghamton NY USA,23,2019-04-22,42.096968,-75.914341
Birmingham AL USA,3,2019-04-22,33.570499,-86.765783
Bluefield WV USA,24,2019-04-22,37.2698395,-81.2223195
Boise ID USA,9,2019-04-22,43.6166163,-116.200886
Boston MA USA,8,2019-04-22,42.3602534,-71.0582912
Bowling Green KY USA,26,2019-04-22,36.9903199,-86.4436018
Buffalo NY USA,13,2019-04-22,42.8867166,-78.8783922
Burlington VT USA,14,2019-04-22,44.4762975,-73.2135472
Cedar Rapids IA USA,6,2019-04-22,41.9758872,-91.6704053
Champaign IL USA,11,2019-04-22,40.1164205,-88.2433829
Charleston SC USA,5,2019-04-22,32.7876012,-79.9402728
Charleston WV USA,6,2019-04-22,38.3505995,-81.6332812
Charlotte NC USA,6,2019-04-22,35.2270869,-80.8431268
Charlottesville VA USA,16,2019-04-22,38.029306,-78.4766781
Chattanooga TN USA,9,2019-04-22,35.0457219,-85.3094883
Cheyenne WY USA,37,2019-04-22,40.640361,-74.367318
Chicago IL USA,6,2019-04-22,41.8755616,-87.6244212
Chico CA USA,17,2019-04-22,39.7284945,-121.8374777
Cincinnati OH USA,10,2019-04-22,39.1014537,-84.5124602
Clarksburg WV USA,27,2019-04-22,39.2806451,-80.3445341
Cleveland OH USA,7,2019-04-22,41.5051613,-81.6934446
Colorado Springs CO USA,12,2019-04-22,38.8339578,-104.8253485
Columbia SC USA,6,2019-04-22,34.0007493,-81.0343313
Columbus GA USA,14,2019-04-22,32.4609764,-84.9877094
Columbus OH USA,8,2019-04-22,39.9622601,-83.0007065
Columbus MS USA,17,2019-04-22,43.336875649999996,-89.0196532340367
Dallas TX USA,6,2019-04-22,32.7762719,-96.7968559
Davenport IA USA,12,2019-04-22,41.5236436,-90.5776368
Dayton OH USA,11,2019-04-22,39.7589478,-84.1916069
Denver CO USA,6,2019-04-22,39.7348381,-104.9653271
Detroit MI USA,9,2019-04-22,42.3315509,-83.0466403
El Paso TX USA,8,2019-04-22,31.7754152,-106.4646348
Elmira NY USA,25,2019-04-22,42.0897965,-76.8077338
Erie PA USA,21,2019-04-22,42.1294712,-80.0852695
Eugene OR USA,8,2019-04-22,44.0505054,-123.0950506
Eureka CA USA,35,2019-04-22,40.8020712,-124.1636729
Evansville IN USA,8,2019-04-22,37.9747645,-87.5558483
Fargo ND USA,17,2019-04-22,46.877229,-96.789821
Flint MI USA,10,2019-04-22,43.0161693,-83.6900211
Florence SC USA,13,2019-04-22,34.1984435,-79.7671658
Fresno CA USA,6,2019-04-22,36.7295295,-119.70886126075588
Ft. Myers FL USA,5,2019-04-22,26.640628,-81.8723084
Ft. Smith AR USA,9,2019-04-22,35.3872218,-94.4248983
Ft. Wayne IN USA,13,2019-04-22,41.0799898,-85.1386015
Gainesville FL USA,12,2019-04-22,29.67357765,-82.32337460192167
Grand Junction CO USA,28,2019-04-22,39.063956,-108.5507317
Grand Rapids MI USA,7,2019-04-22,42.9142413,-85.533004
Green Bay WI USA,9,2019-04-22,44.5126379,-88.0125794
Greensboro NC USA,6,2019-04-22,36.0726355,-79.7919754
Greenville NC USA,6,2019-04-22,35.612661,-77.3663538
Greenville SC USA,9,2019-04-22,34.851354,-82.3984882
Greenwood MS USA,56,2019-04-22,39.59493885,-86.12237861696312
Harlingen TX USA,7,2019-04-22,26.1908241,-97.6959794
Harrisburg PA USA,5,2019-04-22,40.2663107,-76.8861122
Hartford CT USA,6,2019-04-22,43.648048,-70.241416
Hattiesburg MS USA,26,2019-04-22,31.3271189,-89.2903392
Honolulu HI USA,7,2019-04-22,21.304547,-157.8556764
Houston TX USA,4,2019-04-22,29.7589382,-95.3676974
Huntsville AL USA,6,2019-04-22,33.554113,-86.804219
Idaho Falls ID USA,44,2019-04-22,43.4935245,-112.0400919
Indianapolis IN USA,8,2019-04-22,39.7683331,-86.1583502
Jacksonville FL USA,5,2019-04-22,30.3321838,-81.655651
Johnstown PA USA,15,2019-04-22,40.3267407,-78.9219698
Joplin MO USA,17,2019-04-22,37.08418,-94.51323
Juneau AK USA,83,2019-04-22,58.3019496,-134.419734
Kansas City MO USA,7,2019-04-22,39.100105,-94.5781416
Knoxville TN USA,12,2019-04-22,35.9603948,-83.9210261
Lafayette LA USA,11,2019-04-22,30.2240897,-92.0198427
Lake Charles LA USA,24,2019-04-22,30.2265949,-93.2173759
Lansing MI USA,11,2019-04-22,42.7338147,-84.5207088
Las Vegas NV USA,8,2019-04-22,36.1672559,-115.1485163
Lexington KY USA,9,2019-04-22,38.0464066,-84.4970393
Little Rock AR USA,6,2019-04-22,34.7464809,-92.2895948
Los Angeles CA USA,7,2019-04-22,34.0536909,-118.2427666
Louisville KY USA,7,2019-04-22,38.2542376,-85.759407
Lubbock TX USA,17,2019-04-22,33.5635206,-101.879336
Madison WI USA,21,2019-04-22,43.074761,-89.3837613
Medford OR USA,12,2019-04-22,42.3264181,-122.8718605
Memphis TN USA,6,2019-04-22,35.1490215,-90.0516285
Miami FL USA,5,2019-04-22,25.7742658,-80.1936589
Milwaukee WI USA,7,2019-04-22,43.0349931,-87.922497
Minneapolis MN USA,8,2019-04-22,44.9772995,-93.2654692
Minot ND USA,14,2019-04-22,48.23251,-101.296273
Missoula MT USA,18,2019-04-22,46.8701049,-113.9952672
Mobile AL USA,7,2019-04-22,39.092585,-84.853229
Monterey CA USA,7,2019-04-22,36.2231079,-121.3877428
Montgomery AL USA,15,2019-04-22,40.85239,-78.266098
Nashville TN USA,8,2019-04-22,36.1622296,-86.7743531
New Orleans LA USA,5,2019-04-22,29.9499323,-90.0701156
New York NY USA,5,2019-04-22,40.7127281,-74.0060152
Norfolk VA USA,6,2019-04-22,36.8889933,-76.2481624
Odessa TX USA,18,2019-04-22,31.8457149,-102.367687
Oklahoma City OK USA,4,2019-04-22,35.4729886,-97.5170536
Omaha NE USA,8,2019-04-22,41.2587459,-95.9383758
Orlando FL USA,4,2019-04-22,28.5479786,-81.41278418563017
Ottumwa IA USA,53,2019-04-22,41.0200145,-92.4112963
Paducah KY USA,7,2019-04-22,37.0833893,-88.6000478
Palm Springs CA USA,16,2019-04-22,33.8246269,-116.540303
Panama City FL USA,15,2019-04-22,30.1600827,-85.6545729
Parkersburg WV USA,44,2019-04-22,39.2699565,-81.5506916
Peoria IL USA,15,2019-04-22,40.6938609,-89.5891008
Philadelphia PA USA,5,2019-04-22,39.9527237,-75.1635262
Phoenix AZ USA,8,2019-04-22,33.4484367,-112.0741417
Pittsburgh PA USA,4,2019-04-22,40.4416941,-79.9900861
Portland OR USA,10,2019-04-22,45.5202471,-122.6741949
Portland ME USA,5,2019-04-22,43.6610277,-70.2548596
Presque Isle ME USA,100,2019-04-22,46.681479,-68.016357
Providence RI USA,13,2019-04-22,41.8239891,-71.4128343
Raleigh NC USA,12,2019-04-22,35.7803977,-78.6390989
Rapid City SD USA,23,2019-04-22,44.081176,-103.228006
Reno NV USA,20,2019-04-22,39.5261206,-119.8126581
Richmond VA USA,8,2019-04-22,37.5385087,-77.43428
Roanoke VA USA,15,2019-04-22,37.270973,-79.9414313
Rochester MN USA,13,2019-04-22,44.0234387,-92.4630182
Rochester NY USA,6,2019-04-22,43.157285,-77.615214
Rockford IL USA,12,2019-04-22,42.2713945,-89.093966
Sacramento CA USA,6,2019-04-22,38.5815719,-121.4943996
Salisbury MD USA,13,2019-04-22,38.3662114,-75.6008881
Salt Lake City UT USA,7,2019-04-22,40.7596198,-111.8867975
San Antonio TX USA,6,2019-04-22,29.4246002,-98.4951405
San Diego CA USA,7,2019-04-22,32.7174209,-117.1627714
San Francisco CA USA,5,2019-04-22,37.7790262,-122.4199061
Santa Barbara CA USA,6,2019-04-22,34.4221319,-119.7026673
Savannah GA USA,11,2019-04-22,32.0809263,-81.0911768
Seattle WA USA,9,2019-04-22,47.6038321,-122.3300624
Shreveport LA USA,7,2019-04-22,32.5221828,-93.7651944
Sioux City IA USA,31,2019-04-22,42.4966815,-96.4058782
Sioux Falls SD USA,8,2019-04-22,43.5499749,-96.700327
South Bend IN USA,9,2019-04-22,41.6833813,-86.2500066
Spokane WA USA,7,2019-04-22,47.6579425,-117.4212265
Springfield MO USA,16,2019-04-22,37.2166779,-93.2920373
Springfield MA USA,6,2019-04-22,42.1014831,-72.589811
St. Louis MO USA,6,2019-04-22,38.6268039,-90.1994097
Syracuse NY USA,30,2019-04-22,43.0481221,-76.1474244
Tallahassee FL USA,14,2019-04-22,30.4380832,-84.2809332
Tampa FL USA,7,2019-04-22,27.9518491,-82.4563972
Toledo OH USA,7,2019-04-22,41.6786754,-83.5127283
Topeka KS USA,23,2019-04-22,39.049011,-95.677556
Traverse City MI USA,11,2019-04-22,44.7606441,-85.6165301
Tri VA USA,12,2019-04-22,38.5467876,-77.3366491
Tucson AZ USA,11,2019-04-22,32.2228765,-110.9748477
Tulsa OK USA,4,2019-04-22,36.1556805,-95.9929113
Twin Falls ID USA,33,2019-04-22,42.5704219,-114.4603171
Tyler TX USA,9,2019-04-22,32.3512601,-95.3010624
Utica NY USA,21,2019-04-22,43.1009031,-75.2326641
Waco TX USA,14,2019-04-22,31.549333,-97.1466695
Washington DC USA,8,2019-04-22,38.8948932,-77.0365529
Wausau WI USA,19,2019-04-22,44.9596017,-89.6298239
West Palm Beach FL USA,7,2019-04-22,26.7153425,-80.0533746
Wheeling WV USA,21,2019-04-22,40.0639616,-80.7209149
Wichita Falls TX USA,15,2019-04-22,33.9137085,-98.4933873
Wichita KS USA,6,2019-04-22,37.6922361,-97.3375448
Wilkes Barre PA USA,9,2019-04-22,41.2464824,-75.8817316
Wilmington NC USA,20,2019-04-22,34.2257282,-77.9447107
Yakima WA USA,8,2019-04-22,46.601557,-120.5108421
Youngstown OH USA,9,2019-04-22,41.1035786,-80.6520161
Yuma AZ USA,18,2019-04-22,32.6926588,-114.6276157
Albany NY USA,8,2019-04-29,42.6511674,-73.754968
Albuquerque NM USA,5,2019-04-29,35.0841034,-106.6509851
Anchorage AK USA,21,2019-04-29,61.2163129,-149.8948523
Atlanta GA USA,2,2019-04-29,33.7490987,-84.3901849
Augusta GA USA,15,2019-04-29,33.4709714,-81.9748429
Austin TX USA,7,2019-04-29,30.2711286,-97.7436995
Baltimore MD USA,6,2019-04-29,39.284749399999995,-76.62047463969989
Baton Rouge LA USA,11,2019-04-29,30.4459596,-91.18738
Bend OR USA,44,2019-04-29,44.0581728,-121.3153096
Birmingham AL USA,5,2019-04-29,33.570499,-86.765783
Boise ID USA,11,2019-04-29,43.6166163,-116.200886
Boston MA USA,3,2019-04-29,42.3602534,-71.0582912
Buffalo NY USA,5,2019-04-29,42.8867166,-78.8783922
Charleston SC USA,10,2019-04-29,32.7876012,-79.9402728
Charlotte NC USA,4,2019-04-29,35.2270869,-80.8431268
Chattanooga TN USA,21,2019-04-29,35.0457219,-85.3094883
Chicago IL USA,4,2019-04-29,41.8755616,-87.6244212
Cincinnati OH USA,3,2019-04-29,39.1014537,-84.5124602
Cleveland OH USA,5,2019-04-29,41.5051613,-81.6934446
Colorado Springs CO USA,9,2019-04-29,38.8339578,-104.8253485
Columbia SC USA,8,2019-04-29,34.0007493,-81.0343313
Columbia MO USA,21,2019-04-29,38.951883,-92.3337366
Columbus OH USA,4,2019-04-29,39.9622601,-83.0007065
Corpus Christi TX USA,18,2019-04-29,27.7477253,-97.4014129
Dallas TX USA,3,2019-04-29,32.7762719,-96.7968559
Davenport IA USA,14,2019-04-29,41.5236436,-90.5776368
Dayton OH USA,11,2019-04-29,39.7589478,-84.1916069
Denver CO USA,5,2019-04-29,39.7348381,-104.9653271
Des Moines IA USA,8,2019-04-29,41.5910641,-93.6037149
Detroit MI USA,7,2019-04-29,42.3315509,-83.0466403
Duluth MN USA,25,2019-04-29,46.7729322,-92.1251218
El Paso TX USA,9,2019-04-29,31.7754152,-106.4646348
Elmira NY USA,48,2019-04-29,42.0897965,-76.8077338
Erie PA USA,26,2019-04-29,42.1294712,-80.0852695
Eugene OR USA,29,2019-04-29,44.0505054,-123.0950506
Eureka CA USA,63,2019-04-29,40.8020712,-124.1636729
Evansville IN USA,16,2019-04-29,37.9747645,-87.5558483
Fargo ND USA,24,2019-04-29,46.877229,-96.789821
Flint MI USA,9,2019-04-29,43.0161693,-83.6900211
Florence SC USA,12,2019-04-29,34.1984435,-79.7671658
Ft. Myers FL USA,14,2019-04-29,26.640628,-81.8723084
Ft. Smith AR USA,11,2019-04-29,35.3872218,-94.4248983
Ft. Wayne IN USA,15,2019-04-29,41.0799898,-85.1386015
Great Falls MT USA,76,2019-04-29,47.5048851,-111.2918908
Green Bay WI USA,9,2019-04-29,44.5126379,-88.0125794
Greensboro NC USA,11,2019-04-29,36.0726355,-79.7919754
Greenville NC USA,23,2019-04-29,35.612661,-77.3663538
Greenville SC USA,8,2019-04-29,34.851354,-82.3984882
Harrisburg PA USA,10,2019-04-29,40.2663107,-76.8861122
Harrisonburg VA USA,39,2019-04-29,38.4493315,-78.8688833
Hartford CT USA,7,2019-04-29,43.648048,-70.241416
Houston TX USA,4,2019-04-29,29.7589382,-95.3676974
Indianapolis IN USA,5,2019-04-29,39.7683331,-86.1583502
Jacksonville FL USA,9,2019-04-29,30.3321838,-81.655651
Johnstown PA USA,19,2019-04-29,40.3267407,-78.9219698
Jonesboro AR USA,53,2019-04-29,35.8428646,-90.7034522
Kansas City MO USA,3,2019-04-29,39.100105,-94.5781416
Knoxville TN USA,7,2019-04-29,35.9603948,-83.9210261
Lafayette LA USA,20,2019-04-29,30.2240897,-92.0198427
Lansing MI USA,14,2019-04-29,42.7338147,-84.5207088
Las Vegas NV USA,3,2019-04-29,36.1672559,-115.1485163
Lexington KY USA,8,2019-04-29,38.0464066,-84.4970393
Little Rock AR USA,7,2019-04-29,34.7464809,-92.2895948
Los Angeles CA USA,4,2019-04-29,34.0536909,-118.2427666
Louisville KY USA,5,2019-04-29,38.2542376,-85.759407
Lubbock TX USA,21,2019-04-29,33.5635206,-101.879336
Macon GA USA,18,2019-04-29,32.8406946,-83.6324022
Madison WI USA,8,2019-04-29,43.074761,-89.3837613
Memphis TN USA,6,2019-04-29,35.1490215,-90.0516285
Miami FL USA,2,2019-04-29,25.7742658,-80.1936589
Milwaukee WI USA,6,2019-04-29,43.0349931,-87.922497
Minneapolis MN USA,2,2019-04-29,44.9772995,-93.2654692
Minot ND USA,25,2019-04-29,48.23251,-101.296273
Mobile AL USA,7,2019-04-29,39.092585,-84.853229
Montgomery AL USA,19,2019-04-29,40.85239,-78.266098
Nashville TN USA,6,2019-04-29,36.1622296,-86.7743531
New Orleans LA USA,10,2019-04-29,29.9499323,-90.0701156
New York NY USA,4,2019-04-29,40.7127281,-74.0060152
Norfolk VA USA,4,2019-04-29,36.8889933,-76.2481624
Oklahoma City OK USA,14,2019-04-29,35.4729886,-97.5170536
Orlando FL USA,2,2019-04-29,28.5479786,-81.41278418563017
Panama City FL USA,28,2019-04-29,30.1600827,-85.6545729
Philadelphia PA USA,6,2019-04-29,39.9527237,-75.1635262
Phoenix AZ USA,6,2019-04-29,33.4484367,-112.0741417
Pittsburgh PA USA,24,2019-04-29,40.4416941,-79.9900861
Portland OR USA,8,2019-04-29,45.5202471,-122.6741949
Portland ME USA,9,2019-04-29,43.6610277,-70.2548596
Raleigh NC USA,5,2019-04-29,35.7803977,-78.6390989
Reno NV USA,13,2019-04-29,39.5261206,-119.8126581
Richmond VA USA,9,2019-04-29,37.5385087,-77.43428
Roanoke VA USA,8,2019-04-29,37.270973,-79.9414313
Rochester NY USA,16,2019-04-29,43.157285,-77.615214
Rockford IL USA,21,2019-04-29,42.2713945,-89.093966
Sacramento CA USA,6,2019-04-29,38.5815719,-121.4943996
Salt Lake City UT USA,6,2019-04-29,40.7596198,-111.8867975
San Antonio TX USA,3,2019-04-29,29.4246002,-98.4951405
San Diego CA USA,5,2019-04-29,32.7174209,-117.1627714
San Francisco CA USA,5,2019-04-29,37.7790262,-122.4199061
Santa Barbara CA USA,12,2019-04-29,34.4221319,-119.7026673
Savannah GA USA,10,2019-04-29,32.0809263,-81.0911768
Seattle WA USA,5,2019-04-29,47.6038321,-122.3300624
South Bend IN USA,11,2019-04-29,41.6833813,-86.2500066
Spokane WA USA,9,2019-04-29,47.6579425,-117.4212265
Springfield MO USA,20,2019-04-29,37.2166779,-93.2920373
Springfield MA USA,17,2019-04-29,42.1014831,-72.589811
St. Joseph MO USA,100,2019-04-29,39.7686055,-94.8466322
St. Louis MO USA,6,2019-04-29,38.6268039,-90.1994097
Syracuse NY USA,12,2019-04-29,43.0481221,-76.1474244
Tallahassee FL USA,40,2019-04-29,30.4380832,-84.2809332
Tampa FL USA,2,2019-04-29,27.9518491,-82.4563972
Topeka KS USA,22,2019-04-29,39.049011,-95.677556
Traverse City MI USA,20,2019-04-29,44.7606441,-85.6165301
Tucson AZ USA,8,2019-04-29,32.2228765,-110.9748477
Tulsa OK USA,7,2019-04-29,36.1556805,-95.9929113
Waco TX USA,16,2019-04-29,31.549333,-97.1466695
Washington DC USA,4,2019-04-29,38.8948932,-77.0365529
Wausau WI USA,23,2019-04-29,44.9596017,-89.6298239
West Palm Beach FL USA,4,2019-04-29,26.7153425,-80.0533746
Wheeling WV USA,39,2019-04-29,40.0639616,-80.7209149
Wichita KS USA,9,2019-04-29,37.6922361,-97.3375448
Wilkes Barre PA USA,7,2019-04-29,41.2464824,-75.8817316
Wilmington NC USA,37,2019-04-29,34.2257282,-77.9447107
Youngstown OH USA,17,2019-04-29,41.1035786,-80.6520161
Albany GA USA,47,2019-05-06,40.0555158,-82.8457691
Albany NY USA,8,2019-05-06,42.6511674,-73.754968
Albuquerque NM USA,35,2019-05-06,35.0841034,-106.6509851
Atlanta GA USA,2,2019-05-06,33.7490987,-84.3901849
Austin TX USA,5,2019-05-06,30.2711286,-97.7436995
Bakersfield CA USA,20,2019-05-06,35.3738712,-119.0194639
Birmingham AL USA,7,2019-05-06,33.570499,-86.765783
Boston MA USA,4,2019-05-06,42.3602534,-71.0582912
Buffalo NY USA,7,2019-05-06,42.8867166,-78.8783922
Burlington VT USA,16,2019-05-06,44.4762975,-73.2135472
Butte MT USA,73,2019-05-06,46.0131505,-112.5365089
Cedar Rapids IA USA,15,2019-05-06,41.9758872,-91.6704053
Champaign IL USA,15,2019-05-06,40.1164205,-88.2433829
Charlottesville VA USA,47,2019-05-06,38.029306,-78.4766781
Chattanooga TN USA,15,2019-05-06,35.0457219,-85.3094883
Chicago IL USA,4,2019-05-06,41.8755616,-87.6244212
Chico CA USA,29,2019-05-06,39.7284945,-121.8374777
Cincinnati OH USA,5,2019-05-06,39.1014537,-84.5124602
Cleveland OH USA,3,2019-05-06,41.5051613,-81.6934446
Columbia SC USA,12,2019-05-06,34.0007493,-81.0343313
Columbus GA USA,26,2019-05-06,32.4609764,-84.9877094
Columbus OH USA,8,2019-05-06,39.9622601,-83.0007065
Dallas TX USA,5,2019-05-06,32.7762719,-96.7968559
Davenport IA USA,20,2019-05-06,41.5236436,-90.5776368
Dayton OH USA,12,2019-05-06,39.7589478,-84.1916069
Denver CO USA,4,2019-05-06,39.7348381,-104.9653271
Des Moines IA USA,11,2019-05-06,41.5910641,-93.6037149
Detroit MI USA,3,2019-05-06,42.3315509,-83.0466403
Duluth MN USA,37,2019-05-06,46.7729322,-92.1251218
El Paso TX USA,14,2019-05-06,31.7754152,-106.4646348
Elmira NY USA,67,2019-05-06,42.0897965,-76.8077338
Eugene OR USA,20,2019-05-06,44.0505054,-123.0950506
Eureka CA USA,88,2019-05-06,40.8020712,-124.1636729
Evansville IN USA,23,2019-05-06,37.9747645,-87.5558483
Fargo ND USA,23,2019-05-06,46.877229,-96.789821
Fresno CA USA,8,2019-05-06,36.7295295,-119.70886126075588
Ft. Smith AR USA,16,2019-05-06,35.3872218,-94.4248983
Ft. Wayne IN USA,21,2019-05-06,41.0799898,-85.1386015
Gainesville FL USA,36,2019-05-06,29.67357765,-82.32337460192167
Grand Rapids MI USA,7,2019-05-06,42.9142413,-85.533004
Greenville SC USA,12,2019-05-06,34.851354,-82.3984882
Harlingen TX USA,11,2019-05-06,26.1908241,-97.6959794
Harrisburg PA USA,14,2019-05-06,40.2663107,-76.8861122
Hartford CT USA,4,2019-05-06,43.648048,-70.241416
Honolulu HI USA,9,2019-05-06,21.304547,-157.8556764
Houston TX USA,3,2019-05-06,29.7589382,-95.3676974
Huntsville AL USA,22,2019-05-06,33.554113,-86.804219
Indianapolis IN USA,4,2019-05-06,39.7683331,-86.1583502
Jackson MS USA,16,2019-05-06,28.530801699999998,-81.30324431076107
Jonesboro AR USA,78,2019-05-06,35.8428646,-90.7034522
Joplin MO USA,44,2019-05-06,37.08418,-94.51323
Kansas City MO USA,9,2019-05-06,39.100105,-94.5781416
Knoxville TN USA,10,2019-05-06,35.9603948,-83.9210261
Lafayette IN USA,100,2019-05-06,40.4167022,-86.8752869
Las Vegas NV USA,5,2019-05-06,36.1672559,-115.1485163
Lexington KY USA,12,2019-05-06,38.0464066,-84.4970393
Lincoln NE USA,19,2019-05-06,40.8088861,-96.7077751
Los Angeles CA USA,4,2019-05-06,34.0536909,-118.2427666
Louisville KY USA,7,2019-05-06,38.2542376,-85.759407
Madison WI USA,11,2019-05-06,43.074761,-89.3837613
Mankato MN USA,94,2019-05-06,44.1634663,-93.9993505
Medford OR USA,32,2019-05-06,42.3264181,-122.8718605
Miami FL USA,3,2019-05-06,25.7742658,-80.1936589
Milwaukee WI USA,6,2019-05-06,43.0349931,-87.922497
Minneapolis MN USA,5,2019-05-06,44.9772995,-93.2654692
Minot ND USA,37,2019-05-06,48.23251,-101.296273
Mobile AL USA,9,2019-05-06,39.092585,-84.853229
Nashville TN USA,4,2019-05-06,36.1622296,-86.7743531
New Orleans LA USA,14,2019-05-06,29.9499323,-90.0701156
New York NY USA,2,2019-05-06,40.7127281,-74.0060152
Norfolk VA USA,6,2019-05-06,36.8889933,-76.2481624
Omaha NE USA,17,2019-05-06,41.2587459,-95.9383758
Orlando FL USA,2,2019-05-06,28.5479786,-81.41278418563017
Peoria IL USA,20,2019-05-06,40.6938609,-89.5891008
Philadelphia PA USA,2,2019-05-06,39.9527237,-75.1635262
Phoenix AZ USA,6,2019-05-06,33.4484367,-112.0741417
Portland OR USA,3,2019-05-06,45.5202471,-122.6741949
Providence RI USA,11,2019-05-06,41.8239891,-71.4128343
Raleigh NC USA,3,2019-05-06,35.7803977,-78.6390989
Richmond VA USA,16,2019-05-06,37.5385087,-77.43428
Roanoke VA USA,17,2019-05-06,37.270973,-79.9414313
Rochester MN USA,35,2019-05-06,44.0234387,-92.4630182
Rochester NY USA,12,2019-05-06,43.157285,-77.615214
Sacramento CA USA,6,2019-05-06,38.5815719,-121.4943996
Salt Lake City UT USA,11,2019-05-06,40.7596198,-111.8867975
San Antonio TX USA,7,2019-05-06,29.4246002,-98.4951405
San Diego CA USA,7,2019-05-06,32.7174209,-117.1627714
San Francisco CA USA,3,2019-05-06,37.7790262,-122.4199061
Savannah GA USA,14,2019-05-06,32.0809263,-81.0911768
Seattle WA USA,4,2019-05-06,47.6038321,-122.3300624
South Bend IN USA,16,2019-05-06,41.6833813,-86.2500066
Spokane WA USA,13,2019-05-06,47.6579425,-117.4212265
Springfield MO USA,14,2019-05-06,37.2166779,-93.2920373
Springfield MA USA,17,2019-05-06,42.1014831,-72.589811
St. Louis MO USA,4,2019-05-06,38.6268039,-90.1994097
Syracuse NY USA,13,2019-05-06,43.0481221,-76.1474244
Tri VA USA,22,2019-05-06,38.5467876,-77.3366491
Washington DC USA,4,2019-05-06,38.8948932,-77.0365529
West Palm Beach FL USA,6,2019-05-06,26.7153425,-80.0533746
Wichita KS USA,18,2019-05-06,37.6922361,-97.3375448
Wilkes Barre PA USA,11,2019-05-06,41.2464824,-75.8817316
Yakima WA USA,22,2019-05-06,46.601557,-120.5108421
Albany GA USA,54,2019-05-13,40.0555158,-82.8457691
Albany NY USA,9,2019-05-13,42.6511674,-73.754968
Albuquerque NM USA,8,2019-05-13,35.0841034,-106.6509851
Alexandria LA USA,100,2019-05-13,38.8147596,-77.09024765272724
Amarillo TX USA,38,2019-05-13,35.2072185,-101.8338246
Atlanta GA USA,5,2019-05-13,33.7490987,-84.3901849
Augusta GA USA,25,2019-05-13,33.4709714,-81.9748429
Austin TX USA,6,2019-05-13,30.2711286,-97.7436995
Baltimore MD USA,7,2019-05-13,39.284749399999995,-76.62047463969989
Birmingham AL USA,16,2019-05-13,33.570499,-86.765783
Boise ID USA,18,2019-05-13,43.6166163,-116.200886
Boston MA USA,5,2019-05-13,42.3602534,-71.0582912
Buffalo NY USA,9,2019-05-13,42.8867166,-78.8783922
Burlington VT USA,19,2019-05-13,44.4762975,-73.2135472
Butte MT USA,78,2019-05-13,46.0131505,-112.5365089
Champaign IL USA,19,2019-05-13,40.1164205,-88.2433829
Charleston SC USA,16,2019-05-13,32.7876012,-79.9402728
Charlotte NC USA,12,2019-05-13,35.2270869,-80.8431268
Chicago IL USA,4,2019-05-13,41.8755616,-87.6244212
Cincinnati OH USA,13,2019-05-13,39.1014537,-84.5124602
Cleveland OH USA,5,2019-05-13,41.5051613,-81.6934446
Colorado Springs CO USA,30,2019-05-13,38.8339578,-104.8253485
Columbus GA USA,31,2019-05-13,32.4609764,-84.9877094
Columbus OH USA,5,2019-05-13,39.9622601,-83.0007065
Corpus Christi TX USA,30,2019-05-13,27.7477253,-97.4014129
Dallas TX USA,4,2019-05-13,32.7762719,-96.7968559
Denver CO USA,8,2019-05-13,39.7348381,-104.9653271
Detroit MI USA,5,2019-05-13,42.3315509,-83.0466403
Elmira NY USA,78,2019-05-13,42.0897965,-76.8077338
Eugene OR USA,23,2019-05-13,44.0505054,-123.0950506
Evansville IN USA,27,2019-05-13,37.9747645,-87.5558483
Fargo ND USA,26,2019-05-13,46.877229,-96.789821
Flint MI USA,16,2019-05-13,43.0161693,-83.6900211
Fresno CA USA,9,2019-05-13,36.7295295,-119.70886126075588
Ft. Smith AR USA,19,2019-05-13,35.3872218,-94.4248983
Ft. Wayne IN USA,24,2019-05-13,41.0799898,-85.1386015
Greenville NC USA,19,2019-05-13,35.612661,-77.3663538
Harrisburg PA USA,24,2019-05-13,40.2663107,-76.8861122
Hartford CT USA,5,2019-05-13,43.648048,-70.241416
Houston TX USA,3,2019-05-13,29.7589382,-95.3676974
Huntsville AL USA,17,2019-05-13,33.554113,-86.804219
Idaho Falls ID USA,43,2019-05-13,43.4935245,-112.0400919
Indianapolis IN USA,17,2019-05-13,39.7683331,-86.1583502
Jacksonville FL USA,8,2019-05-13,30.3321838,-81.655651
Johnstown PA USA,23,2019-05-13,40.3267407,-78.9219698
Kansas City MO USA,8,2019-05-13,39.100105,-94.5781416
Knoxville TN USA,19,2019-05-13,35.9603948,-83.9210261
Lafayette LA USA,33,2019-05-13,30.2240897,-92.0198427
Lansing MI USA,25,2019-05-13,42.7338147,-84.5207088
Las Vegas NV USA,11,2019-05-13,36.1672559,-115.1485163
Lexington KY USA,14,2019-05-13,38.0464066,-84.4970393
Little Rock AR USA,12,2019-05-13,34.7464809,-92.2895948
Los Angeles CA USA,4,2019-05-13,34.0536909,-118.2427666
Louisville KY USA,8,2019-05-13,38.2542376,-85.759407
Madison WI USA,14,2019-05-13,43.074761,-89.3837613
Medford OR USA,36,2019-05-13,42.3264181,-122.8718605
Memphis TN USA,10,2019-05-13,35.1490215,-90.0516285
Miami FL USA,3,2019-05-13,25.7742658,-80.1936589
Milwaukee WI USA,10,2019-05-13,43.0349931,-87.922497
Minneapolis MN USA,4,2019-05-13,44.9772995,-93.2654692
Monterey CA USA,19,2019-05-13,36.2231079,-121.3877428
Nashville TN USA,4,2019-05-13,36.1622296,-86.7743531
New York NY USA,3,2019-05-13,40.7127281,-74.0060152
Norfolk VA USA,6,2019-05-13,36.8889933,-76.2481624
Oklahoma City OK USA,8,2019-05-13,35.4729886,-97.5170536
Omaha NE USA,10,2019-05-13,41.2587459,-95.9383758
Orlando FL USA,6,2019-05-13,28.5479786,-81.41278418563017
Paducah KY USA,24,2019-05-13,37.0833893,-88.6000478
Philadelphia PA USA,3,2019-05-13,39.9527237,-75.1635262
Phoenix AZ USA,2,2019-05-13,33.4484367,-112.0741417
Pittsburgh PA USA,8,2019-05-13,40.4416941,-79.9900861
Portland OR USA,4,2019-05-13,45.5202471,-122.6741949
Portland ME USA,14,2019-05-13,43.6610277,-70.2548596
Providence RI USA,8,2019-05-13,41.8239891,-71.4128343
Raleigh NC USA,6,2019-05-13,35.7803977,-78.6390989
Rapid City SD USA,71,2019-05-13,44.081176,-103.228006
Reno NV USA,30,2019-05-13,39.5261206,-119.8126581
Roanoke VA USA,14,2019-05-13,37.270973,-79.9414313
Sacramento CA USA,3,2019-05-13,38.5815719,-121.4943996
Salt Lake City UT USA,7,2019-05-13,40.7596198,-111.8867975
San Antonio TX USA,5,2019-05-13,29.4246002,-98.4951405
San Diego CA USA,8,2019-05-13,32.7174209,-117.1627714
San Francisco CA USA,2,2019-05-13,37.7790262,-122.4199061
Santa Barbara CA USA,18,2019-05-13,34.4221319,-119.7026673
Savannah GA USA,17,2019-05-13,32.0809263,-81.0911768
Seattle WA USA,6,2019-05-13,47.6038321,-122.3300624
Sioux City IA USA,48,2019-05-13,42.4966815,-96.4058782
South Bend IN USA,19,2019-05-13,41.6833813,-86.2500066
Springfield MO USA,17,2019-05-13,37.2166779,-93.2920373
St. Louis MO USA,4,2019-05-13,38.6268039,-90.1994097
Syracuse NY USA,15,2019-05-13,43.0481221,-76.1474244
Tallahassee FL USA,23,2019-05-13,30.4380832,-84.2809332
Tampa FL USA,6,2019-05-13,27.9518491,-82.4563972
Topeka KS USA,36,2019-05-13,39.049011,-95.677556
Tulsa OK USA,12,2019-05-13,36.1556805,-95.9929113
Washington DC USA,4,2019-05-13,38.8948932,-77.0365529
Wausau WI USA,37,2019-05-13,44.9596017,-89.6298239
West Palm Beach FL USA,7,2019-05-13,26.7153425,-80.0533746
Wichita KS USA,15,2019-05-13,37.6922361,-97.3375448
Wilkes Barre PA USA,12,2019-05-13,41.2464824,-75.8817316
Yakima WA USA,24,2019-05-13,46.601557,-120.5108421
Youngstown OH USA,28,2019-05-13,41.1035786,-80.6520161
Albuquerque NM USA,13,2019-05-20,35.0841034,-106.6509851
Anchorage AK USA,54,2019-05-20,61.2163129,-149.8948523
Atlanta GA USA,3,2019-05-20,33.7490987,-84.3901849
Austin TX USA,8,2019-05-20,30.2711286,-97.7436995
Bangor ME USA,75,2019-05-20,44.8011821,-68.7778138
Biloxi MS USA,76,2019-05-20,30.374673,-88.84594333482862
Boise ID USA,28,2019-05-20,43.6166163,-116.200886
Boston MA USA,8,2019-05-20,42.3602534,-71.0582912
Burlington VT USA,30,2019-05-20,44.4762975,-73.2135472
Cedar Rapids IA USA,28,2019-05-20,41.9758872,-91.6704053
Charleston SC USA,25,2019-05-20,32.7876012,-79.9402728
Charlotte NC USA,6,2019-05-20,35.2270869,-80.8431268
Chattanooga TN USA,28,2019-05-20,35.0457219,-85.3094883
Chicago IL USA,5,2019-05-20,41.8755616,-87.6244212
Chico CA USA,54,2019-05-20,39.7284945,-121.8374777
Cincinnati OH USA,18,2019-05-20,39.1014537,-84.5124602
Cleveland OH USA,8,2019-05-20,41.5051613,-81.6934446
Colorado Springs CO USA,24,2019-05-20,38.8339578,-104.8253485
Columbia SC USA,23,2019-05-20,34.0007493,-81.0343313
Columbus OH USA,12,2019-05-20,39.9622601,-83.0007065
Dallas TX USA,5,2019-05-20,32.7762719,-96.7968559
Dayton OH USA,23,2019-05-20,39.7589478,-84.1916069
Denver CO USA,10,2019-05-20,39.7348381,-104.9653271
Des Moines IA USA,21,2019-05-20,41.5910641,-93.6037149
Detroit MI USA,4,2019-05-20,42.3315509,-83.0466403
Evansville IN USA,44,2019-05-20,37.9747645,-87.5558483
Ft. Smith AR USA,31,2019-05-20,35.3872218,-94.4248983
Ft. Wayne IN USA,38,2019-05-20,41.0799898,-85.1386015
Green Bay WI USA,22,2019-05-20,44.5126379,-88.0125794
Greenville SC USA,11,2019-05-20,34.851354,-82.3984882
Harlingen TX USA,21,2019-05-20,26.1908241,-97.6959794
Harrisburg PA USA,19,2019-05-20,40.2663107,-76.8861122
Hartford CT USA,7,2019-05-20,43.648048,-70.241416
Honolulu HI USA,17,2019-05-20,21.304547,-157.8556764
Houston TX USA,5,2019-05-20,29.7589382,-95.3676974
Huntsville AL USA,28,2019-05-20,33.554113,-86.804219
Indianapolis IN USA,7,2019-05-20,39.7683331,-86.1583502
Kansas City MO USA,17,2019-05-20,39.100105,-94.5781416
Lansing MI USA,39,2019-05-20,42.7338147,-84.5207088
Las Vegas NV USA,9,2019-05-20,36.1672559,-115.1485163
Lexington KY USA,23,2019-05-20,38.0464066,-84.4970393
Lincoln NE USA,37,2019-05-20,40.8088861,-96.7077751
Los Angeles CA USA,3,2019-05-20,34.0536909,-118.2427666
Louisville KY USA,26,2019-05-20,38.2542376,-85.759407
Madison WI USA,22,2019-05-20,43.074761,-89.3837613
Medford OR USA,57,2019-05-20,42.3264181,-122.8718605
Miami FL USA,8,2019-05-20,25.7742658,-80.1936589
Milwaukee WI USA,8,2019-05-20,43.0349931,-87.922497
Minneapolis MN USA,4,2019-05-20,44.9772995,-93.2654692
Nashville TN USA,7,2019-05-20,36.1622296,-86.7743531
New Orleans LA USA,13,2019-05-20,29.9499323,-90.0701156
New York NY USA,3,2019-05-20,40.7127281,-74.0060152
Norfolk VA USA,10,2019-05-20,36.8889933,-76.2481624
Peoria IL USA,38,2019-05-20,40.6938609,-89.5891008
Philadelphia PA USA,2,2019-05-20,39.9527237,-75.1635262
Phoenix AZ USA,4,2019-05-20,33.4484367,-112.0741417
Pittsburgh PA USA,8,2019-05-20,40.4416941,-79.9900861
Portland OR USA,12,2019-05-20,45.5202471,-122.6741949
Reno NV USA,31,2019-05-20,39.5261206,-119.8126581
Richmond VA USA,16,2019-05-20,37.5385087,-77.43428
Rochester MN USA,65,2019-05-20,44.0234387,-92.4630182
Sacramento CA USA,8,2019-05-20,38.5815719,-121.4943996
Salt Lake City UT USA,7,2019-05-20,40.7596198,-111.8867975
San Antonio TX USA,24,2019-05-20,29.4246002,-98.4951405
San Diego CA USA,16,2019-05-20,32.7174209,-117.1627714
San Francisco CA USA,5,2019-05-20,37.7790262,-122.4199061
Santa Barbara CA USA,29,2019-05-20,34.4221319,-119.7026673
Seattle WA USA,9,2019-05-20,47.6038321,-122.3300624
Sherman TX USA,100,2019-05-20,36.2452294,-101.8858689
South Bend IN USA,30,2019-05-20,41.6833813,-86.2500066
Springfield MA USA,34,2019-05-20,42.1014831,-72.589811
St. Louis MO USA,10,2019-05-20,38.6268039,-90.1994097
Syracuse NY USA,25,2019-05-20,43.0481221,-76.1474244
Tallahassee FL USA,38,2019-05-20,30.4380832,-84.2809332
Tampa FL USA,9,2019-05-20,27.9518491,-82.4563972
Tulsa OK USA,18,2019-05-20,36.1556805,-95.9929113
Tyler TX USA,44,2019-05-20,32.3512601,-95.3010624
Waco TX USA,25,2019-05-20,31.549333,-97.1466695
Washington DC USA,5,2019-05-20,38.8948932,-77.0365529
Wilkes Barre PA USA,19,2019-05-20,41.2464824,-75.8817316
Albany NY USA,16,2019-05-27,42.6511674,-73.754968
Albuquerque NM USA,15,2019-05-27,35.0841034,-106.6509851
Amarillo TX USA,71,2019-05-27,35.2072185,-101.8338246
Anchorage AK USA,61,2019-05-27,61.2163129,-149.8948523
Atlanta GA USA,3,2019-05-27,33.7490987,-84.3901849
Austin TX USA,9,2019-05-27,30.2711286,-97.7436995
Bakersfield CA USA,43,2019-05-27,35.3738712,-119.0194639
Bangor ME USA,86,2019-05-27,44.8011821,-68.7778138
Birmingham AL USA,15,2019-05-27,33.570499,-86.765783
Boston MA USA,3,2019-05-27,42.3602534,-71.0582912
Burlington VT USA,34,2019-05-27,44.4762975,-73.2135472
Champaign IL USA,35,2019-05-27,40.1164205,-88.2433829
Charleston WV USA,36,2019-05-27,38.3505995,-81.6332812
Charlotte NC USA,7,2019-05-27,35.2270869,-80.8431268
Chicago IL USA,4,2019-05-27,41.8755616,-87.6244212
Cincinnati OH USA,10,2019-05-27,39.1014537,-84.5124602
Cleveland OH USA,6,2019-05-27,41.5051613,-81.6934446
Colorado Springs CO USA,28,2019-05-27,38.8339578,-104.8253485
Columbia SC USA,27,2019-05-27,34.0007493,-81.0343313
Dallas TX USA,5,2019-05-27,32.7762719,-96.7968559
Dayton OH USA,26,2019-05-27,39.7589478,-84.1916069
Denver CO USA,5,2019-05-27,39.7348381,-104.9653271
Des Moines IA USA,25,2019-05-27,41.5910641,-93.6037149
Detroit MI USA,7,2019-05-27,42.3315509,-83.0466403
El Paso TX USA,30,2019-05-27,31.7754152,-106.4646348
Evansville IN USA,52,2019-05-27,37.9747645,-87.5558483
Ft. Myers FL USA,22,2019-05-27,26.640628,-81.8723084
Grand Rapids MI USA,13,2019-05-27,42.9142413,-85.533004
Green Bay WI USA,25,2019-05-27,44.5126379,-88.0125794
Greenville SC USA,26,2019-05-27,34.851354,-82.3984882
Harlingen TX USA,24,2019-05-27,26.1908241,-97.6959794
Hartford CT USA,8,2019-05-27,43.648048,-70.241416
Houston TX USA,9,2019-05-27,29.7589382,-95.3676974
Idaho Falls ID USA,79,2019-05-27,43.4935245,-112.0400919
Indianapolis IN USA,9,2019-05-27,39.7683331,-86.1583502
Jacksonville FL USA,14,2019-05-27,30.3321838,-81.655651
Johnstown PA USA,41,2019-05-27,40.3267407,-78.9219698
Kansas City MO USA,10,2019-05-27,39.100105,-94.5781416
Knoxville TN USA,23,2019-05-27,35.9603948,-83.9210261
Los Angeles CA USA,3,2019-05-27,34.0536909,-118.2427666
Louisville KY USA,15,2019-05-27,38.2542376,-85.759407
Madison WI USA,23,2019-05-27,43.074761,-89.3837613
Miami FL USA,5,2019-05-27,25.7742658,-80.1936589
Minneapolis MN USA,5,2019-05-27,44.9772995,-93.2654692
Monterey CA USA,37,2019-05-27,36.2231079,-121.3877428
Nashville TN USA,8,2019-05-27,36.1622296,-86.7743531
New York NY USA,2,2019-05-27,40.7127281,-74.0060152
Oklahoma City OK USA,15,2019-05-27,35.4729886,-97.5170536
Orlando FL USA,10,2019-05-27,28.5479786,-81.41278418563017
Philadelphia PA USA,4,2019-05-27,39.9527237,-75.1635262
Phoenix AZ USA,16,2019-05-27,33.4484367,-112.0741417
Pittsburgh PA USA,18,2019-05-27,40.4416941,-79.9900861
Portland OR USA,13,2019-05-27,45.5202471,-122.6741949
Portland ME USA,25,2019-05-27,43.6610277,-70.2548596
Raleigh NC USA,6,2019-05-27,35.7803977,-78.6390989
Richmond VA USA,52,2019-05-27,37.5385087,-77.43428
Rochester MN USA,75,2019-05-27,44.0234387,-92.4630182
Rochester NY USA,26,2019-05-27,43.157285,-77.615214
Sacramento CA USA,6,2019-05-27,38.5815719,-121.4943996
San Antonio TX USA,9,2019-05-27,29.4246002,-98.4951405
San Francisco CA USA,5,2019-05-27,37.7790262,-122.4199061
Seattle WA USA,7,2019-05-27,47.6038321,-122.3300624
Shreveport LA USA,42,2019-05-27,32.5221828,-93.7651944
South Bend IN USA,36,2019-05-27,41.6833813,-86.2500066
St. Louis MO USA,8,2019-05-27,38.6268039,-90.1994097
Syracuse NY USA,29,2019-05-27,43.0481221,-76.1474244
Tampa FL USA,15,2019-05-27,27.9518491,-82.4563972
Toledo OH USA,28,2019-05-27,41.6786754,-83.5127283
Tri VA USA,47,2019-05-27,38.5467876,-77.3366491
Washington DC USA,5,2019-05-27,38.8948932,-77.0365529
West Palm Beach FL USA,13,2019-05-27,26.7153425,-80.0533746
Wilkes Barre PA USA,21,2019-05-27,41.2464824,-75.8817316
Yuma AZ USA,100,2019-05-27,32.6926588,-114.6276157
Albany NY USA,7,2019-06-03,42.6511674,-73.754968
Albuquerque NM USA,7,2019-06-03,35.0841034,-106.6509851
Atlanta GA USA,1,2019-06-03,33.7490987,-84.3901849
Baltimore MD USA,4,2019-06-03,39.284749399999995,-76.62047463969989
Baton Rouge LA USA,16,2019-06-03,30.4459596,-91.18738
Boise ID USA,15,2019-06-03,43.6166163,-116.200886
Boston MA USA,2,2019-06-03,42.3602534,-71.0582912
Buffalo NY USA,7,2019-06-03,42.8867166,-78.8783922
Charlotte NC USA,3,2019-06-03,35.2270869,-80.8431268
Chattanooga TN USA,14,2019-06-03,35.0457219,-85.3094883
Chicago IL USA,1,2019-06-03,41.8755616,-87.6244212
Cincinnati OH USA,5,2019-06-03,39.1014537,-84.5124602
Cleveland OH USA,4,2019-06-03,41.5051613,-81.6934446
Colorado Springs CO USA,18,2019-06-03,38.8339578,-104.8253485
Columbus OH USA,5,2019-06-03,39.9622601,-83.0007065
Dallas TX USA,4,2019-06-03,32.7762719,-96.7968559
Dayton OH USA,12,2019-06-03,39.7589478,-84.1916069
Denver CO USA,2,2019-06-03,39.7348381,-104.9653271
Detroit MI USA,2,2019-06-03,42.3315509,-83.0466403
Dothan AL USA,61,2019-06-03,31.2237434,-85.3933906
Erie PA USA,38,2019-06-03,42.1294712,-80.0852695
Eugene OR USA,18,2019-06-03,44.0505054,-123.0950506
Grand Rapids MI USA,6,2019-06-03,42.9142413,-85.533004
Green Bay WI USA,12,2019-06-03,44.5126379,-88.0125794
Houston TX USA,1,2019-06-03,29.7589382,-95.3676974
Johnstown PA USA,38,2019-06-03,40.3267407,-78.9219698
Las Vegas NV USA,5,2019-06-03,36.1672559,-115.1485163
Los Angeles CA USA,2,2019-06-03,34.0536909,-118.2427666
Macon GA USA,23,2019-06-03,32.8406946,-83.6324022
Mankato MN USA,100,2019-06-03,44.1634663,-93.9993505
Miami FL USA,4,2019-06-03,25.7742658,-80.1936589
Milwaukee WI USA,4,2019-06-03,43.0349931,-87.922497
Minneapolis MN USA,4,2019-06-03,44.9772995,-93.2654692
Mobile AL USA,17,2019-06-03,39.092585,-84.853229
Nashville TN USA,3,2019-06-03,36.1622296,-86.7743531
New York NY USA,1,2019-06-03,40.7127281,-74.0060152
Orlando FL USA,4,2019-06-03,28.5479786,-81.41278418563017
Philadelphia PA USA,4,2019-06-03,39.9527237,-75.1635262
Phoenix AZ USA,2,2019-06-03,33.4484367,-112.0741417
Pittsburgh PA USA,4,2019-06-03,40.4416941,-79.9900861
Providence RI USA,9,2019-06-03,41.8239891,-71.4128343
Sacramento CA USA,3,2019-06-03,38.5815719,-121.4943996
Salt Lake City UT USA,5,2019-06-03,40.7596198,-111.8867975
San Diego CA USA,3,2019-06-03,32.7174209,-117.1627714
San Francisco CA USA,2,2019-06-03,37.7790262,-122.4199061
Seattle WA USA,2,2019-06-03,47.6038321,-122.3300624
South Bend IN USA,16,2019-06-03,41.6833813,-86.2500066
Tampa FL USA,2,2019-06-03,27.9518491,-82.4563972
Washington DC USA,3,2019-06-03,38.8948932,-77.0365529
West Palm Beach FL USA,6,2019-06-03,26.7153425,-80.0533746
Wheeling WV USA,56,2019-06-03,40.0639616,-80.7209149
Wichita KS USA,12,2019-06-03,37.6922361,-97.3375448
Wilmington NC USA,23,2019-06-03,34.2257282,-77.9447107
Youngstown OH USA,24,2019-06-03,41.1035786,-80.6520161
Albany NY USA,6,2019-06-10,42.6511674,-73.754968
Atlanta GA USA,4,2019-06-10,33.7490987,-84.3901849
Augusta GA USA,18,2019-06-10,33.4709714,-81.9748429
Austin TX USA,3,2019-06-10,30.2711286,-97.7436995
Bakersfield CA USA,17,2019-06-10,35.3738712,-119.0194639
Baltimore MD USA,5,2019-06-10,39.284749399999995,-76.62047463969989
"Billings, MT USA",48,2019-06-10,45.7874957,-108.49607
Binghamton NY USA,37,2019-06-10,42.096968,-75.914341
Birmingham AL USA,6,2019-06-10,33.570499,-86.765783
Bluefield WV USA,54,2019-06-10,37.2698395,-81.2223195
Boston MA USA,4,2019-06-10,42.3602534,-71.0582912
Cedar Rapids IA USA,14,2019-06-10,41.9758872,-91.6704053
Charleston SC USA,11,2019-06-10,32.7876012,-79.9402728
Charlotte NC USA,3,2019-06-10,35.2270869,-80.8431268
Chattanooga TN USA,13,2019-06-10,35.0457219,-85.3094883
Cheyenne WY USA,85,2019-06-10,40.640361,-74.367318
Chicago IL USA,2,2019-06-10,41.8755616,-87.6244212
Cincinnati OH USA,4,2019-06-10,39.1014537,-84.5124602
Cleveland OH USA,2,2019-06-10,41.5051613,-81.6934446
Columbus OH USA,6,2019-06-10,39.9622601,-83.0007065
Dallas TX USA,2,2019-06-10,32.7762719,-96.7968559
Dayton OH USA,11,2019-06-10,39.7589478,-84.1916069
Denver CO USA,2,2019-06-10,39.7348381,-104.9653271
Detroit MI USA,4,2019-06-10,42.3315509,-83.0466403
Elmira NY USA,56,2019-06-10,42.0897965,-76.8077338
Fairbanks AK USA,100,2019-06-10,64.837845,-147.716675
Grand Rapids MI USA,5,2019-06-10,42.9142413,-85.533004
Great Falls MT USA,98,2019-06-10,47.5048851,-111.2918908
Green Bay WI USA,11,2019-06-10,44.5126379,-88.0125794
Hartford CT USA,4,2019-06-10,43.648048,-70.241416
Honolulu HI USA,8,2019-06-10,21.304547,-157.8556764
Houston TX USA,1,2019-06-10,29.7589382,-95.3676974
Indianapolis IN USA,4,2019-06-10,39.7683331,-86.1583502
Jacksonville FL USA,6,2019-06-10,30.3321838,-81.655651
Kansas City MO USA,4,2019-06-10,39.100105,-94.5781416
Knoxville TN USA,9,2019-06-10,35.9603948,-83.9210261
Las Vegas NV USA,8,2019-06-10,36.1672559,-115.1485163
Los Angeles CA USA,2,2019-06-10,34.0536909,-118.2427666
Louisville KY USA,6,2019-06-10,38.2542376,-85.759407
Miami FL USA,2,2019-06-10,25.7742658,-80.1936589
Minneapolis MN USA,4,2019-06-10,44.9772995,-93.2654692
Mobile AL USA,8,2019-06-10,39.092585,-84.853229
Nashville TN USA,3,2019-06-10,36.1622296,-86.7743531
New York NY USA,1,2019-06-10,40.7127281,-74.0060152
Norfolk VA USA,5,2019-06-10,36.8889933,-76.2481624
Omaha NE USA,8,2019-06-10,41.2587459,-95.9383758
Orlando FL USA,4,2019-06-10,28.5479786,-81.41278418563017
Peoria IL USA,18,2019-06-10,40.6938609,-89.5891008
Philadelphia PA USA,1,2019-06-10,39.9527237,-75.1635262
Phoenix AZ USA,2,2019-06-10,33.4484367,-112.0741417
Portland OR USA,3,2019-06-10,45.5202471,-122.6741949
Portland ME USA,19,2019-06-10,43.6610277,-70.2548596
Providence RI USA,6,2019-06-10,41.8239891,-71.4128343
Raleigh NC USA,2,2019-06-10,35.7803977,-78.6390989
Rapid City SD USA,51,2019-06-10,44.081176,-103.228006
Reno NV USA,15,2019-06-10,39.5261206,-119.8126581
Richmond VA USA,7,2019-06-10,37.5385087,-77.43428
Salt Lake City UT USA,3,2019-06-10,40.7596198,-111.8867975
San Diego CA USA,2,2019-06-10,32.7174209,-117.1627714
San Francisco CA USA,1,2019-06-10,37.7790262,-122.4199061
Santa Barbara CA USA,14,2019-06-10,34.4221319,-119.7026673
Seattle WA USA,2,2019-06-10,47.6038321,-122.3300624
Tampa FL USA,6,2019-06-10,27.9518491,-82.4563972
Tri VA USA,19,2019-06-10,38.5467876,-77.3366491
Utica NY USA,47,2019-06-10,43.1009031,-75.2326641
Washington DC USA,4,2019-06-10,38.8948932,-77.0365529
Albany NY USA,8,2019-06-17,42.6511674,-73.754968
Atlanta GA USA,4,2019-06-17,33.7490987,-84.3901849
Baltimore MD USA,4,2019-06-17,39.284749399999995,-76.62047463969989
Boston MA USA,2,2019-06-17,42.3602534,-71.0582912
Buffalo NY USA,8,2019-06-17,42.8867166,-78.8783922
Cheyenne WY USA,100,2019-06-17,40.640361,-74.367318
Chicago IL USA,2,2019-06-17,41.8755616,-87.6244212
Chico CA USA,32,2019-06-17,39.7284945,-121.8374777
Cincinnati OH USA,5,2019-06-17,39.1014537,-84.5124602
Columbus OH USA,5,2019-06-17,39.9622601,-83.0007065
Dallas TX USA,1,2019-06-17,32.7762719,-96.7968559
Davenport IA USA,21,2019-06-17,41.5236436,-90.5776368
Denver CO USA,5,2019-06-17,39.7348381,-104.9653271
Eugene OR USA,23,2019-06-17,44.0505054,-123.0950506
Flint MI USA,29,2019-06-17,43.0161693,-83.6900211
Ft. Myers FL USA,11,2019-06-17,26.640628,-81.8723084
Gainesville FL USA,35,2019-06-17,29.67357765,-82.32337460192167
Grand Junction CO USA,77,2019-06-17,39.063956,-108.5507317
Greenville SC USA,6,2019-06-17,34.851354,-82.3984882
Harrisburg PA USA,15,2019-06-17,40.2663107,-76.8861122
Hartford CT USA,4,2019-06-17,43.648048,-70.241416
Jacksonville FL USA,7,2019-06-17,30.3321838,-81.655651
Johnstown PA USA,21,2019-06-17,40.3267407,-78.9219698
Las Vegas NV USA,5,2019-06-17,36.1672559,-115.1485163
Los Angeles CA USA,1,2019-06-17,34.0536909,-118.2427666
Madison WI USA,12,2019-06-17,43.074761,-89.3837613
Miami FL USA,2,2019-06-17,25.7742658,-80.1936589
Minneapolis MN USA,2,2019-06-17,44.9772995,-93.2654692
Mobile AL USA,9,2019-06-17,39.092585,-84.853229
New York NY USA,1,2019-06-17,40.7127281,-74.0060152
Paducah KY USA,20,2019-06-17,37.0833893,-88.6000478
Philadelphia PA USA,3,2019-06-17,39.9527237,-75.1635262
Phoenix AZ USA,2,2019-06-17,33.4484367,-112.0741417
Raleigh NC USA,3,2019-06-17,35.7803977,-78.6390989
Sacramento CA USA,3,2019-06-17,38.5815719,-121.4943996
Salt Lake City UT USA,4,2019-06-17,40.7596198,-111.8867975
San Angelo TX USA,86,2019-06-17,31.4648357,-100.4398442
San Francisco CA USA,1,2019-06-17,37.7790262,-122.4199061
Santa Barbara CA USA,19,2019-06-17,34.4221319,-119.7026673
Sherman TX USA,54,2019-06-17,36.2452294,-101.8858689
Sioux Falls SD USA,24,2019-06-17,43.5499749,-96.700327
Springfield MA USA,19,2019-06-17,42.1014831,-72.589811
St. Louis MO USA,4,2019-06-17,38.6268039,-90.1994097
Toledo OH USA,14,2019-06-17,41.6786754,-83.5127283
Tyler TX USA,24,2019-06-17,32.3512601,-95.3010624
Washington DC USA,1,2019-06-17,38.8948932,-77.0365529
West Palm Beach FL USA,13,2019-06-17,26.7153425,-80.0533746
Albany NY USA,15,2019-06-24,42.6511674,-73.754968
Albuquerque NM USA,14,2019-06-24,35.0841034,-106.6509851
Anchorage AK USA,53,2019-06-24,61.2163129,-149.8948523
Atlanta GA USA,3,2019-06-24,33.7490987,-84.3901849
Baltimore MD USA,8,2019-06-24,39.284749399999995,-76.62047463969989
Birmingham AL USA,13,2019-06-24,33.570499,-86.765783
Boston MA USA,5,2019-06-24,42.3602534,-71.0582912
Charleston WV USA,34,2019-06-24,38.3505995,-81.6332812
Chattanooga TN USA,30,2019-06-24,35.0457219,-85.3094883
Chicago IL USA,2,2019-06-24,41.8755616,-87.6244212
Chico CA USA,60,2019-06-24,39.7284945,-121.8374777
Cleveland OH USA,5,2019-06-24,41.5051613,-81.6934446
Columbia MO USA,65,2019-06-24,38.951883,-92.3337366
Dallas TX USA,4,2019-06-24,32.7762719,-96.7968559
Denver CO USA,4,2019-06-24,39.7348381,-104.9653271
Des Moines IA USA,23,2019-06-24,41.5910641,-93.6037149
El Paso TX USA,26,2019-06-24,31.7754152,-106.4646348
Evansville IN USA,46,2019-06-24,37.9747645,-87.5558483
Ft. Myers FL USA,21,2019-06-24,26.640628,-81.8723084
Greenville SC USA,12,2019-06-24,34.851354,-82.3984882
Hartford CT USA,8,2019-06-24,43.648048,-70.241416
Honolulu HI USA,18,2019-06-24,21.304547,-157.8556764
Indianapolis IN USA,8,2019-06-24,39.7683331,-86.1583502
Johnstown PA USA,58,2019-06-24,40.3267407,-78.9219698
Kansas City MO USA,14,2019-06-24,39.100105,-94.5781416
Lafayette LA USA,55,2019-06-24,30.2240897,-92.0198427
Lexington KY USA,24,2019-06-24,38.0464066,-84.4970393
Los Angeles CA USA,1,2019-06-24,34.0536909,-118.2427666
Lubbock TX USA,68,2019-06-24,33.5635206,-101.879336
Medford OR USA,62,2019-06-24,42.3264181,-122.8718605
Miami FL USA,6,2019-06-24,25.7742658,-80.1936589
Minneapolis MN USA,4,2019-06-24,44.9772995,-93.2654692
Monterey CA USA,37,2019-06-24,36.2231079,-121.3877428
Montgomery AL USA,53,2019-06-24,40.85239,-78.266098
Nashville TN USA,7,2019-06-24,36.1622296,-86.7743531
New York NY USA,3,2019-06-24,40.7127281,-74.0060152
Omaha NE USA,17,2019-06-24,41.2587459,-95.9383758
Orlando FL USA,18,2019-06-24,28.5479786,-81.41278418563017
Paducah KY USA,78,2019-06-24,37.0833893,-88.6000478
Philadelphia PA USA,5,2019-06-24,39.9527237,-75.1635262
Phoenix AZ USA,4,2019-06-24,33.4484367,-112.0741417
Pittsburgh PA USA,9,2019-06-24,40.4416941,-79.9900861
Portland OR USA,6,2019-06-24,45.5202471,-122.6741949
Providence RI USA,29,2019-06-24,41.8239891,-71.4128343
Raleigh NC USA,6,2019-06-24,35.7803977,-78.6390989
Rochester NY USA,47,2019-06-24,43.157285,-77.615214
Sacramento CA USA,6,2019-06-24,38.5815719,-121.4943996
San Antonio TX USA,8,2019-06-24,29.4246002,-98.4951405
San Diego CA USA,6,2019-06-24,32.7174209,-117.1627714
San Francisco CA USA,2,2019-06-24,37.7790262,-122.4199061
Seattle WA USA,7,2019-06-24,47.6038321,-122.3300624
Sioux Falls SD USA,45,2019-06-24,43.5499749,-96.700327
South Bend IN USA,100,2019-06-24,41.6833813,-86.2500066
Springfield MO USA,28,2019-06-24,37.2166779,-93.2920373
Springfield MA USA,37,2019-06-24,42.1014831,-72.589811
St. Louis MO USA,7,2019-06-24,38.6268039,-90.1994097
Toledo OH USA,27,2019-06-24,41.6786754,-83.5127283
Traverse City MI USA,46,2019-06-24,44.7606441,-85.6165301
Waco TX USA,26,2019-06-24,31.549333,-97.1466695
Washington DC USA,5,2019-06-24,38.8948932,-77.0365529
Atlanta GA USA,4,2019-07-01,33.7490987,-84.3901849
Boston MA USA,3,2019-07-01,42.3602534,-71.0582912
Charlotte NC USA,6,2019-07-01,35.2270869,-80.8431268
Chicago IL USA,3,2019-07-01,41.8755616,-87.6244212
Cleveland OH USA,4,2019-07-01,41.5051613,-81.6934446
Columbus OH USA,10,2019-07-01,39.9622601,-83.0007065
Columbus MS USA,100,2019-07-01,43.336875649999996,-89.0196532340367
Dallas TX USA,7,2019-07-01,32.7762719,-96.7968559
Dayton OH USA,25,2019-07-01,39.7589478,-84.1916069
Denver CO USA,6,2019-07-01,39.7348381,-104.9653271
Florence SC USA,30,2019-07-01,34.1984435,-79.7671658
Greenville NC USA,32,2019-07-01,35.612661,-77.3663538
Greenville SC USA,24,2019-07-01,34.851354,-82.3984882
Harlingen TX USA,22,2019-07-01,26.1908241,-97.6959794
Hartford CT USA,8,2019-07-01,43.648048,-70.241416
Honolulu HI USA,18,2019-07-01,21.304547,-157.8556764
Houston TX USA,3,2019-07-01,29.7589382,-95.3676974
Indianapolis IN USA,17,2019-07-01,39.7683331,-86.1583502
Jacksonville FL USA,13,2019-07-01,30.3321838,-81.655651
Joplin MO USA,96,2019-07-01,37.08418,-94.51323
Kansas City MO USA,10,2019-07-01,39.100105,-94.5781416
Lexington KY USA,24,2019-07-01,38.0464066,-84.4970393
Los Angeles CA USA,2,2019-07-01,34.0536909,-118.2427666
Minneapolis MN USA,14,2019-07-01,44.9772995,-93.2654692
Nashville TN USA,7,2019-07-01,36.1622296,-86.7743531
New York NY USA,1,2019-07-01,40.7127281,-74.0060152
Norfolk VA USA,10,2019-07-01,36.8889933,-76.2481624
Orlando FL USA,5,2019-07-01,28.5479786,-81.41278418563017
Philadelphia PA USA,5,2019-07-01,39.9527237,-75.1635262
Pittsburgh PA USA,13,2019-07-01,40.4416941,-79.9900861
Portland OR USA,6,2019-07-01,45.5202471,-122.6741949
Roanoke VA USA,24,2019-07-01,37.270973,-79.9414313
Rochester NY USA,25,2019-07-01,43.157285,-77.615214
Rockford IL USA,62,2019-07-01,42.2713945,-89.093966
Sacramento CA USA,6,2019-07-01,38.5815719,-121.4943996
Salt Lake City UT USA,7,2019-07-01,40.7596198,-111.8867975
San Antonio TX USA,9,2019-07-01,29.4246002,-98.4951405
San Francisco CA USA,4,2019-07-01,37.7790262,-122.4199061
Seattle WA USA,7,2019-07-01,47.6038321,-122.3300624
Sioux Falls SD USA,47,2019-07-01,43.5499749,-96.700327
South Bend IN USA,34,2019-07-01,41.6833813,-86.2500066
Springfield MA USA,39,2019-07-01,42.1014831,-72.589811
St. Louis MO USA,16,2019-07-01,38.6268039,-90.1994097
Tallahassee FL USA,40,2019-07-01,30.4380832,-84.2809332
Tampa FL USA,5,2019-07-01,27.9518491,-82.4563972
Toledo OH USA,27,2019-07-01,41.6786754,-83.5127283
Tucson AZ USA,24,2019-07-01,32.2228765,-110.9748477
Washington DC USA,3,2019-07-01,38.8948932,-77.0365529
West Palm Beach FL USA,13,2019-07-01,26.7153425,-80.0533746
Wichita KS USA,27,2019-07-01,37.6922361,-97.3375448
Albany NY USA,20,2019-07-08,42.6511674,-73.754968
Albuquerque NM USA,9,2019-07-08,35.0841034,-106.6509851
Atlanta GA USA,2,2019-07-08,33.7490987,-84.3901849
Biloxi MS USA,49,2019-07-08,30.374673,-88.84594333482862
Boston MA USA,2,2019-07-08,42.3602534,-71.0582912
Butte MT USA,81,2019-07-08,46.0131505,-112.5365089
Champaign IL USA,22,2019-07-08,40.1164205,-88.2433829
Charlotte NC USA,4,2019-07-08,35.2270869,-80.8431268
Chicago IL USA,3,2019-07-08,41.8755616,-87.6244212
Cleveland OH USA,3,2019-07-08,41.5051613,-81.6934446
Dallas TX USA,5,2019-07-08,32.7762719,-96.7968559
Denver CO USA,3,2019-07-08,39.7348381,-104.9653271
Detroit MI USA,3,2019-07-08,42.3315509,-83.0466403
El Paso TX USA,36,2019-07-08,31.7754152,-106.4646348
Flint MI USA,18,2019-07-08,43.0161693,-83.6900211
Ft. Myers FL USA,28,2019-07-08,26.640628,-81.8723084
Greenville SC USA,8,2019-07-08,34.851354,-82.3984882
Harrisburg PA USA,9,2019-07-08,40.2663107,-76.8861122
Houston TX USA,2,2019-07-08,29.7589382,-95.3676974
Johnstown PA USA,25,2019-07-08,40.3267407,-78.9219698
Kansas City MO USA,6,2019-07-08,39.100105,-94.5781416
Lansing MI USA,28,2019-07-08,42.7338147,-84.5207088
Little Rock AR USA,13,2019-07-08,34.7464809,-92.2895948
Los Angeles CA USA,1,2019-07-08,34.0536909,-118.2427666
Marquette MI USA,100,2019-07-08,46.4481521,-87.6305899
Memphis TN USA,11,2019-07-08,35.1490215,-90.0516285
Miami FL USA,3,2019-07-08,25.7742658,-80.1936589
Minneapolis MN USA,3,2019-07-08,44.9772995,-93.2654692
Monterey CA USA,25,2019-07-08,36.2231079,-121.3877428
New York NY USA,1,2019-07-08,40.7127281,-74.0060152
Orlando FL USA,3,2019-07-08,28.5479786,-81.41278418563017
Peoria IL USA,28,2019-07-08,40.6938609,-89.5891008
Philadelphia PA USA,2,2019-07-08,39.9527237,-75.1635262
Phoenix AZ USA,4,2019-07-08,33.4484367,-112.0741417
Sacramento CA USA,4,2019-07-08,38.5815719,-121.4943996
Salt Lake City UT USA,5,2019-07-08,40.7596198,-111.8867975
San Antonio TX USA,6,2019-07-08,29.4246002,-98.4951405
San Diego CA USA,6,2019-07-08,32.7174209,-117.1627714
San Francisco CA USA,3,2019-07-08,37.7790262,-122.4199061
Seattle WA USA,2,2019-07-08,47.6038321,-122.3300624
St. Louis MO USA,5,2019-07-08,38.6268039,-90.1994097
Tampa FL USA,5,2019-07-08,27.9518491,-82.4563972
Traverse City MI USA,29,2019-07-08,44.7606441,-85.6165301
Tucson AZ USA,16,2019-07-08,32.2228765,-110.9748477
Washington DC USA,3,2019-07-08,38.8948932,-77.0365529
Wilmington NC USA,31,2019-07-08,34.2257282,-77.9447107
Anchorage AK USA,32,2019-07-15,61.2163129,-149.8948523
Boston MA USA,2,2019-07-15,42.3602534,-71.0582912
Charlotte NC USA,4,2019-07-15,35.2270869,-80.8431268
Chicago IL USA,1,2019-07-15,41.8755616,-87.6244212
Cincinnati OH USA,5,2019-07-15,39.1014537,-84.5124602
Cleveland OH USA,3,2019-07-15,41.5051613,-81.6934446
Dallas TX USA,2,2019-07-15,32.7762719,-96.7968559
Davenport IA USA,24,2019-07-15,41.5236436,-90.5776368
Denver CO USA,3,2019-07-15,39.7348381,-104.9653271
Detroit MI USA,5,2019-07-15,42.3315509,-83.0466403
Duluth MN USA,40,2019-07-15,46.7729322,-92.1251218
El Paso TX USA,16,2019-07-15,31.7754152,-106.4646348
Harrisburg PA USA,8,2019-07-15,40.2663107,-76.8861122
Hartford CT USA,5,2019-07-15,43.648048,-70.241416
Honolulu HI USA,14,2019-07-15,21.304547,-157.8556764
Houston TX USA,2,2019-07-15,29.7589382,-95.3676974
Indianapolis IN USA,5,2019-07-15,39.7683331,-86.1583502
Las Vegas NV USA,6,2019-07-15,36.1672559,-115.1485163
Little Rock AR USA,12,2019-07-15,34.7464809,-92.2895948
Los Angeles CA USA,1,2019-07-15,34.0536909,-118.2427666
Louisville KY USA,8,2019-07-15,38.2542376,-85.759407
Marquette MI USA,88,2019-07-15,46.4481521,-87.6305899
Miami FL USA,2,2019-07-15,25.7742658,-80.1936589
Minneapolis MN USA,3,2019-07-15,44.9772995,-93.2654692
New York NY USA,2,2019-07-15,40.7127281,-74.0060152
Norfolk VA USA,6,2019-07-15,36.8889933,-76.2481624
Omaha NE USA,11,2019-07-15,41.2587459,-95.9383758
Peoria IL USA,24,2019-07-15,40.6938609,-89.5891008
Philadelphia PA USA,3,2019-07-15,39.9527237,-75.1635262
Phoenix AZ USA,2,2019-07-15,33.4484367,-112.0741417
Pittsburgh PA USA,5,2019-07-15,40.4416941,-79.9900861
Portland OR USA,4,2019-07-15,45.5202471,-122.6741949
Portland ME USA,13,2019-07-15,43.6610277,-70.2548596
Raleigh NC USA,3,2019-07-15,35.7803977,-78.6390989
Rochester NY USA,14,2019-07-15,43.157285,-77.615214
Sacramento CA USA,3,2019-07-15,38.5815719,-121.4943996
Salt Lake City UT USA,8,2019-07-15,40.7596198,-111.8867975
San Antonio TX USA,5,2019-07-15,29.4246002,-98.4951405
San Diego CA USA,3,2019-07-15,32.7174209,-117.1627714
San Francisco CA USA,4,2019-07-15,37.7790262,-122.4199061
Seattle WA USA,4,2019-07-15,47.6038321,-122.3300624
Tampa FL USA,3,2019-07-15,27.9518491,-82.4563972
Toledo OH USA,15,2019-07-15,41.6786754,-83.5127283
Twin Falls ID USA,100,2019-07-15,42.5704219,-114.4603171
Tyler TX USA,27,2019-07-15,32.3512601,-95.3010624
Washington DC USA,4,2019-07-15,38.8948932,-77.0365529
Albuquerque NM USA,11,2019-07-22,35.0841034,-106.6509851
Atlanta GA USA,2,2019-07-22,33.7490987,-84.3901849
Baltimore MD USA,6,2019-07-22,39.284749399999995,-76.62047463969989
Beaumont TX USA,57,2019-07-22,30.0860459,-94.1018461
Birmingham AL USA,10,2019-07-22,33.570499,-86.765783
Boston MA USA,5,2019-07-22,42.3602534,-71.0582912
Champaign IL USA,26,2019-07-22,40.1164205,-88.2433829
Chattanooga TN USA,23,2019-07-22,35.0457219,-85.3094883
Chicago IL USA,3,2019-07-22,41.8755616,-87.6244212
Chico CA USA,47,2019-07-22,39.7284945,-121.8374777
Cincinnati OH USA,14,2019-07-22,39.1014537,-84.5124602
Cleveland OH USA,4,2019-07-22,41.5051613,-81.6934446
Columbus OH USA,8,2019-07-22,39.9622601,-83.0007065
Dallas TX USA,2,2019-07-22,32.7762719,-96.7968559
Dothan AL USA,100,2019-07-22,31.2237434,-85.3933906
Flint MI USA,22,2019-07-22,43.0161693,-83.6900211
Grand Rapids MI USA,19,2019-07-22,42.9142413,-85.533004
Greenville SC USA,9,2019-07-22,34.851354,-82.3984882
Hartford CT USA,6,2019-07-22,43.648048,-70.241416
Jackson MS USA,26,2019-07-22,28.530801699999998,-81.30324431076107
Los Angeles CA USA,2,2019-07-22,34.0536909,-118.2427666
Louisville KY USA,11,2019-07-22,38.2542376,-85.759407
Milwaukee WI USA,7,2019-07-22,43.0349931,-87.922497
Minot ND USA,58,2019-07-22,48.23251,-101.296273
New York NY USA,2,2019-07-22,40.7127281,-74.0060152
Omaha NE USA,14,2019-07-22,41.2587459,-95.9383758
Orlando FL USA,4,2019-07-22,28.5479786,-81.41278418563017
Philadelphia PA USA,2,2019-07-22,39.9527237,-75.1635262
Roanoke VA USA,18,2019-07-22,37.270973,-79.9414313
Sacramento CA USA,4,2019-07-22,38.5815719,-121.4943996
Salt Lake City UT USA,6,2019-07-22,40.7596198,-111.8867975
San Antonio TX USA,7,2019-07-22,29.4246002,-98.4951405
San Diego CA USA,5,2019-07-22,32.7174209,-117.1627714
San Francisco CA USA,4,2019-07-22,37.7790262,-122.4199061
Seattle WA USA,4,2019-07-22,47.6038321,-122.3300624
St. Louis MO USA,6,2019-07-22,38.6268039,-90.1994097
Tampa FL USA,4,2019-07-22,27.9518491,-82.4563972
Washington DC USA,2,2019-07-22,38.8948932,-77.0365529
Albuquerque NM USA,10,2019-07-29,35.0841034,-106.6509851
Atlanta GA USA,2,2019-07-29,33.7490987,-84.3901849
Baton Rouge LA USA,25,2019-07-29,30.4459596,-91.18738
Charlotte NC USA,5,2019-07-29,35.2270869,-80.8431268
Chicago IL USA,1,2019-07-29,41.8755616,-87.6244212
Cincinnati OH USA,7,2019-07-29,39.1014537,-84.5124602
Columbus OH USA,7,2019-07-29,39.9622601,-83.0007065
Corpus Christi TX USA,37,2019-07-29,27.7477253,-97.4014129
Dallas TX USA,3,2019-07-29,32.7762719,-96.7968559
Davenport IA USA,31,2019-07-29,41.5236436,-90.5776368
Des Moines IA USA,18,2019-07-29,41.5910641,-93.6037149
Detroit MI USA,3,2019-07-29,42.3315509,-83.0466403
Elmira NY USA,100,2019-07-29,42.0897965,-76.8077338
Evansville IN USA,35,2019-07-29,37.9747645,-87.5558483
Hartford CT USA,6,2019-07-29,43.648048,-70.241416
Honolulu HI USA,13,2019-07-29,21.304547,-157.8556764
Jacksonville FL USA,10,2019-07-29,30.3321838,-81.655651
La Crosse WI USA,41,2019-07-29,43.8014053,-91.2395429
Lexington KY USA,36,2019-07-29,38.0464066,-84.4970393
Lincoln NE USA,32,2019-07-29,40.8088861,-96.7077751
Los Angeles CA USA,1,2019-07-29,34.0536909,-118.2427666
Miami FL USA,3,2019-07-29,25.7742658,-80.1936589
Milwaukee WI USA,6,2019-07-29,43.0349931,-87.922497
Minneapolis MN USA,3,2019-07-29,44.9772995,-93.2654692
New York NY USA,1,2019-07-29,40.7127281,-74.0060152
Phoenix AZ USA,3,2019-07-29,33.4484367,-112.0741417
Providence RI USA,11,2019-07-29,41.8239891,-71.4128343
Raleigh NC USA,4,2019-07-29,35.7803977,-78.6390989
Sacramento CA USA,4,2019-07-29,38.5815719,-121.4943996
Salt Lake City UT USA,5,2019-07-29,40.7596198,-111.8867975
San Antonio TX USA,7,2019-07-29,29.4246002,-98.4951405
San Diego CA USA,4,2019-07-29,32.7174209,-117.1627714
San Francisco CA USA,2,2019-07-29,37.7790262,-122.4199061
Savannah GA USA,20,2019-07-29,32.0809263,-81.0911768
Seattle WA USA,4,2019-07-29,47.6038321,-122.3300624
South Bend IN USA,26,2019-07-29,41.6833813,-86.2500066
Spokane WA USA,19,2019-07-29,47.6579425,-117.4212265
Tampa FL USA,4,2019-07-29,27.9518491,-82.4563972
Tucson AZ USA,17,2019-07-29,32.2228765,-110.9748477
Washington DC USA,4,2019-07-29,38.8948932,-77.0365529
Watertown NY USA,95,2019-07-29,43.9747838,-75.9107565
Yakima WA USA,33,2019-07-29,46.601557,-120.5108421
Albany NY USA,4,2019-08-05,42.6511674,-73.754968
Atlanta GA USA,1,2019-08-05,33.7490987,-84.3901849
Baton Rouge LA USA,9,2019-08-05,30.4459596,-91.18738
Boston MA USA,1,2019-08-05,42.3602534,-71.0582912
Buffalo NY USA,4,2019-08-05,42.8867166,-78.8783922
Cleveland OH USA,2,2019-08-05,41.5051613,-81.6934446
Dayton OH USA,7,2019-08-05,39.7589478,-84.1916069
Denver CO USA,1,2019-08-05,39.7348381,-104.9653271
Detroit MI USA,1,2019-08-05,42.3315509,-83.0466403
El Paso TX USA,7,2019-08-05,31.7754152,-106.4646348
Greensboro NC USA,4,2019-08-05,36.0726355,-79.7919754
Helena MT USA,100,2019-08-05,46.5927425,-112.0362771
Houston TX USA,1,2019-08-05,29.7589382,-95.3676974
Idaho Falls ID USA,21,2019-08-05,43.4935245,-112.0400919
Kansas City MO USA,3,2019-08-05,39.100105,-94.5781416
Knoxville TN USA,5,2019-08-05,35.9603948,-83.9210261
Lubbock TX USA,19,2019-08-05,33.5635206,-101.879336
Miami FL USA,1,2019-08-05,25.7742658,-80.1936589
Minneapolis MN USA,2,2019-08-05,44.9772995,-93.2654692
Phoenix AZ USA,2,2019-08-05,33.4484367,-112.0741417
Portland OR USA,2,2019-08-05,45.5202471,-122.6741949
Salt Lake City UT USA,2,2019-08-05,40.7596198,-111.8867975
San Antonio TX USA,2,2019-08-05,29.4246002,-98.4951405
San Francisco CA USA,1,2019-08-05,37.7790262,-122.4199061
Seattle WA USA,1,2019-08-05,47.6038321,-122.3300624
South Bend IN USA,10,2019-08-05,41.6833813,-86.2500066
St. Louis MO USA,2,2019-08-05,38.6268039,-90.1994097
Tucson AZ USA,6,2019-08-05,32.2228765,-110.9748477
Washington DC USA,1,2019-08-05,38.8948932,-77.0365529
Wilmington NC USA,13,2019-08-05,34.2257282,-77.9447107
Albany NY USA,8,2019-08-12,42.6511674,-73.754968
Atlanta GA USA,3,2019-08-12,33.7490987,-84.3901849
Birmingham AL USA,7,2019-08-12,33.570499,-86.765783
Boston MA USA,2,2019-08-12,42.3602534,-71.0582912
Cheyenne WY USA,100,2019-08-12,40.640361,-74.367318
Chicago IL USA,1,2019-08-12,41.8755616,-87.6244212
Chico CA USA,30,2019-08-12,39.7284945,-121.8374777
Cincinnati OH USA,5,2019-08-12,39.1014537,-84.5124602
Cleveland OH USA,3,2019-08-12,41.5051613,-81.6934446
Colorado Springs CO USA,13,2019-08-12,38.8339578,-104.8253485
Columbus OH USA,5,2019-08-12,39.9622601,-83.0007065
Dallas TX USA,1,2019-08-12,32.7762719,-96.7968559
Grand Rapids MI USA,6,2019-08-12,42.9142413,-85.533004
Huntsville AL USA,14,2019-08-12,33.554113,-86.804219
Jackson MS USA,16,2019-08-12,28.530801699999998,-81.30324431076107
Jacksonville FL USA,6,2019-08-12,30.3321838,-81.655651
Kansas City MO USA,14,2019-08-12,39.100105,-94.5781416
Los Angeles CA USA,1,2019-08-12,34.0536909,-118.2427666
Louisville KY USA,7,2019-08-12,38.2542376,-85.759407
Macon GA USA,25,2019-08-12,32.8406946,-83.6324022
Miami FL USA,2,2019-08-12,25.7742658,-80.1936589
Milwaukee WI USA,5,2019-08-12,43.0349931,-87.922497
Minneapolis MN USA,2,2019-08-12,44.9772995,-93.2654692
New York NY USA,1,2019-08-12,40.7127281,-74.0060152
Orlando FL USA,3,2019-08-12,28.5479786,-81.41278418563017
Philadelphia PA USA,1,2019-08-12,39.9527237,-75.1635262
Pittsburgh PA USA,9,2019-08-12,40.4416941,-79.9900861
Raleigh NC USA,3,2019-08-12,35.7803977,-78.6390989
Rochester MN USA,37,2019-08-12,44.0234387,-92.4630182
Salt Lake City UT USA,4,2019-08-12,40.7596198,-111.8867975
San Francisco CA USA,3,2019-08-12,37.7790262,-122.4199061
Seattle WA USA,2,2019-08-12,47.6038321,-122.3300624
Tallahassee FL USA,20,2019-08-12,30.4380832,-84.2809332
Tampa FL USA,2,2019-08-12,27.9518491,-82.4563972
Topeka KS USA,33,2019-08-12,39.049011,-95.677556
Washington DC USA,1,2019-08-12,38.8948932,-77.0365529
Wilkes Barre PA USA,20,2019-08-12,41.2464824,-75.8817316
Albany NY USA,9,2019-08-19,42.6511674,-73.754968
Anchorage AK USA,31,2019-08-19,61.2163129,-149.8948523
Atlanta GA USA,2,2019-08-19,33.7490987,-84.3901849
Austin TX USA,9,2019-08-19,30.2711286,-97.7436995
Baltimore MD USA,5,2019-08-19,39.284749399999995,-76.62047463969989
Binghamton NY USA,50,2019-08-19,42.096968,-75.914341
Boston MA USA,2,2019-08-19,42.3602534,-71.0582912
Cedar Rapids IA USA,18,2019-08-19,41.9758872,-91.6704053
Charlotte NC USA,4,2019-08-19,35.2270869,-80.8431268
Chicago IL USA,2,2019-08-19,41.8755616,-87.6244212
Cincinnati OH USA,5,2019-08-19,39.1014537,-84.5124602
Cleveland OH USA,3,2019-08-19,41.5051613,-81.6934446
Colorado Springs CO USA,14,2019-08-19,38.8339578,-104.8253485
Columbia SC USA,14,2019-08-19,34.0007493,-81.0343313
Columbia MO USA,34,2019-08-19,38.951883,-92.3337366
Columbus GA USA,27,2019-08-19,32.4609764,-84.9877094
Columbus OH USA,5,2019-08-19,39.9622601,-83.0007065
Columbus MS USA,49,2019-08-19,43.336875649999996,-89.0196532340367
Dallas TX USA,1,2019-08-19,32.7762719,-96.7968559
Dayton OH USA,14,2019-08-19,39.7589478,-84.1916069
Denver CO USA,5,2019-08-19,39.7348381,-104.9653271
Des Moines IA USA,13,2019-08-19,41.5910641,-93.6037149
Detroit MI USA,4,2019-08-19,42.3315509,-83.0466403
Eureka CA USA,100,2019-08-19,40.8020712,-124.1636729
Flint MI USA,16,2019-08-19,43.0161693,-83.6900211
Fresno CA USA,18,2019-08-19,36.7295295,-119.70886126075588
Ft. Myers FL USA,12,2019-08-19,26.640628,-81.8723084
Greensboro NC USA,9,2019-08-19,36.0726355,-79.7919754
Hartford CT USA,5,2019-08-19,43.648048,-70.241416
Honolulu HI USA,10,2019-08-19,21.304547,-157.8556764
Houston TX USA,2,2019-08-19,29.7589382,-95.3676974
Indianapolis IN USA,4,2019-08-19,39.7683331,-86.1583502
Jacksonville FL USA,11,2019-08-19,30.3321838,-81.655651
Kansas City MO USA,5,2019-08-19,39.100105,-94.5781416
Lafayette LA USA,31,2019-08-19,30.2240897,-92.0198427
Lansing MI USA,24,2019-08-19,42.7338147,-84.5207088
Little Rock AR USA,11,2019-08-19,34.7464809,-92.2895948
Los Angeles CA USA,2,2019-08-19,34.0536909,-118.2427666
Miami FL USA,2,2019-08-19,25.7742658,-80.1936589
Milwaukee WI USA,5,2019-08-19,43.0349931,-87.922497
Minneapolis MN USA,4,2019-08-19,44.9772995,-93.2654692
Nashville TN USA,4,2019-08-19,36.1622296,-86.7743531
New Orleans LA USA,8,2019-08-19,29.9499323,-90.0701156
New York NY USA,2,2019-08-19,40.7127281,-74.0060152
Norfolk VA USA,6,2019-08-19,36.8889933,-76.2481624
Oklahoma City OK USA,8,2019-08-19,35.4729886,-97.5170536
Orlando FL USA,5,2019-08-19,28.5479786,-81.41278418563017
Philadelphia PA USA,2,2019-08-19,39.9527237,-75.1635262
Phoenix AZ USA,5,2019-08-19,33.4484367,-112.0741417
Pittsburgh PA USA,7,2019-08-19,40.4416941,-79.9900861
Portland OR USA,4,2019-08-19,45.5202471,-122.6741949
Portland ME USA,13,2019-08-19,43.6610277,-70.2548596
Roanoke VA USA,12,2019-08-19,37.270973,-79.9414313
Sacramento CA USA,3,2019-08-19,38.5815719,-121.4943996
Salt Lake City UT USA,4,2019-08-19,40.7596198,-111.8867975
San Antonio TX USA,5,2019-08-19,29.4246002,-98.4951405
San Diego CA USA,3,2019-08-19,32.7174209,-117.1627714
San Francisco CA USA,4,2019-08-19,37.7790262,-122.4199061
Savannah GA USA,16,2019-08-19,32.0809263,-81.0911768
Seattle WA USA,2,2019-08-19,47.6038321,-122.3300624
Shreveport LA USA,21,2019-08-19,32.5221828,-93.7651944
Sioux City IA USA,48,2019-08-19,42.4966815,-96.4058782
Spokane WA USA,14,2019-08-19,47.6579425,-117.4212265
Tampa FL USA,6,2019-08-19,27.9518491,-82.4563972
Topeka KS USA,35,2019-08-19,39.049011,-95.677556
Tucson AZ USA,13,2019-08-19,32.2228765,-110.9748477
Tulsa OK USA,11,2019-08-19,36.1556805,-95.9929113
Washington DC USA,1,2019-08-19,38.8948932,-77.0365529
Wichita Falls TX USA,44,2019-08-19,33.9137085,-98.4933873
Wilkes Barre PA USA,12,2019-08-19,41.2464824,-75.8817316
Yakima WA USA,25,2019-08-19,46.601557,-120.5108421
Abilene TX USA,45,2019-08-26,32.44645,-99.7475905
Anchorage AK USA,24,2019-08-26,61.2163129,-149.8948523
Atlanta GA USA,1,2019-08-26,33.7490987,-84.3901849
Baltimore MD USA,4,2019-08-26,39.284749399999995,-76.62047463969989
Baton Rouge LA USA,13,2019-08-26,30.4459596,-91.18738
Boston MA USA,2,2019-08-26,42.3602534,-71.0582912
Chicago IL USA,1,2019-08-26,41.8755616,-87.6244212
Columbus GA USA,20,2019-08-26,32.4609764,-84.9877094
Dallas TX USA,1,2019-08-26,32.7762719,-96.7968559
Detroit MI USA,2,2019-08-26,42.3315509,-83.0466403
Flint MI USA,12,2019-08-26,43.0161693,-83.6900211
Florence SC USA,14,2019-08-26,34.1984435,-79.7671658
Ft. Wayne IN USA,17,2019-08-26,41.0799898,-85.1386015
Green Bay WI USA,11,2019-08-26,44.5126379,-88.0125794
Harrisburg PA USA,12,2019-08-26,40.2663107,-76.8861122
Hartford CT USA,7,2019-08-26,43.648048,-70.241416
Jacksonville FL USA,5,2019-08-26,30.3321838,-81.655651
Kansas City MO USA,4,2019-08-26,39.100105,-94.5781416
Los Angeles CA USA,1,2019-08-26,34.0536909,-118.2427666
Lubbock TX USA,26,2019-08-26,33.5635206,-101.879336
Nashville TN USA,3,2019-08-26,36.1622296,-86.7743531
New Orleans LA USA,6,2019-08-26,29.9499323,-90.0701156
New York NY USA,1,2019-08-26,40.7127281,-74.0060152
Norfolk VA USA,5,2019-08-26,36.8889933,-76.2481624
Orlando FL USA,4,2019-08-26,28.5479786,-81.41278418563017
Parkersburg WV USA,100,2019-08-26,39.2699565,-81.5506916
Philadelphia PA USA,2,2019-08-26,39.9527237,-75.1635262
Pittsburgh PA USA,4,2019-08-26,40.4416941,-79.9900861
Reno NV USA,15,2019-08-26,39.5261206,-119.8126581
Richmond VA USA,7,2019-08-26,37.5385087,-77.43428
Rochester NY USA,10,2019-08-26,43.157285,-77.615214
Sacramento CA USA,2,2019-08-26,38.5815719,-121.4943996
Salisbury MD USA,22,2019-08-26,38.3662114,-75.6008881
Salt Lake City UT USA,3,2019-08-26,40.7596198,-111.8867975
San Diego CA USA,5,2019-08-26,32.7174209,-117.1627714
San Francisco CA USA,2,2019-08-26,37.7790262,-122.4199061
Seattle WA USA,5,2019-08-26,47.6038321,-122.3300624
Tampa FL USA,2,2019-08-26,27.9518491,-82.4563972
Toledo OH USA,11,2019-08-26,41.6786754,-83.5127283
Traverse City MI USA,19,2019-08-26,44.7606441,-85.6165301
Wichita KS USA,11,2019-08-26,37.6922361,-97.3375448
Albany NY USA,11,2019-09-02,42.6511674,-73.754968
Albuquerque NM USA,10,2019-09-02,35.0841034,-106.6509851
Atlanta GA USA,2,2019-09-02,33.7490987,-84.3901849
Augusta GA USA,28,2019-09-02,33.4709714,-81.9748429
Boston MA USA,2,2019-09-02,42.3602534,-71.0582912
Burlington VT USA,22,2019-09-02,44.4762975,-73.2135472
Champaign IL USA,41,2019-09-02,40.1164205,-88.2433829
Charlotte NC USA,5,2019-09-02,35.2270869,-80.8431268
Chicago IL USA,2,2019-09-02,41.8755616,-87.6244212
Cleveland OH USA,4,2019-09-02,41.5051613,-81.6934446
Columbus OH USA,7,2019-09-02,39.9622601,-83.0007065
Dallas TX USA,3,2019-09-02,32.7762719,-96.7968559
Denver CO USA,3,2019-09-02,39.7348381,-104.9653271
Detroit MI USA,6,2019-09-02,42.3315509,-83.0466403
Duluth MN USA,50,2019-09-02,46.7729322,-92.1251218
Fresno CA USA,11,2019-09-02,36.7295295,-119.70886126075588
Grand Junction CO USA,100,2019-09-02,39.063956,-108.5507317
Greensboro NC USA,10,2019-09-02,36.0726355,-79.7919754
Greenville SC USA,8,2019-09-02,34.851354,-82.3984882
Hartford CT USA,6,2019-09-02,43.648048,-70.241416
Houston TX USA,2,2019-09-02,29.7589382,-95.3676974
Johnstown PA USA,24,2019-09-02,40.3267407,-78.9219698
Las Vegas NV USA,7,2019-09-02,36.1672559,-115.1485163
Los Angeles CA USA,3,2019-09-02,34.0536909,-118.2427666
Louisville KY USA,10,2019-09-02,38.2542376,-85.759407
Minneapolis MN USA,3,2019-09-02,44.9772995,-93.2654692
Missoula MT USA,65,2019-09-02,46.8701049,-113.9952672
Monterey CA USA,27,2019-09-02,36.2231079,-121.3877428
New York NY USA,1,2019-09-02,40.7127281,-74.0060152
Norfolk VA USA,8,2019-09-02,36.8889933,-76.2481624
Odessa TX USA,42,2019-09-02,31.8457149,-102.367687
Orlando FL USA,3,2019-09-02,28.5479786,-81.41278418563017
Philadelphia PA USA,5,2019-09-02,39.9527237,-75.1635262
Phoenix AZ USA,3,2019-09-02,33.4484367,-112.0741417
Pittsburgh PA USA,6,2019-09-02,40.4416941,-79.9900861
Rochester MN USA,52,2019-09-02,44.0234387,-92.4630182
Rockford IL USA,43,2019-09-02,42.2713945,-89.093966
Sacramento CA USA,4,2019-09-02,38.5815719,-121.4943996
Salisbury MD USA,40,2019-09-02,38.3662114,-75.6008881
Salt Lake City UT USA,5,2019-09-02,40.7596198,-111.8867975
San Diego CA USA,6,2019-09-02,32.7174209,-117.1627714
San Francisco CA USA,2,2019-09-02,37.7790262,-122.4199061
Santa Barbara CA USA,26,2019-09-02,34.4221319,-119.7026673
Seattle WA USA,7,2019-09-02,47.6038321,-122.3300624
South Bend IN USA,46,2019-09-02,41.6833813,-86.2500066
St. Louis MO USA,5,2019-09-02,38.6268039,-90.1994097
Tampa FL USA,5,2019-09-02,27.9518491,-82.4563972
Toledo OH USA,18,2019-09-02,41.6786754,-83.5127283
Washington DC USA,2,2019-09-02,38.8948932,-77.0365529
Watertown NY USA,85,2019-09-02,43.9747838,-75.9107565
Anchorage AK USA,59,2019-09-09,61.2163129,-149.8948523
Atlanta GA USA,3,2019-09-09,33.7490987,-84.3901849
Baltimore MD USA,8,2019-09-09,39.284749399999995,-76.62047463969989
Boston MA USA,3,2019-09-09,42.3602534,-71.0582912
Buffalo NY USA,15,2019-09-09,42.8867166,-78.8783922
Cedar Rapids IA USA,29,2019-09-09,41.9758872,-91.6704053
Chicago IL USA,2,2019-09-09,41.8755616,-87.6244212
Cincinnati OH USA,9,2019-09-09,39.1014537,-84.5124602
Cleveland OH USA,6,2019-09-09,41.5051613,-81.6934446
Colorado Springs CO USA,26,2019-09-09,38.8339578,-104.8253485
Dallas TX USA,4,2019-09-09,32.7762719,-96.7968559
Denver CO USA,9,2019-09-09,39.7348381,-104.9653271
Detroit MI USA,5,2019-09-09,42.3315509,-83.0466403
Greenville SC USA,12,2019-09-09,34.851354,-82.3984882
Hartford CT USA,8,2019-09-09,43.648048,-70.241416
Huntsville AL USA,29,2019-09-09,33.554113,-86.804219
Idaho Falls ID USA,77,2019-09-09,43.4935245,-112.0400919
Indianapolis IN USA,16,2019-09-09,39.7683331,-86.1583502
Jackson MS USA,33,2019-09-09,28.530801699999998,-81.30324431076107
Jacksonville FL USA,14,2019-09-09,30.3321838,-81.655651
Knoxville TN USA,20,2019-09-09,35.9603948,-83.9210261
Lafayette LA USA,56,2019-09-09,30.2240897,-92.0198427
Lansing MI USA,38,2019-09-09,42.7338147,-84.5207088
Las Vegas NV USA,10,2019-09-09,36.1672559,-115.1485163
Los Angeles CA USA,2,2019-09-09,34.0536909,-118.2427666
Madison WI USA,23,2019-09-09,43.074761,-89.3837613
Miami FL USA,4,2019-09-09,25.7742658,-80.1936589
Minneapolis MN USA,9,2019-09-09,44.9772995,-93.2654692
Nashville TN USA,7,2019-09-09,36.1622296,-86.7743531
New York NY USA,3,2019-09-09,40.7127281,-74.0060152
Omaha NE USA,18,2019-09-09,41.2587459,-95.9383758
Orlando FL USA,5,2019-09-09,28.5479786,-81.41278418563017
Paducah KY USA,39,2019-09-09,37.0833893,-88.6000478
Philadelphia PA USA,4,2019-09-09,39.9527237,-75.1635262
Phoenix AZ USA,4,2019-09-09,33.4484367,-112.0741417
Pittsburgh PA USA,9,2019-09-09,40.4416941,-79.9900861
Roanoke VA USA,22,2019-09-09,37.270973,-79.9414313
Sacramento CA USA,6,2019-09-09,38.5815719,-121.4943996
Salt Lake City UT USA,7,2019-09-09,40.7596198,-111.8867975
San Diego CA USA,6,2019-09-09,32.7174209,-117.1627714
San Francisco CA USA,7,2019-09-09,37.7790262,-122.4199061
Santa Barbara CA USA,37,2019-09-09,34.4221319,-119.7026673
Seattle WA USA,4,2019-09-09,47.6038321,-122.3300624
St. Louis MO USA,8,2019-09-09,38.6268039,-90.1994097
Syracuse NY USA,25,2019-09-09,43.0481221,-76.1474244
Terre Haute IN USA,100,2019-09-09,39.4667025,-87.4139119
Tri VA USA,41,2019-09-09,38.5467876,-77.3366491
Waco TX USA,24,2019-09-09,31.549333,-97.1466695
Washington DC USA,5,2019-09-09,38.8948932,-77.0365529
Wilkes Barre PA USA,21,2019-09-09,41.2464824,-75.8817316
Albany NY USA,9,2019-09-16,42.6511674,-73.754968
Anchorage AK USA,32,2019-09-16,61.2163129,-149.8948523
Atlanta GA USA,4,2019-09-16,33.7490987,-84.3901849
Buffalo NY USA,8,2019-09-16,42.8867166,-78.8783922
Charleston WV USA,19,2019-09-16,38.3505995,-81.6332812
Charlotte NC USA,4,2019-09-16,35.2270869,-80.8431268
Chattanooga TN USA,16,2019-09-16,35.0457219,-85.3094883
Chicago IL USA,2,2019-09-16,41.8755616,-87.6244212
Cleveland OH USA,3,2019-09-16,41.5051613,-81.6934446
Colorado Springs CO USA,14,2019-09-16,38.8339578,-104.8253485
Columbia SC USA,13,2019-09-16,34.0007493,-81.0343313
Columbus OH USA,5,2019-09-16,39.9622601,-83.0007065
Dallas TX USA,1,2019-09-16,32.7762719,-96.7968559
Denver CO USA,2,2019-09-16,39.7348381,-104.9653271
Detroit MI USA,3,2019-09-16,42.3315509,-83.0466403
Duluth MN USA,38,2019-09-16,46.7729322,-92.1251218
El Paso TX USA,14,2019-09-16,31.7754152,-106.4646348
Flint MI USA,15,2019-09-16,43.0161693,-83.6900211
Fresno CA USA,9,2019-09-16,36.7295295,-119.70886126075588
Ft. Wayne IN USA,23,2019-09-16,41.0799898,-85.1386015
Greenville SC USA,6,2019-09-16,34.851354,-82.3984882
Kansas City MO USA,5,2019-09-16,39.100105,-94.5781416
Lafayette LA USA,31,2019-09-16,30.2240897,-92.0198427
Lexington KY USA,13,2019-09-16,38.0464066,-84.4970393
Lincoln NE USA,21,2019-09-16,40.8088861,-96.7077751
Los Angeles CA USA,1,2019-09-16,34.0536909,-118.2427666
Mankato MN USA,100,2019-09-16,44.1634663,-93.9993505
Memphis TN USA,9,2019-09-16,35.1490215,-90.0516285
Milwaukee WI USA,10,2019-09-16,43.0349931,-87.922497
Minneapolis MN USA,2,2019-09-16,44.9772995,-93.2654692
Montgomery AL USA,29,2019-09-16,40.85239,-78.266098
Nashville TN USA,12,2019-09-16,36.1622296,-86.7743531
New York NY USA,1,2019-09-16,40.7127281,-74.0060152
Orlando FL USA,3,2019-09-16,28.5479786,-81.41278418563017
Peoria IL USA,21,2019-09-16,40.6938609,-89.5891008
Rochester NY USA,13,2019-09-16,43.157285,-77.615214
Rockford IL USA,34,2019-09-16,42.2713945,-89.093966
Salt Lake City UT USA,4,2019-09-16,40.7596198,-111.8867975
San Antonio TX USA,5,2019-09-16,29.4246002,-98.4951405
San Francisco CA USA,2,2019-09-16,37.7790262,-122.4199061
Sioux City IA USA,44,2019-09-16,42.4966815,-96.4058782
Spokane WA USA,27,2019-09-16,47.6579425,-117.4212265
Springfield MO USA,16,2019-09-16,37.2166779,-93.2920373
Springfield MA USA,19,2019-09-16,42.1014831,-72.589811
St. Louis MO USA,4,2019-09-16,38.6268039,-90.1994097
Syracuse NY USA,14,2019-09-16,43.0481221,-76.1474244
Tri VA USA,23,2019-09-16,38.5467876,-77.3366491
Tulsa OK USA,11,2019-09-16,36.1556805,-95.9929113
Wheeling WV USA,63,2019-09-16,40.0639616,-80.7209149
Austin TX USA,6,2019-09-23,30.2711286,-97.7436995
Baltimore MD USA,6,2019-09-23,39.284749399999995,-76.62047463969989
Binghamton NY USA,60,2019-09-23,42.096968,-75.914341
Boston MA USA,4,2019-09-23,42.3602534,-71.0582912
Charleston SC USA,19,2019-09-23,32.7876012,-79.9402728
Charlotte NC USA,5,2019-09-23,35.2270869,-80.8431268
Chicago IL USA,3,2019-09-23,41.8755616,-87.6244212
Cincinnati OH USA,7,2019-09-23,39.1014537,-84.5124602
Clarksburg WV USA,100,2019-09-23,39.2806451,-80.3445341
Cleveland OH USA,4,2019-09-23,41.5051613,-81.6934446
Columbus OH USA,13,2019-09-23,39.9622601,-83.0007065
Dallas TX USA,4,2019-09-23,32.7762719,-96.7968559
Denver CO USA,3,2019-09-23,39.7348381,-104.9653271
Detroit MI USA,3,2019-09-23,42.3315509,-83.0466403
El Paso TX USA,18,2019-09-23,31.7754152,-106.4646348
Evansville IN USA,31,2019-09-23,37.9747645,-87.5558483
Flint MI USA,19,2019-09-23,43.0161693,-83.6900211
Ft. Wayne IN USA,29,2019-09-23,41.0799898,-85.1386015
Greenville SC USA,8,2019-09-23,34.851354,-82.3984882
Harrisburg PA USA,10,2019-09-23,40.2663107,-76.8861122
Hartford CT USA,6,2019-09-23,43.648048,-70.241416
Houston TX USA,2,2019-09-23,29.7589382,-95.3676974
Knoxville TN USA,14,2019-09-23,35.9603948,-83.9210261
Little Rock AR USA,14,2019-09-23,34.7464809,-92.2895948
Los Angeles CA USA,1,2019-09-23,34.0536909,-118.2427666
Milwaukee WI USA,6,2019-09-23,43.0349931,-87.922497
Minneapolis MN USA,3,2019-09-23,44.9772995,-93.2654692
New York NY USA,1,2019-09-23,40.7127281,-74.0060152
Norfolk VA USA,8,2019-09-23,36.8889933,-76.2481624
Philadelphia PA USA,2,2019-09-23,39.9527237,-75.1635262
Portland OR USA,5,2019-09-23,45.5202471,-122.6741949
Providence RI USA,10,2019-09-23,41.8239891,-71.4128343
Salt Lake City UT USA,5,2019-09-23,40.7596198,-111.8867975
San Antonio TX USA,6,2019-09-23,29.4246002,-98.4951405
San Francisco CA USA,2,2019-09-23,37.7790262,-122.4199061
Savannah GA USA,20,2019-09-23,32.0809263,-81.0911768
Seattle WA USA,3,2019-09-23,47.6038321,-122.3300624
South Bend IN USA,44,2019-09-23,41.6833813,-86.2500066
St. Louis MO USA,5,2019-09-23,38.6268039,-90.1994097
Tampa FL USA,3,2019-09-23,27.9518491,-82.4563972
Washington DC USA,2,2019-09-23,38.8948932,-77.0365529
Wichita KS USA,18,2019-09-23,37.6922361,-97.3375448
Youngstown OH USA,33,2019-09-23,41.1035786,-80.6520161
Atlanta GA USA,3,2019-09-30,33.7490987,-84.3901849
Austin TX USA,6,2019-09-30,30.2711286,-97.7436995
Birmingham AL USA,10,2019-09-30,33.570499,-86.765783
Buffalo NY USA,11,2019-09-30,42.8867166,-78.8783922
Chicago IL USA,1,2019-09-30,41.8755616,-87.6244212
Cincinnati OH USA,7,2019-09-30,39.1014537,-84.5124602
Cleveland OH USA,4,2019-09-30,41.5051613,-81.6934446
Columbus OH USA,7,2019-09-30,39.9622601,-83.0007065
Davenport IA USA,31,2019-09-30,41.5236436,-90.5776368
Elmira NY USA,100,2019-09-30,42.0897965,-76.8077338
Erie PA USA,56,2019-09-30,42.1294712,-80.0852695
Evansville IN USA,33,2019-09-30,37.9747645,-87.5558483
Grand Rapids MI USA,9,2019-09-30,42.9142413,-85.533004
Houston TX USA,2,2019-09-30,29.7589382,-95.3676974
Huntsville AL USA,22,2019-09-30,33.554113,-86.804219
Indianapolis IN USA,6,2019-09-30,39.7683331,-86.1583502
Johnstown PA USA,26,2019-09-30,40.3267407,-78.9219698
Kansas City MO USA,11,2019-09-30,39.100105,-94.5781416
Los Angeles CA USA,1,2019-09-30,34.0536909,-118.2427666
Miami FL USA,3,2019-09-30,25.7742658,-80.1936589
Milwaukee WI USA,7,2019-09-30,43.0349931,-87.922497
Minneapolis MN USA,3,2019-09-30,44.9772995,-93.2654692
Nashville TN USA,6,2019-09-30,36.1622296,-86.7743531
New York NY USA,1,2019-09-30,40.7127281,-74.0060152
Omaha NE USA,14,2019-09-30,41.2587459,-95.9383758
Orlando FL USA,7,2019-09-30,28.5479786,-81.41278418563017
Paducah KY USA,29,2019-09-30,37.0833893,-88.6000478
Philadelphia PA USA,2,2019-09-30,39.9527237,-75.1635262
Pittsburgh PA USA,6,2019-09-30,40.4416941,-79.9900861
Raleigh NC USA,4,2019-09-30,35.7803977,-78.6390989
Roanoke VA USA,17,2019-09-30,37.270973,-79.9414313
Rochester NY USA,17,2019-09-30,43.157285,-77.615214
San Antonio TX USA,7,2019-09-30,29.4246002,-98.4951405
San Francisco CA USA,2,2019-09-30,37.7790262,-122.4199061
Seattle WA USA,3,2019-09-30,47.6038321,-122.3300624
South Bend IN USA,41,2019-09-30,41.6833813,-86.2500066
Tampa FL USA,4,2019-09-30,27.9518491,-82.4563972
Tucson AZ USA,18,2019-09-30,32.2228765,-110.9748477
Waco TX USA,18,2019-09-30,31.549333,-97.1466695
Washington DC USA,3,2019-09-30,38.8948932,-77.0365529
Albany GA USA,39,2019-10-07,40.0555158,-82.8457691
Albuquerque NM USA,12,2019-10-07,35.0841034,-106.6509851
Augusta GA USA,18,2019-10-07,33.4709714,-81.9748429
Austin TX USA,3,2019-10-07,30.2711286,-97.7436995
Boston MA USA,1,2019-10-07,42.3602534,-71.0582912
Charleston SC USA,11,2019-10-07,32.7876012,-79.9402728
Charleston WV USA,14,2019-10-07,38.3505995,-81.6332812
Chicago IL USA,1,2019-10-07,41.8755616,-87.6244212
Chico CA USA,26,2019-10-07,39.7284945,-121.8374777
Cleveland OH USA,5,2019-10-07,41.5051613,-81.6934446
Columbia SC USA,10,2019-10-07,34.0007493,-81.0343313
Columbus OH USA,4,2019-10-07,39.9622601,-83.0007065
Dallas TX USA,1,2019-10-07,32.7762719,-96.7968559
Detroit MI USA,2,2019-10-07,42.3315509,-83.0466403
Grand Rapids MI USA,5,2019-10-07,42.9142413,-85.533004
Great Falls MT USA,92,2019-10-07,47.5048851,-111.2918908
Greenville SC USA,5,2019-10-07,34.851354,-82.3984882
Harrisburg PA USA,6,2019-10-07,40.2663107,-76.8861122
Honolulu HI USA,8,2019-10-07,21.304547,-157.8556764
Houston TX USA,1,2019-10-07,29.7589382,-95.3676974
Huntsville AL USA,13,2019-10-07,33.554113,-86.804219
Knoxville TN USA,9,2019-10-07,35.9603948,-83.9210261
Louisville KY USA,4,2019-10-07,38.2542376,-85.759407
Madison WI USA,9,2019-10-07,43.074761,-89.3837613
Memphis TN USA,7,2019-10-07,35.1490215,-90.0516285
Miami FL USA,2,2019-10-07,25.7742658,-80.1936589
Milwaukee WI USA,6,2019-10-07,43.0349931,-87.922497
Mobile AL USA,8,2019-10-07,39.092585,-84.853229
Nashville TN USA,3,2019-10-07,36.1622296,-86.7743531
New Orleans LA USA,6,2019-10-07,29.9499323,-90.0701156
New York NY USA,1,2019-10-07,40.7127281,-74.0060152
Omaha NE USA,7,2019-10-07,41.2587459,-95.9383758
Orlando FL USA,2,2019-10-07,28.5479786,-81.41278418563017
Panama City FL USA,31,2019-10-07,30.1600827,-85.6545729
Parkersburg WV USA,100,2019-10-07,39.2699565,-81.5506916
Philadelphia PA USA,2,2019-10-07,39.9527237,-75.1635262
Phoenix AZ USA,2,2019-10-07,33.4484367,-112.0741417
Providence RI USA,6,2019-10-07,41.8239891,-71.4128343
Raleigh NC USA,2,2019-10-07,35.7803977,-78.6390989
Reno NV USA,16,2019-10-07,39.5261206,-119.8126581
Rochester MN USA,30,2019-10-07,44.0234387,-92.4630182
Salt Lake City UT USA,3,2019-10-07,40.7596198,-111.8867975
San Diego CA USA,5,2019-10-07,32.7174209,-117.1627714
San Francisco CA USA,1,2019-10-07,37.7790262,-122.4199061
Santa Barbara CA USA,14,2019-10-07,34.4221319,-119.7026673
Seattle WA USA,3,2019-10-07,47.6038321,-122.3300624
St. Louis MO USA,3,2019-10-07,38.6268039,-90.1994097
Washington DC USA,3,2019-10-07,38.8948932,-77.0365529
Wilkes Barre PA USA,9,2019-10-07,41.2464824,-75.8817316
Albuquerque NM USA,21,2019-10-14,35.0841034,-106.6509851
Atlanta GA USA,2,2019-10-14,33.7490987,-84.3901849
Austin TX USA,6,2019-10-14,30.2711286,-97.7436995
Baltimore MD USA,6,2019-10-14,39.284749399999995,-76.62047463969989
Butte MT USA,94,2019-10-14,46.0131505,-112.5365089
Champaign IL USA,22,2019-10-14,40.1164205,-88.2433829
Charlotte NC USA,5,2019-10-14,35.2270869,-80.8431268
Chicago IL USA,1,2019-10-14,41.8755616,-87.6244212
Dallas TX USA,2,2019-10-14,32.7762719,-96.7968559
Denver CO USA,3,2019-10-14,39.7348381,-104.9653271
Detroit MI USA,3,2019-10-14,42.3315509,-83.0466403
Eugene OR USA,30,2019-10-14,44.0505054,-123.0950506
Green Bay WI USA,18,2019-10-14,44.5126379,-88.0125794
Harrisburg PA USA,10,2019-10-14,40.2663107,-76.8861122
Houston TX USA,2,2019-10-14,29.7589382,-95.3676974
Indianapolis IN USA,6,2019-10-14,39.7683331,-86.1583502
Kansas City MO USA,7,2019-10-14,39.100105,-94.5781416
Knoxville TN USA,14,2019-10-14,35.9603948,-83.9210261
Lincoln NE USA,29,2019-10-14,40.8088861,-96.7077751
Los Angeles CA USA,2,2019-10-14,34.0536909,-118.2427666
Miami FL USA,3,2019-10-14,25.7742658,-80.1936589
Milwaukee WI USA,7,2019-10-14,43.0349931,-87.922497
New York NY USA,1,2019-10-14,40.7127281,-74.0060152
Norfolk VA USA,8,2019-10-14,36.8889933,-76.2481624
Philadelphia PA USA,2,2019-10-14,39.9527237,-75.1635262
Pittsburgh PA USA,6,2019-10-14,40.4416941,-79.9900861
Portland OR USA,5,2019-10-14,45.5202471,-122.6741949
Quincy IL USA,100,2019-10-14,42.2528772,-71.0022705
Salt Lake City UT USA,5,2019-10-14,40.7596198,-111.8867975
San Diego CA USA,4,2019-10-14,32.7174209,-117.1627714
San Francisco CA USA,2,2019-10-14,37.7790262,-122.4199061
Seattle WA USA,3,2019-10-14,47.6038321,-122.3300624
South Bend IN USA,24,2019-10-14,41.6833813,-86.2500066
St. Louis MO USA,6,2019-10-14,38.6268039,-90.1994097
Tampa FL USA,4,2019-10-14,27.9518491,-82.4563972
Washington DC USA,4,2019-10-14,38.8948932,-77.0365529
Atlanta GA USA,1,2019-10-21,33.7490987,-84.3901849
Baltimore MD USA,3,2019-10-21,39.284749399999995,-76.62047463969989
Boston MA USA,1,2019-10-21,42.3602534,-71.0582912
Chicago IL USA,2,2019-10-21,41.8755616,-87.6244212
