geoName,interest,date,lat,long
Utica NY,100,2019-02-11,43.1009031,-75.2326641
Orlando,100,2019-03-11,28.5421109,-81.3790304
Tampa,100,2019-05-06,27.9477595,-82.458444
Phoenix AZ,100,2019-06-17,33.4484367,-112.0741417
Columbus OH,100,2019-06-24,39.9622601,-83.0007065
Pittsburgh PA,88,2019-06-24,40.4416941,-79.9900861
Charlotte NC,13,2019-07-01,35.2270869,-80.8431268
Denver CO,19,2019-07-01,39.7348381,-104.9653271
Flint,60,2019-07-01,43.0161693,-83.6900211
Harrisburg,59,2019-07-01,40.2663107,-76.8861122
Los Angeles CA,2,2019-07-01,34.0536909,-118.2427666
Nashville TN,15,2019-07-01,36.1622296,-86.7743531
Seattle,8,2019-07-01,47.6038321,-122.3300624
Tyler,100,2019-07-01,32.3512601,-95.3010624
Abilene,24,2019-07-08,32.44645,-99.7475905
Albany GA,18,2019-07-08,51.7468576,-0.3383107
Albany,17,2019-07-08,42.6511674,-73.754968
Albuquerque,21,2019-07-08,35.0841034,-106.6509851
Alexandria LA,12,2019-07-08,31.199004,29.894378
Alpena MI,40,2019-07-08,45.0176181,-83.6670019
Amarillo TX,25,2019-07-08,35.2072185,-101.8338246
Anchorage AK,13,2019-07-08,61.2163129,-149.8948523
Atlanta GA,19,2019-07-08,33.7490987,-84.3901849
Augusta GA,18,2019-07-08,33.4709714,-81.9748429
Austin TX,21,2019-07-08,30.2711286,-97.7436995
Bakersfield CA,23,2019-07-08,35.3738712,-119.0194639
Baltimore MD,17,2019-07-08,39.2908816,-76.610759
Bangor ME,17,2019-07-08,29.0659229,-110.97133
Baton Rouge LA,16,2019-07-08,30.4459596,-91.18738
Beaumont,18,2019-07-08,30.0860459,-94.1018461
Bend OR,20,2019-07-08,44.0581728,-121.3153096
"Billings, MT",18,2019-07-08,45.7874957,-108.49607
Biloxi,22,2019-07-08,30.374673,-88.84594333482862
Binghamton NY,19,2019-07-08,42.096968,-75.914341
Birmingham AL,21,2019-07-08,33.570499,-86.765783
Bluefield,26,2019-07-08,37.2698395,-81.2223195
Boise ID,19,2019-07-08,43.6166163,-116.200886
Boston MA,14,2019-07-08,42.3602534,-71.0582912
Bowling Green KY,17,2019-07-08,36.9903199,-86.4436018
Buffalo NY,17,2019-07-08,42.8867166,-78.8783922
Burlington VT,13,2019-07-08,44.4762975,-73.2135472
Butte,14,2019-07-08,39.6519275,-121.5858444
Casper,17,2019-07-08,42.866632,-106.313081
Cedar Rapids,20,2019-07-08,41.9758872,-91.6704053
Champaign,11,2019-07-08,40.1164205,-88.2433829
Charleston SC,21,2019-07-08,32.7876012,-79.9402728
Charleston,20,2019-07-08,32.7876012,-79.9402728
Charlotte NC,17,2019-07-08,35.2270869,-80.8431268
Charlottesville VA,15,2019-07-08,38.029306,-78.4766781
Chattanooga TN,26,2019-07-08,35.0457219,-85.3094883
Cheyenne WY,15,2019-07-08,45.2519491,-75.7306849
Chicago IL,17,2019-07-08,41.8755616,-87.6244212
Chico,15,2019-07-08,39.7284945,-121.8374777
Cincinnati OH,19,2019-07-08,39.1014537,-84.5124602
Clarksburg,13,2019-07-08,39.2806451,-80.3445341
Cleveland,20,2019-07-08,41.5051613,-81.6934446
Colorado Springs,18,2019-07-08,38.8339578,-104.8253485
Columbia SC,15,2019-07-08,34.0007493,-81.0343313
Columbia,24,2019-07-08,2.8894434,-73.783892
Columbus GA,21,2019-07-08,43.1830762,-79.8147518
Columbus OH,19,2019-07-08,39.9622601,-83.0007065
Columbus,23,2019-07-08,39.9622601,-83.0007065
Corpus Christi TX,25,2019-07-08,27.7477253,-97.4014129
Dallas,21,2019-07-08,32.7762719,-96.7968559
Davenport IA,21,2019-07-08,41.5236436,-90.5776368
Dayton OH,12,2019-07-08,39.7589478,-84.1916069
Denver CO,18,2019-07-08,39.7348381,-104.9653271
Des Moines,18,2019-07-08,41.5910641,-93.6037149
Detroit MI,15,2019-07-08,42.3315509,-83.0466403
Dothan AL,32,2019-07-08,31.2237434,-85.3933906
Duluth MN,18,2019-07-08,46.7729322,-92.1251218
El Paso TX,21,2019-07-08,31.7754152,-106.4646348
Elmira NY,13,2019-07-08,42.0897965,-76.8077338
Erie PA,11,2019-07-08,42.1294712,-80.0852695
Eugene OR,20,2019-07-08,44.0505054,-123.0950506
Eureka CA,33,2019-07-08,45.4985271,-62.6816736
Evansville IN,17,2019-07-08,4.5777639,-7.6472486
Fairbanks AK,37,2019-07-08,64.837845,-147.716675
Fargo,19,2019-07-08,46.877229,-96.789821
Flint,20,2019-07-08,43.0161693,-83.6900211
Florence,21,2019-07-08,43.7698712,11.2555757
Fresno,24,2019-07-08,36.7295295,-119.70886126075588
Ft. Myers,23,2019-07-08,26.640628,-81.8723084
Ft. Smith,22,2019-07-08,35.3872218,-94.4248983
Ft. Wayne IN,17,2019-07-08,41.0799898,-85.1386015
Gainesville FL,16,2019-07-08,29.67357765,-82.32337460192167
Grand Junction,25,2019-07-08,39.063956,-108.5507317
Grand Rapids,22,2019-07-08,42.9632405,-85.6678639
Great Falls MT,27,2019-07-08,47.5048851,-111.2918908
Green Bay,18,2019-07-08,44.5126379,-88.0125794
Greensboro,16,2019-07-08,36.0726355,-79.7919754
Greenville,24,2019-07-08,34.851354,-82.3984882
Greenville,16,2019-07-08,34.851354,-82.3984882
Greenwood,17,2019-07-08,37.8709542,-96.2471338
Harlingen,27,2019-07-08,26.1908241,-97.6959794
Harrisburg,19,2019-07-08,40.2663107,-76.8861122
Harrisonburg VA,27,2019-07-08,38.4493315,-78.8688833
Hartford,18,2019-07-08,41.764582,-72.6908547
Hattiesburg,26,2019-07-08,31.3271189,-89.2903392
Helena MT,17,2019-07-08,46.5927425,-112.0362771
Honolulu HI,16,2019-07-08,21.304547,-157.8556764
Houston TX,20,2019-07-08,29.7589382,-95.3676974
Huntsville,18,2019-07-08,34.729847,-86.5859011
Idaho Falls,26,2019-07-08,43.4935245,-112.0400919
Indianapolis IN,18,2019-07-08,39.7683331,-86.1583502
Jackson MS,12,2019-07-08,28.530801699999998,-81.30324431076107
Jackson TN,33,2019-07-08,35.6144446,-88.8177418
Jacksonville FL,17,2019-07-08,30.3321838,-81.655651
Johnstown,21,2019-07-08,40.3267407,-78.9219698
Jonesboro AR,26,2019-07-08,35.8428646,-90.7034522
Joplin MO,19,2019-07-08,37.08418,-94.51323
Juneau AK,23,2019-07-08,58.3019496,-134.419734
Kansas City MO,22,2019-07-08,39.100105,-94.5781416
Knoxville TN,16,2019-07-08,35.9603948,-83.9210261
La Crosse,16,2019-07-08,43.8014053,-91.2395429
Lafayette IN,23,2019-07-08,40.4167022,-86.8752869
Lafayette LA,18,2019-07-08,30.2240897,-92.0198427
Lake Charles LA,14,2019-07-08,30.2265949,-93.2173759
Lansing MI,17,2019-07-08,42.7338147,-84.5207088
Laredo TX,19,2019-07-08,27.5199841,-99.4953764
Las Vegas NV,18,2019-07-08,36.1672559,-115.1485163
Lexington KY,20,2019-07-08,38.0464066,-84.4970393
Lima OH,10,2019-07-08,40.7399785,-84.105006
Lincoln,20,2019-07-08,47.8299069,-118.414727
Little Rock,18,2019-07-08,34.7464809,-92.2895948
Los Angeles CA,22,2019-07-08,34.0536909,-118.2427666
Louisville KY,19,2019-07-08,38.2542376,-85.759407
Lubbock TX,24,2019-07-08,33.5635206,-101.879336
Macon GA,30,2019-07-08,32.8406946,-83.6324022
Madison WI,13,2019-07-08,43.074761,-89.3837613
Mankato MN,16,2019-07-08,44.1634663,-93.9993505
Marquette MI,21,2019-07-08,46.4481521,-87.6305899
Medford,28,2019-07-08,42.4184296,-71.1061639
Memphis TN,15,2019-07-08,35.1490215,-90.0516285
Meridian MS,25,2019-07-08,43.61732135,-116.40613112241579
Miami,16,2019-07-08,25.7742658,-80.1936589
Milwaukee WI,15,2019-07-08,43.0349931,-87.922497
Minneapolis,15,2019-07-08,44.9772995,-93.2654692
Minot,20,2019-07-08,47.6698594,4.8786165
Missoula MT,14,2019-07-08,46.8701049,-113.9952672
Mobile AL,18,2019-07-08,39.092585,-84.853229
Monroe LA,19,2019-07-08,38.2722313,-90.1792484
Monterey,27,2019-07-08,36.2231079,-121.3877428
Montgomery,18,2019-07-08,32.3669656,-86.3006485
Nashville TN,21,2019-07-08,36.1622296,-86.7743531
New Orleans LA,17,2019-07-08,29.9499323,-90.0701156
New York NY,13,2019-07-08,40.7127281,-74.0060152
Norfolk,22,2019-07-08,52.666667,1.0
North Platte NE,100,2019-07-08,41.1238873,-100.7654232
Odessa,30,2019-07-08,46.4873195,30.7392776
Oklahoma City OK,21,2019-07-08,35.4729886,-97.5170536
Omaha NE,22,2019-07-08,41.2587459,-95.9383758
Orlando,17,2019-07-08,28.5421109,-81.3790304
Ottumwa IA,15,2019-07-08,41.0200145,-92.4112963
Paducah KY,23,2019-07-08,37.0833893,-88.6000478
Palm Springs CA,15,2019-07-08,33.8246269,-116.540303
Panama City FL,18,2019-07-08,30.1600827,-85.6545729
Parkersburg WV,32,2019-07-08,39.2699565,-81.5506916
Peoria,21,2019-07-08,40.6938609,-89.5891008
Philadelphia PA,16,2019-07-08,39.9527237,-75.1635262
Phoenix AZ,18,2019-07-08,33.4484367,-112.0741417
Pittsburgh PA,14,2019-07-08,40.4416941,-79.9900861
Portland OR,16,2019-07-08,45.5202471,-122.6741949
Portland,13,2019-07-08,45.5202471,-122.6741949
Presque Isle ME,27,2019-07-08,46.681479,-68.016357
Providence RI,18,2019-07-08,51.4325409,-2.6642358
Quincy IL,18,2019-07-08,39.9368363,-120.9471764
Raleigh,19,2019-07-08,35.7803977,-78.6390989
Rapid City SD,21,2019-07-08,44.081176,-103.228006
Reno NV,15,2019-07-08,39.5261206,-119.8126581
Richmond,21,2019-07-08,37.5385087,-77.43428
Roanoke,18,2019-07-08,37.270973,-79.9414313
Rochester MN,17,2019-07-08,44.0234387,-92.4630182
Rochester NY,16,2019-07-08,43.157285,-77.615214
Rockford IL,20,2019-07-08,42.2713945,-89.093966
Sacramento,20,2019-07-08,38.5815719,-121.4943996
Salisbury MD,20,2019-07-08,38.3662114,-75.6008881
Salt Lake City UT,16,2019-07-08,40.7596198,-111.8867975
San Angelo TX,22,2019-07-08,31.4648357,-100.4398442
San Antonio TX,24,2019-07-08,29.4246002,-98.4951405
San Diego CA,19,2019-07-08,32.7174209,-117.1627714
San Francisco,13,2019-07-08,37.7790262,-122.4199061
Santa Barbara,18,2019-07-08,34.4221319,-119.7026673
Savannah GA,18,2019-07-08,43.4129206,-79.7028276
Seattle,15,2019-07-08,47.6038321,-122.3300624
Sherman TX,22,2019-07-08,36.2452294,-101.8858689
Shreveport LA,16,2019-07-08,32.5221828,-93.7651944
Sioux City IA,16,2019-07-08,42.4966815,-96.4058782
Sioux Fall,14,2019-07-08,46.737158,-90.8801835
South Bend,21,2019-07-08,41.6833813,-86.2500066
Spokane WA,17,2019-07-08,47.6579425,-117.4212265
Springfield MO,20,2019-07-08,37.2166779,-93.2920373
Springfield,20,2019-07-08,39.7990175,-89.6439575
St. Joseph MO,27,2019-07-08,39.7686055,-94.8466322
St. Louis MO,17,2019-07-08,38.6529545,-90.24111656024635
Syracuse NY,13,2019-07-08,43.0481221,-76.1474244
Tallahassee FL,14,2019-07-08,30.4380832,-84.2809332
Tampa,15,2019-07-08,27.9477595,-82.458444
Terre Haute IN,25,2019-07-08,39.4667025,-87.4139119
Toledo OH,19,2019-07-08,41.6786754,-83.5127283
Topeka KS,23,2019-07-08,39.049011,-95.677556
Traverse City,15,2019-07-08,44.7606441,-85.6165301
Tri,22,2019-07-08,35.875259,-78.7751271
Tucson,16,2019-07-08,32.2228765,-110.9748477
Tulsa OK,20,2019-07-08,36.1556805,-95.9929113
Twin Falls ID,15,2019-07-08,42.5704219,-114.4603171
Tyler,24,2019-07-08,32.3512601,-95.3010624
Utica NY,16,2019-07-08,43.1009031,-75.2326641
Victoria TX,45,2019-07-08,28.8026443,-96.9766308
Waco,22,2019-07-08,31.549333,-97.1466695
Washington DC,14,2019-07-08,38.8948932,-77.0365529
Watertown NY,26,2019-07-08,43.9747838,-75.9107565
Wausau,13,2019-07-08,44.9596017,-89.6298239
West Palm Beach,13,2019-07-08,26.7153425,-80.0533746
Wheeling WV,29,2019-07-08,40.0639616,-80.7209149
Wichita Falls TX,22,2019-07-08,33.9137085,-98.4933873
Wichita,22,2019-07-08,37.6922361,-97.3375448
Wilkes Barre,17,2019-07-08,41.2464824,-75.8817316
Wilmington NC,20,2019-07-08,34.2257282,-77.9447107
Yakima,25,2019-07-08,46.601557,-120.5108421
Youngstown OH,15,2019-07-08,41.1035786,-80.6520161
Yuma AZ,12,2019-07-08,32.6926588,-114.6276157
Zanesville OH,19,2019-07-08,39.9403453,-82.0131924
Abilene,57,2019-07-15,32.44645,-99.7475905
Albany GA,38,2019-07-15,51.7468576,-0.3383107
Albany,32,2019-07-15,42.6511674,-73.754968
Albuquerque,35,2019-07-15,35.0841034,-106.6509851
Alexandria LA,48,2019-07-15,31.199004,29.894378
Alpena MI,100,2019-07-15,45.0176181,-83.6670019
Amarillo TX,49,2019-07-15,35.2072185,-101.8338246
Anchorage AK,29,2019-07-15,61.2163129,-149.8948523
Atlanta GA,32,2019-07-15,33.7490987,-84.3901849
Augusta GA,34,2019-07-15,33.4709714,-81.9748429
Austin TX,30,2019-07-15,30.2711286,-97.7436995
Bakersfield CA,35,2019-07-15,35.3738712,-119.0194639
Baltimore MD,23,2019-07-15,39.2908816,-76.610759
Bangor ME,36,2019-07-15,29.0659229,-110.97133
Baton Rouge LA,22,2019-07-15,30.4459596,-91.18738
Beaumont,25,2019-07-15,30.0860459,-94.1018461
Bend OR,31,2019-07-15,44.0581728,-121.3153096
"Billings, MT",26,2019-07-15,45.7874957,-108.49607
Biloxi,42,2019-07-15,30.374673,-88.84594333482862
Binghamton NY,29,2019-07-15,42.096968,-75.914341
Birmingham AL,36,2019-07-15,33.570499,-86.765783
Bluefield,38,2019-07-15,37.2698395,-81.2223195
Boise ID,31,2019-07-15,43.6166163,-116.200886
Boston MA,29,2019-07-15,42.3602534,-71.0582912
Bowling Green KY,44,2019-07-15,36.9903199,-86.4436018
Buffalo NY,34,2019-07-15,42.8867166,-78.8783922
Burlington VT,32,2019-07-15,44.4762975,-73.2135472
Butte,43,2019-07-15,39.6519275,-121.5858444
Casper,46,2019-07-15,42.866632,-106.313081
Cedar Rapids,37,2019-07-15,41.9758872,-91.6704053
Champaign,34,2019-07-15,40.1164205,-88.2433829
Charleston SC,26,2019-07-15,32.7876012,-79.9402728
Charleston,38,2019-07-15,32.7876012,-79.9402728
Charlotte NC,31,2019-07-15,35.2270869,-80.8431268
Charlottesville VA,28,2019-07-15,38.029306,-78.4766781
Chattanooga TN,35,2019-07-15,35.0457219,-85.3094883
Cheyenne WY,38,2019-07-15,45.2519491,-75.7306849
Chicago IL,29,2019-07-15,41.8755616,-87.6244212
Chico,35,2019-07-15,39.7284945,-121.8374777
Cincinnati OH,30,2019-07-15,39.1014537,-84.5124602
Clarksburg,52,2019-07-15,39.2806451,-80.3445341
Cleveland,37,2019-07-15,41.5051613,-81.6934446
Colorado Springs,39,2019-07-15,38.8339578,-104.8253485
Columbia SC,41,2019-07-15,34.0007493,-81.0343313
Columbia,48,2019-07-15,2.8894434,-73.783892
Columbus GA,24,2019-07-15,43.1830762,-79.8147518
Columbus OH,37,2019-07-15,39.9622601,-83.0007065
Columbus,47,2019-07-15,39.9622601,-83.0007065
Corpus Christi TX,34,2019-07-15,27.7477253,-97.4014129
Dallas,34,2019-07-15,32.7762719,-96.7968559
Davenport IA,34,2019-07-15,41.5236436,-90.5776368
Dayton OH,38,2019-07-15,39.7589478,-84.1916069
Denver CO,35,2019-07-15,39.7348381,-104.9653271
Des Moines,24,2019-07-15,41.5910641,-93.6037149
Detroit MI,31,2019-07-15,42.3315509,-83.0466403
Dothan AL,53,2019-07-15,31.2237434,-85.3933906
Duluth MN,42,2019-07-15,46.7729322,-92.1251218
El Paso TX,28,2019-07-15,31.7754152,-106.4646348
Elmira NY,31,2019-07-15,42.0897965,-76.8077338
Erie PA,34,2019-07-15,42.1294712,-80.0852695
Eugene OR,26,2019-07-15,44.0505054,-123.0950506
Eureka CA,34,2019-07-15,45.4985271,-62.6816736
Evansville IN,30,2019-07-15,4.5777639,-7.6472486
Fairbanks AK,36,2019-07-15,64.837845,-147.716675
Fargo,44,2019-07-15,46.877229,-96.789821
Flint,29,2019-07-15,43.0161693,-83.6900211
Florence,42,2019-07-15,43.7698712,11.2555757
Fresno,31,2019-07-15,36.7295295,-119.70886126075588
Ft. Myers,37,2019-07-15,26.640628,-81.8723084
Ft. Smith,33,2019-07-15,35.3872218,-94.4248983
Ft. Wayne IN,45,2019-07-15,41.0799898,-85.1386015
Gainesville FL,28,2019-07-15,29.67357765,-82.32337460192167
Grand Junction,32,2019-07-15,39.063956,-108.5507317
Grand Rapids,45,2019-07-15,42.9632405,-85.6678639
Great Falls MT,63,2019-07-15,47.5048851,-111.2918908
Green Bay,39,2019-07-15,44.5126379,-88.0125794
Greensboro,36,2019-07-15,36.0726355,-79.7919754
Greenville,36,2019-07-15,34.851354,-82.3984882
Greenville,26,2019-07-15,34.851354,-82.3984882
Greenwood,44,2019-07-15,37.8709542,-96.2471338
Harlingen,33,2019-07-15,26.1908241,-97.6959794
Harrisburg,30,2019-07-15,40.2663107,-76.8861122
Harrisonburg VA,29,2019-07-15,38.4493315,-78.8688833
Hartford,29,2019-07-15,41.764582,-72.6908547
Hattiesburg,42,2019-07-15,31.3271189,-89.2903392
Helena MT,88,2019-07-15,46.5927425,-112.0362771
Honolulu HI,23,2019-07-15,21.304547,-157.8556764
Houston TX,30,2019-07-15,29.7589382,-95.3676974
Huntsville,41,2019-07-15,34.729847,-86.5859011
Idaho Falls,43,2019-07-15,43.4935245,-112.0400919
Indianapolis IN,30,2019-07-15,39.7683331,-86.1583502
Jackson MS,33,2019-07-15,28.530801699999998,-81.30324431076107
Jackson TN,57,2019-07-15,35.6144446,-88.8177418
Jacksonville FL,33,2019-07-15,30.3321838,-81.655651
Johnstown,37,2019-07-15,40.3267407,-78.9219698
Jonesboro AR,64,2019-07-15,35.8428646,-90.7034522
Joplin MO,39,2019-07-15,37.08418,-94.51323
Juneau AK,59,2019-07-15,58.3019496,-134.419734
Kansas City MO,34,2019-07-15,39.100105,-94.5781416
Knoxville TN,47,2019-07-15,35.9603948,-83.9210261
La Crosse,53,2019-07-15,43.8014053,-91.2395429
Lafayette IN,34,2019-07-15,40.4167022,-86.8752869
Lafayette LA,25,2019-07-15,30.2240897,-92.0198427
Lake Charles LA,22,2019-07-15,30.2265949,-93.2173759
Lansing MI,41,2019-07-15,42.7338147,-84.5207088
Laredo TX,43,2019-07-15,27.5199841,-99.4953764
Las Vegas NV,29,2019-07-15,36.1672559,-115.1485163
Lexington KY,32,2019-07-15,38.0464066,-84.4970393
Lima OH,42,2019-07-15,40.7399785,-84.105006
Lincoln,37,2019-07-15,47.8299069,-118.414727
Little Rock,35,2019-07-15,34.7464809,-92.2895948
Los Angeles CA,34,2019-07-15,34.0536909,-118.2427666
Louisville KY,41,2019-07-15,38.2542376,-85.759407
Lubbock TX,38,2019-07-15,33.5635206,-101.879336
Macon GA,32,2019-07-15,32.8406946,-83.6324022
Madison WI,36,2019-07-15,43.074761,-89.3837613
Mankato MN,41,2019-07-15,44.1634663,-93.9993505
Marquette MI,24,2019-07-15,46.4481521,-87.6305899
Medford,40,2019-07-15,42.4184296,-71.1061639
Memphis TN,32,2019-07-15,35.1490215,-90.0516285
Meridian MS,44,2019-07-15,43.61732135,-116.40613112241579
Miami,26,2019-07-15,25.7742658,-80.1936589
Milwaukee WI,30,2019-07-15,43.0349931,-87.922497
Minneapolis,32,2019-07-15,44.9772995,-93.2654692
Minot,29,2019-07-15,47.6698594,4.8786165
Missoula MT,41,2019-07-15,46.8701049,-113.9952672
Mobile AL,34,2019-07-15,39.092585,-84.853229
Monroe LA,37,2019-07-15,38.2722313,-90.1792484
Monterey,54,2019-07-15,36.2231079,-121.3877428
Montgomery,26,2019-07-15,32.3669656,-86.3006485
Nashville TN,37,2019-07-15,36.1622296,-86.7743531
New Orleans LA,26,2019-07-15,29.9499323,-90.0701156
New York NY,22,2019-07-15,40.7127281,-74.0060152
Norfolk,32,2019-07-15,52.666667,1.0
North Platte NE,58,2019-07-15,41.1238873,-100.7654232
Odessa,32,2019-07-15,46.4873195,30.7392776
Oklahoma City OK,34,2019-07-15,35.4729886,-97.5170536
Omaha NE,33,2019-07-15,41.2587459,-95.9383758
Orlando,32,2019-07-15,28.5421109,-81.3790304
Ottumwa IA,50,2019-07-15,41.0200145,-92.4112963
Paducah KY,44,2019-07-15,37.0833893,-88.6000478
Palm Springs CA,31,2019-07-15,33.8246269,-116.540303
Panama City FL,32,2019-07-15,30.1600827,-85.6545729
Parkersburg WV,30,2019-07-15,39.2699565,-81.5506916
Peoria,36,2019-07-15,40.6938609,-89.5891008
Philadelphia PA,30,2019-07-15,39.9527237,-75.1635262
Phoenix AZ,39,2019-07-15,33.4484367,-112.0741417
Pittsburgh PA,36,2019-07-15,40.4416941,-79.9900861
Portland OR,31,2019-07-15,45.5202471,-122.6741949
Portland,34,2019-07-15,45.5202471,-122.6741949
Presque Isle ME,74,2019-07-15,46.681479,-68.016357
Providence RI,32,2019-07-15,51.4325409,-2.6642358
Quincy IL,53,2019-07-15,39.9368363,-120.9471764
Raleigh,38,2019-07-15,35.7803977,-78.6390989
Rapid City SD,46,2019-07-15,44.081176,-103.228006
Reno NV,40,2019-07-15,39.5261206,-119.8126581
Richmond,33,2019-07-15,37.5385087,-77.43428
Roanoke,35,2019-07-15,37.270973,-79.9414313
Rochester MN,25,2019-07-15,44.0234387,-92.4630182
Rochester NY,36,2019-07-15,43.157285,-77.615214
Rockford IL,40,2019-07-15,42.2713945,-89.093966
Sacramento,34,2019-07-15,38.5815719,-121.4943996
Salisbury MD,38,2019-07-15,38.3662114,-75.6008881
Salt Lake City UT,38,2019-07-15,40.7596198,-111.8867975
San Angelo TX,52,2019-07-15,31.4648357,-100.4398442
San Antonio TX,32,2019-07-15,29.4246002,-98.4951405
San Diego CA,33,2019-07-15,32.7174209,-117.1627714
San Francisco,25,2019-07-15,37.7790262,-122.4199061
Santa Barbara,26,2019-07-15,34.4221319,-119.7026673
Savannah GA,37,2019-07-15,43.4129206,-79.7028276
Seattle,28,2019-07-15,47.6038321,-122.3300624
Sherman TX,38,2019-07-15,36.2452294,-101.8858689
Shreveport LA,53,2019-07-15,32.5221828,-93.7651944
Sioux City IA,50,2019-07-15,42.4966815,-96.4058782
Sioux Fall,43,2019-07-15,46.737158,-90.8801835
South Bend,28,2019-07-15,41.6833813,-86.2500066
Spokane WA,32,2019-07-15,47.6579425,-117.4212265
Springfield MO,32,2019-07-15,37.2166779,-93.2920373
Springfield,19,2019-07-15,39.7990175,-89.6439575
St. Joseph MO,45,2019-07-15,39.7686055,-94.8466322
St. Louis MO,33,2019-07-15,38.6529545,-90.24111656024635
Syracuse NY,29,2019-07-15,43.0481221,-76.1474244
Tallahassee FL,26,2019-07-15,30.4380832,-84.2809332
Tampa,30,2019-07-15,27.9477595,-82.458444
Terre Haute IN,57,2019-07-15,39.4667025,-87.4139119
Toledo OH,35,2019-07-15,41.6786754,-83.5127283
Topeka KS,44,2019-07-15,39.049011,-95.677556
Traverse City,29,2019-07-15,44.7606441,-85.6165301
Tri,29,2019-07-15,35.875259,-78.7751271
Tucson,43,2019-07-15,32.2228765,-110.9748477
Tulsa OK,36,2019-07-15,36.1556805,-95.9929113
Twin Falls ID,40,2019-07-15,42.5704219,-114.4603171
Tyler,30,2019-07-15,32.3512601,-95.3010624
Utica NY,44,2019-07-15,43.1009031,-75.2326641
Victoria TX,67,2019-07-15,28.8026443,-96.9766308
Waco,33,2019-07-15,31.549333,-97.1466695
Washington DC,27,2019-07-15,38.8948932,-77.0365529
Watertown NY,66,2019-07-15,43.9747838,-75.9107565
Wausau,39,2019-07-15,44.9596017,-89.6298239
West Palm Beach,30,2019-07-15,26.7153425,-80.0533746
Wheeling WV,40,2019-07-15,40.0639616,-80.7209149
Wichita Falls TX,25,2019-07-15,33.9137085,-98.4933873
Wichita,32,2019-07-15,37.6922361,-97.3375448
Wilkes Barre,41,2019-07-15,41.2464824,-75.8817316
Wilmington NC,29,2019-07-15,34.2257282,-77.9447107
Yakima,40,2019-07-15,46.601557,-120.5108421
Youngstown OH,57,2019-07-15,41.1035786,-80.6520161
Yuma AZ,44,2019-07-15,32.6926588,-114.6276157
Zanesville OH,46,2019-07-15,39.9403453,-82.0131924
Albany GA,22,2019-07-22,51.7468576,-0.3383107
Albany,6,2019-07-22,42.6511674,-73.754968
Albuquerque,7,2019-07-22,35.0841034,-106.6509851
Amarillo TX,16,2019-07-22,35.2072185,-101.8338246
Atlanta GA,6,2019-07-22,33.7490987,-84.3901849
Augusta GA,10,2019-07-22,33.4709714,-81.9748429
Austin TX,10,2019-07-22,30.2711286,-97.7436995
Bakersfield CA,9,2019-07-22,35.3738712,-119.0194639
Baltimore MD,11,2019-07-22,39.2908816,-76.610759
Bangor ME,26,2019-07-22,29.0659229,-110.97133
Baton Rouge LA,8,2019-07-22,30.4459596,-91.18738
Bend OR,27,2019-07-22,44.0581728,-121.3153096
"Billings, MT",25,2019-07-22,45.7874957,-108.49607
Binghamton NY,22,2019-07-22,42.096968,-75.914341
Birmingham AL,12,2019-07-22,33.570499,-86.765783
Bluefield,53,2019-07-22,37.2698395,-81.2223195
Boise ID,17,2019-07-22,43.6166163,-116.200886
Boston MA,5,2019-07-22,42.3602534,-71.0582912
Buffalo NY,8,2019-07-22,42.8867166,-78.8783922
Burlington VT,14,2019-07-22,44.4762975,-73.2135472
Cedar Rapids,15,2019-07-22,41.9758872,-91.6704053
Champaign,16,2019-07-22,40.1164205,-88.2433829
Charleston SC,6,2019-07-22,32.7876012,-79.9402728
Charleston,8,2019-07-22,32.7876012,-79.9402728
Charlotte NC,4,2019-07-22,35.2270869,-80.8431268
Charlottesville VA,25,2019-07-22,38.029306,-78.4766781
Chattanooga TN,19,2019-07-22,35.0457219,-85.3094883
Cheyenne WY,44,2019-07-22,45.2519491,-75.7306849
Chicago IL,6,2019-07-22,41.8755616,-87.6244212
Chico,21,2019-07-22,39.7284945,-121.8374777
Cincinnati OH,9,2019-07-22,39.1014537,-84.5124602
Cleveland,6,2019-07-22,41.5051613,-81.6934446
Colorado Springs,12,2019-07-22,38.8339578,-104.8253485
Columbia SC,12,2019-07-22,34.0007493,-81.0343313
Columbus GA,12,2019-07-22,43.1830762,-79.8147518
Columbus OH,5,2019-07-22,39.9622601,-83.0007065
Columbus,23,2019-07-22,39.9622601,-83.0007065
Corpus Christi TX,12,2019-07-22,27.7477253,-97.4014129
Dallas,8,2019-07-22,32.7762719,-96.7968559
Davenport IA,19,2019-07-22,41.5236436,-90.5776368
Dayton OH,9,2019-07-22,39.7589478,-84.1916069
Denver CO,12,2019-07-22,39.7348381,-104.9653271
Des Moines,7,2019-07-22,41.5910641,-93.6037149
Detroit MI,7,2019-07-22,42.3315509,-83.0466403
El Paso TX,10,2019-07-22,31.7754152,-106.4646348
Erie PA,18,2019-07-22,42.1294712,-80.0852695
Eugene OR,20,2019-07-22,44.0505054,-123.0950506
Fargo,26,2019-07-22,46.877229,-96.789821
Flint,13,2019-07-22,43.0161693,-83.6900211
Florence,19,2019-07-22,43.7698712,11.2555757
Fresno,12,2019-07-22,36.7295295,-119.70886126075588
Ft. Myers,6,2019-07-22,26.640628,-81.8723084
Ft. Smith,12,2019-07-22,35.3872218,-94.4248983
Ft. Wayne IN,21,2019-07-22,41.0799898,-85.1386015
Gainesville FL,16,2019-07-22,29.67357765,-82.32337460192167
Grand Junction,35,2019-07-22,39.063956,-108.5507317
Grand Rapids,9,2019-07-22,42.9632405,-85.6678639
Great Falls MT,100,2019-07-22,47.5048851,-111.2918908
Green Bay,12,2019-07-22,44.5126379,-88.0125794
Greensboro,9,2019-07-22,36.0726355,-79.7919754
Greenville,8,2019-07-22,34.851354,-82.3984882
Greenville,9,2019-07-22,34.851354,-82.3984882
Harlingen,16,2019-07-22,26.1908241,-97.6959794
Harrisburg,10,2019-07-22,40.2663107,-76.8861122
Hartford,6,2019-07-22,41.764582,-72.6908547
Helena MT,84,2019-07-22,46.5927425,-112.0362771
Honolulu HI,13,2019-07-22,21.304547,-157.8556764
Houston TX,9,2019-07-22,29.7589382,-95.3676974
Huntsville,14,2019-07-22,34.729847,-86.5859011
Idaho Falls,17,2019-07-22,43.4935245,-112.0400919
Indianapolis IN,9,2019-07-22,39.7683331,-86.1583502
Jackson MS,12,2019-07-22,28.530801699999998,-81.30324431076107
Jacksonville FL,7,2019-07-22,30.3321838,-81.655651
Johnstown,14,2019-07-22,40.3267407,-78.9219698
Jonesboro AR,39,2019-07-22,35.8428646,-90.7034522
Joplin MO,22,2019-07-22,37.08418,-94.51323
Juneau AK,78,2019-07-22,58.3019496,-134.419734
Kansas City MO,7,2019-07-22,39.100105,-94.5781416
Knoxville TN,9,2019-07-22,35.9603948,-83.9210261
La Crosse,13,2019-07-22,43.8014053,-91.2395429
Lafayette LA,13,2019-07-22,30.2240897,-92.0198427
Lake Charles LA,27,2019-07-22,30.2265949,-93.2173759
Lansing MI,15,2019-07-22,42.7338147,-84.5207088
Las Vegas NV,6,2019-07-22,36.1672559,-115.1485163
Lexington KY,8,2019-07-22,38.0464066,-84.4970393
Lincoln,10,2019-07-22,47.8299069,-118.414727
Little Rock,11,2019-07-22,34.7464809,-92.2895948
Los Angeles CA,9,2019-07-22,34.0536909,-118.2427666
Louisville KY,12,2019-07-22,38.2542376,-85.759407
Lubbock TX,32,2019-07-22,33.5635206,-101.879336
Macon GA,12,2019-07-22,32.8406946,-83.6324022
Madison WI,9,2019-07-22,43.074761,-89.3837613
Mankato MN,50,2019-07-22,44.1634663,-93.9993505
Marquette MI,36,2019-07-22,46.4481521,-87.6305899
Medford,14,2019-07-22,42.4184296,-71.1061639
Memphis TN,6,2019-07-22,35.1490215,-90.0516285
Miami,4,2019-07-22,25.7742658,-80.1936589
Milwaukee WI,12,2019-07-22,43.0349931,-87.922497
Minneapolis,6,2019-07-22,44.9772995,-93.2654692
Minot,26,2019-07-22,47.6698594,4.8786165
Missoula MT,31,2019-07-22,46.8701049,-113.9952672
Mobile AL,7,2019-07-22,39.092585,-84.853229
Monterey,9,2019-07-22,36.2231079,-121.3877428
Nashville TN,11,2019-07-22,36.1622296,-86.7743531
New Orleans LA,9,2019-07-22,29.9499323,-90.0701156
New York NY,4,2019-07-22,40.7127281,-74.0060152
Norfolk,4,2019-07-22,52.666667,1.0
Odessa,14,2019-07-22,46.4873195,30.7392776
Oklahoma City OK,6,2019-07-22,35.4729886,-97.5170536
Omaha NE,6,2019-07-22,41.2587459,-95.9383758
Orlando,9,2019-07-22,28.5421109,-81.3790304
Paducah KY,19,2019-07-22,37.0833893,-88.6000478
Palm Springs CA,17,2019-07-22,33.8246269,-116.540303
Panama City FL,15,2019-07-22,30.1600827,-85.6545729
Parkersburg WV,54,2019-07-22,39.2699565,-81.5506916
Philadelphia PA,9,2019-07-22,39.9527237,-75.1635262
Phoenix AZ,11,2019-07-22,33.4484367,-112.0741417
Pittsburgh PA,5,2019-07-22,40.4416941,-79.9900861
Portland OR,5,2019-07-22,45.5202471,-122.6741949
Portland,8,2019-07-22,45.5202471,-122.6741949
Providence RI,12,2019-07-22,51.4325409,-2.6642358
Raleigh,3,2019-07-22,35.7803977,-78.6390989
Rapid City SD,26,2019-07-22,44.081176,-103.228006
Reno NV,8,2019-07-22,39.5261206,-119.8126581
Richmond,8,2019-07-22,37.5385087,-77.43428
Roanoke,13,2019-07-22,37.270973,-79.9414313
Rochester MN,17,2019-07-22,44.0234387,-92.4630182
Rochester NY,11,2019-07-22,43.157285,-77.615214
Rockford IL,15,2019-07-22,42.2713945,-89.093966
Sacramento,8,2019-07-22,38.5815719,-121.4943996
Salisbury MD,11,2019-07-22,38.3662114,-75.6008881
Salt Lake City UT,12,2019-07-22,40.7596198,-111.8867975
San Antonio TX,8,2019-07-22,29.4246002,-98.4951405
San Diego CA,13,2019-07-22,32.7174209,-117.1627714
San Francisco,6,2019-07-22,37.7790262,-122.4199061
Santa Barbara,14,2019-07-22,34.4221319,-119.7026673
Savannah GA,13,2019-07-22,43.4129206,-79.7028276
Seattle,7,2019-07-22,47.6038321,-122.3300624
Sherman TX,25,2019-07-22,36.2452294,-101.8858689
Sioux Fall,22,2019-07-22,46.737158,-90.8801835
South Bend,16,2019-07-22,41.6833813,-86.2500066
Spokane WA,12,2019-07-22,47.6579425,-117.4212265
Springfield MO,11,2019-07-22,37.2166779,-93.2920373
Springfield,9,2019-07-22,39.7990175,-89.6439575
St. Louis MO,7,2019-07-22,38.6529545,-90.24111656024635
Syracuse NY,11,2019-07-22,43.0481221,-76.1474244
Tallahassee FL,19,2019-07-22,30.4380832,-84.2809332
Tampa,10,2019-07-22,27.9477595,-82.458444
Toledo OH,6,2019-07-22,41.6786754,-83.5127283
Topeka KS,16,2019-07-22,39.049011,-95.677556
Traverse City,10,2019-07-22,44.7606441,-85.6165301
Tri,10,2019-07-22,35.875259,-78.7751271
Tucson,18,2019-07-22,32.2228765,-110.9748477
Tulsa OK,10,2019-07-22,36.1556805,-95.9929113
Twin Falls ID,39,2019-07-22,42.5704219,-114.4603171
Tyler,11,2019-07-22,32.3512601,-95.3010624
Waco,13,2019-07-22,31.549333,-97.1466695
Washington DC,8,2019-07-22,38.8948932,-77.0365529
Watertown NY,29,2019-07-22,43.9747838,-75.9107565
Wausau,15,2019-07-22,44.9596017,-89.6298239
West Palm Beach,8,2019-07-22,26.7153425,-80.0533746
Wheeling WV,26,2019-07-22,40.0639616,-80.7209149
Wichita Falls TX,38,2019-07-22,33.9137085,-98.4933873
Wichita,15,2019-07-22,37.6922361,-97.3375448
Wilkes Barre,7,2019-07-22,41.2464824,-75.8817316
Wilmington NC,17,2019-07-22,34.2257282,-77.9447107
Yakima,10,2019-07-22,46.601557,-120.5108421
Youngstown OH,17,2019-07-22,41.1035786,-80.6520161
Yuma AZ,23,2019-07-22,32.6926588,-114.6276157
Abilene,38,2019-07-29,32.44645,-99.7475905
Albany GA,21,2019-07-29,51.7468576,-0.3383107
Albany,9,2019-07-29,42.6511674,-73.754968
Albuquerque,7,2019-07-29,35.0841034,-106.6509851
Amarillo TX,29,2019-07-29,35.2072185,-101.8338246
Anchorage AK,25,2019-07-29,61.2163129,-149.8948523
Atlanta GA,4,2019-07-29,33.7490987,-84.3901849
Augusta GA,19,2019-07-29,33.4709714,-81.9748429
Austin TX,11,2019-07-29,30.2711286,-97.7436995
Bakersfield CA,18,2019-07-29,35.3738712,-119.0194639
Baltimore MD,5,2019-07-29,39.2908816,-76.610759
Baton Rouge LA,8,2019-07-29,30.4459596,-91.18738
Beaumont,17,2019-07-29,30.0860459,-94.1018461
"Billings, MT",25,2019-07-29,45.7874957,-108.49607
Binghamton NY,21,2019-07-29,42.096968,-75.914341
Birmingham AL,3,2019-07-29,33.570499,-86.765783
Boise ID,16,2019-07-29,43.6166163,-116.200886
Boston MA,7,2019-07-29,42.3602534,-71.0582912
Bowling Green KY,32,2019-07-29,36.9903199,-86.4436018
Buffalo NY,5,2019-07-29,42.8867166,-78.8783922
Burlington VT,12,2019-07-29,44.4762975,-73.2135472
Cedar Rapids,15,2019-07-29,41.9758872,-91.6704053
Champaign,15,2019-07-29,40.1164205,-88.2433829
Charleston SC,6,2019-07-29,32.7876012,-79.9402728
Charleston,8,2019-07-29,32.7876012,-79.9402728
Charlotte NC,9,2019-07-29,35.2270869,-80.8431268
Charlottesville VA,25,2019-07-29,38.029306,-78.4766781
Chattanooga TN,10,2019-07-29,35.0457219,-85.3094883
Chicago IL,7,2019-07-29,41.8755616,-87.6244212
Chico,14,2019-07-29,39.7284945,-121.8374777
Cincinnati OH,10,2019-07-29,39.1014537,-84.5124602
Clarksburg,33,2019-07-29,39.2806451,-80.3445341
Cleveland,8,2019-07-29,41.5051613,-81.6934446
Colorado Springs,17,2019-07-29,38.8339578,-104.8253485
Columbia SC,12,2019-07-29,34.0007493,-81.0343313
Columbus GA,12,2019-07-29,43.1830762,-79.8147518
Columbus OH,9,2019-07-29,39.9622601,-83.0007065
Corpus Christi TX,11,2019-07-29,27.7477253,-97.4014129
Dallas,10,2019-07-29,32.7762719,-96.7968559
Davenport IA,9,2019-07-29,41.5236436,-90.5776368
Dayton OH,13,2019-07-29,39.7589478,-84.1916069
Denver CO,6,2019-07-29,39.7348381,-104.9653271
Des Moines,8,2019-07-29,41.5910641,-93.6037149
Detroit MI,8,2019-07-29,42.3315509,-83.0466403
Dothan AL,59,2019-07-29,31.2237434,-85.3933906
Duluth MN,16,2019-07-29,46.7729322,-92.1251218
El Paso TX,13,2019-07-29,31.7754152,-106.4646348
Erie PA,17,2019-07-29,42.1294712,-80.0852695
Eugene OR,13,2019-07-29,44.0505054,-123.0950506
Eureka CA,41,2019-07-29,45.4985271,-62.6816736
Evansville IN,11,2019-07-29,4.5777639,-7.6472486
Fairbanks AK,100,2019-07-29,64.837845,-147.716675
Fargo,16,2019-07-29,46.877229,-96.789821
Flint,13,2019-07-29,43.0161693,-83.6900211
Florence,7,2019-07-29,43.7698712,11.2555757
Fresno,11,2019-07-29,36.7295295,-119.70886126075588
Ft. Myers,8,2019-07-29,26.640628,-81.8723084
Ft. Wayne IN,15,2019-07-29,41.0799898,-85.1386015
Gainesville FL,31,2019-07-29,29.67357765,-82.32337460192167
Grand Rapids,9,2019-07-29,42.9632405,-85.6678639
Great Falls MT,49,2019-07-29,47.5048851,-111.2918908
Green Bay,9,2019-07-29,44.5126379,-88.0125794
Greensboro,6,2019-07-29,36.0726355,-79.7919754
Greenville,7,2019-07-29,34.851354,-82.3984882
Greenville,5,2019-07-29,34.851354,-82.3984882
Harlingen,7,2019-07-29,26.1908241,-97.6959794
Harrisburg,6,2019-07-29,40.2663107,-76.8861122
Hartford,6,2019-07-29,41.764582,-72.6908547
Honolulu HI,8,2019-07-29,21.304547,-157.8556764
Houston TX,6,2019-07-29,29.7589382,-95.3676974
Huntsville,10,2019-07-29,34.729847,-86.5859011
Idaho Falls,34,2019-07-29,43.4935245,-112.0400919
Indianapolis IN,9,2019-07-29,39.7683331,-86.1583502
Jackson MS,15,2019-07-29,28.530801699999998,-81.30324431076107
Jackson TN,33,2019-07-29,35.6144446,-88.8177418
Jacksonville FL,7,2019-07-29,30.3321838,-81.655651
Johnstown,9,2019-07-29,40.3267407,-78.9219698
Kansas City MO,7,2019-07-29,39.100105,-94.5781416
Knoxville TN,4,2019-07-29,35.9603948,-83.9210261
La Crosse,13,2019-07-29,43.8014053,-91.2395429
Lafayette LA,13,2019-07-29,30.2240897,-92.0198427
Lake Charles LA,27,2019-07-29,30.2265949,-93.2173759
Lansing MI,10,2019-07-29,42.7338147,-84.5207088
Laredo TX,27,2019-07-29,27.5199841,-99.4953764
Las Vegas NV,10,2019-07-29,36.1672559,-115.1485163
Lexington KY,5,2019-07-29,38.0464066,-84.4970393
Lincoln,9,2019-07-29,47.8299069,-118.414727
Little Rock,12,2019-07-29,34.7464809,-92.2895948
Los Angeles CA,9,2019-07-29,34.0536909,-118.2427666
Louisville KY,4,2019-07-29,38.2542376,-85.759407
Lubbock TX,21,2019-07-29,33.5635206,-101.879336
Macon GA,11,2019-07-29,32.8406946,-83.6324022
Madison WI,5,2019-07-29,43.074761,-89.3837613
Marquette MI,35,2019-07-29,46.4481521,-87.6305899
Medford,41,2019-07-29,42.4184296,-71.1061639
Memphis TN,6,2019-07-29,35.1490215,-90.0516285
Miami,6,2019-07-29,25.7742658,-80.1936589
Milwaukee WI,5,2019-07-29,43.0349931,-87.922497
Minneapolis,8,2019-07-29,44.9772995,-93.2654692
Minot,17,2019-07-29,47.6698594,4.8786165
Missoula MT,20,2019-07-29,46.8701049,-113.9952672
Mobile AL,4,2019-07-29,39.092585,-84.853229
Monroe LA,22,2019-07-29,38.2722313,-90.1792484
Montgomery,18,2019-07-29,32.3669656,-86.3006485
Nashville TN,7,2019-07-29,36.1622296,-86.7743531
New Orleans LA,6,2019-07-29,29.9499323,-90.0701156
New York NY,5,2019-07-29,40.7127281,-74.0060152
Norfolk,11,2019-07-29,52.666667,1.0
Odessa,13,2019-07-29,46.4873195,30.7392776
Oklahoma City OK,12,2019-07-29,35.4729886,-97.5170536
Omaha NE,7,2019-07-29,41.2587459,-95.9383758
Orlando,6,2019-07-29,28.5421109,-81.3790304
Ottumwa IA,73,2019-07-29,41.0200145,-92.4112963
Palm Springs CA,16,2019-07-29,33.8246269,-116.540303
Philadelphia PA,5,2019-07-29,39.9527237,-75.1635262
Phoenix AZ,10,2019-07-29,33.4484367,-112.0741417
Pittsburgh PA,4,2019-07-29,40.4416941,-79.9900861
Portland OR,7,2019-07-29,45.5202471,-122.6741949
Portland,10,2019-07-29,45.5202471,-122.6741949
Providence RI,4,2019-07-29,51.4325409,-2.6642358
Raleigh,8,2019-07-29,35.7803977,-78.6390989
Rapid City SD,25,2019-07-29,44.081176,-103.228006
Reno NV,15,2019-07-29,39.5261206,-119.8126581
Richmond,6,2019-07-29,37.5385087,-77.43428
Rochester MN,16,2019-07-29,44.0234387,-92.4630182
Rochester NY,20,2019-07-29,43.157285,-77.615214
Rockford IL,28,2019-07-29,42.2713945,-89.093966
Sacramento,7,2019-07-29,38.5815719,-121.4943996
Salisbury MD,27,2019-07-29,38.3662114,-75.6008881
Salt Lake City UT,8,2019-07-29,40.7596198,-111.8867975
San Antonio TX,7,2019-07-29,29.4246002,-98.4951405
San Diego CA,9,2019-07-29,32.7174209,-117.1627714
San Francisco,8,2019-07-29,37.7790262,-122.4199061
Savannah GA,6,2019-07-29,43.4129206,-79.7028276
Seattle,8,2019-07-29,47.6038321,-122.3300624
Sherman TX,24,2019-07-29,36.2452294,-101.8858689
Shreveport LA,17,2019-07-29,32.5221828,-93.7651944
South Bend,15,2019-07-29,41.6833813,-86.2500066
Spokane WA,6,2019-07-29,47.6579425,-117.4212265
Springfield MO,13,2019-07-29,37.2166779,-93.2920373
Springfield,13,2019-07-29,39.7990175,-89.6439575
St. Louis MO,9,2019-07-29,38.6529545,-90.24111656024635
Syracuse NY,13,2019-07-29,43.0481221,-76.1474244
Tallahassee FL,13,2019-07-29,30.4380832,-84.2809332
Tampa,8,2019-07-29,27.9477595,-82.458444
Toledo OH,24,2019-07-29,41.6786754,-83.5127283
Traverse City,15,2019-07-29,44.7606441,-85.6165301
Tri,10,2019-07-29,35.875259,-78.7751271
Tucson,11,2019-07-29,32.2228765,-110.9748477
Tulsa OK,8,2019-07-29,36.1556805,-95.9929113
Twin Falls ID,38,2019-07-29,42.5704219,-114.4603171
Tyler,10,2019-07-29,32.3512601,-95.3010624
Utica NY,53,2019-07-29,43.1009031,-75.2326641
Waco,6,2019-07-29,31.549333,-97.1466695
Washington DC,7,2019-07-29,38.8948932,-77.0365529
Wausau,14,2019-07-29,44.9596017,-89.6298239
West Palm Beach,7,2019-07-29,26.7153425,-80.0533746
Wichita Falls TX,18,2019-07-29,33.9137085,-98.4933873
Wichita,10,2019-07-29,37.6922361,-97.3375448
Wilkes Barre,9,2019-07-29,41.2464824,-75.8817316
Wilmington NC,11,2019-07-29,34.2257282,-77.9447107
Yakima,10,2019-07-29,46.601557,-120.5108421
Youngstown OH,22,2019-07-29,41.1035786,-80.6520161
Yuma AZ,22,2019-07-29,32.6926588,-114.6276157
Albany,11,2019-08-05,42.6511674,-73.754968
Albuquerque,11,2019-08-05,35.0841034,-106.6509851
Amarillo TX,18,2019-08-05,35.2072185,-101.8338246
Anchorage AK,15,2019-08-05,61.2163129,-149.8948523
Atlanta GA,3,2019-08-05,33.7490987,-84.3901849
Austin TX,4,2019-08-05,30.2711286,-97.7436995
Bakersfield CA,11,2019-08-05,35.3738712,-119.0194639
Baltimore MD,7,2019-08-05,39.2908816,-76.610759
Bangor ME,21,2019-08-05,29.0659229,-110.97133
Binghamton NY,26,2019-08-05,42.096968,-75.914341
Birmingham AL,4,2019-08-05,33.570499,-86.765783
Boise ID,8,2019-08-05,43.6166163,-116.200886
Boston MA,4,2019-08-05,42.3602534,-71.0582912
Buffalo NY,9,2019-08-05,42.8867166,-78.8783922
Burlington VT,9,2019-08-05,44.4762975,-73.2135472
Cedar Rapids,9,2019-08-05,41.9758872,-91.6704053
Champaign,9,2019-08-05,40.1164205,-88.2433829
Charleston SC,7,2019-08-05,32.7876012,-79.9402728
Charlotte NC,3,2019-08-05,35.2270869,-80.8431268
Chattanooga TN,8,2019-08-05,35.0457219,-85.3094883
Cheyenne WY,55,2019-08-05,45.2519491,-75.7306849
Chicago IL,5,2019-08-05,41.8755616,-87.6244212
Cincinnati OH,5,2019-08-05,39.1014537,-84.5124602
Cleveland,4,2019-08-05,41.5051613,-81.6934446
Colorado Springs,9,2019-08-05,38.8339578,-104.8253485
Columbia SC,7,2019-08-05,34.0007493,-81.0343313
Columbus OH,4,2019-08-05,39.9622601,-83.0007065
Corpus Christi TX,14,2019-08-05,27.7477253,-97.4014129
Dallas,4,2019-08-05,32.7762719,-96.7968559
Dayton OH,7,2019-08-05,39.7589478,-84.1916069
Denver CO,8,2019-08-05,39.7348381,-104.9653271
Des Moines,6,2019-08-05,41.5910641,-93.6037149
Detroit MI,5,2019-08-05,42.3315509,-83.0466403
Duluth MN,19,2019-08-05,46.7729322,-92.1251218
El Paso TX,11,2019-08-05,31.7754152,-106.4646348
Elmira NY,38,2019-08-05,42.0897965,-76.8077338
Erie PA,21,2019-08-05,42.1294712,-80.0852695
Eugene OR,36,2019-08-05,44.0505054,-123.0950506
Evansville IN,13,2019-08-05,4.5777639,-7.6472486
Flint,23,2019-08-05,43.0161693,-83.6900211
Florence,9,2019-08-05,43.7698712,11.2555757
Fresno,7,2019-08-05,36.7295295,-119.70886126075588
Ft. Myers,6,2019-08-05,26.640628,-81.8723084
Ft. Smith,9,2019-08-05,35.3872218,-94.4248983
Ft. Wayne IN,18,2019-08-05,41.0799898,-85.1386015
Grand Rapids,3,2019-08-05,42.9632405,-85.6678639
Great Falls MT,59,2019-08-05,47.5048851,-111.2918908
Green Bay,14,2019-08-05,44.5126379,-88.0125794
Greensboro,9,2019-08-05,36.0726355,-79.7919754
Greenville,13,2019-08-05,34.851354,-82.3984882
Greenville,8,2019-08-05,34.851354,-82.3984882
Harlingen,6,2019-08-05,26.1908241,-97.6959794
Harrisburg,8,2019-08-05,40.2663107,-76.8861122
Hartford,3,2019-08-05,41.764582,-72.6908547
Honolulu HI,10,2019-08-05,21.304547,-157.8556764
Houston TX,4,2019-08-05,29.7589382,-95.3676974
Huntsville,8,2019-08-05,34.729847,-86.5859011
Indianapolis IN,9,2019-08-05,39.7683331,-86.1583502
Jackson MS,9,2019-08-05,28.530801699999998,-81.30324431076107
Jacksonville FL,5,2019-08-05,30.3321838,-81.655651
Johnstown,12,2019-08-05,40.3267407,-78.9219698
Joplin MO,25,2019-08-05,37.08418,-94.51323
Kansas City MO,7,2019-08-05,39.100105,-94.5781416
Knoxville TN,5,2019-08-05,35.9603948,-83.9210261
La Crosse,23,2019-08-05,43.8014053,-91.2395429
Las Vegas NV,5,2019-08-05,36.1672559,-115.1485163
Lexington KY,10,2019-08-05,38.0464066,-84.4970393
Lincoln,15,2019-08-05,47.8299069,-118.414727
Little Rock,17,2019-08-05,34.7464809,-92.2895948
Los Angeles CA,5,2019-08-05,34.0536909,-118.2427666
Louisville KY,5,2019-08-05,38.2542376,-85.759407
Madison WI,7,2019-08-05,43.074761,-89.3837613
Medford,17,2019-08-05,42.4184296,-71.1061639
Memphis TN,7,2019-08-05,35.1490215,-90.0516285
Miami,4,2019-08-05,25.7742658,-80.1936589
Milwaukee WI,7,2019-08-05,43.0349931,-87.922497
Minneapolis,6,2019-08-05,44.9772995,-93.2654692
Minot,40,2019-08-05,47.6698594,4.8786165
Mobile AL,5,2019-08-05,39.092585,-84.853229
Monroe LA,26,2019-08-05,38.2722313,-90.1792484
Monterey,10,2019-08-05,36.2231079,-121.3877428
Nashville TN,4,2019-08-05,36.1622296,-86.7743531
New Orleans LA,6,2019-08-05,29.9499323,-90.0701156
New York NY,4,2019-08-05,40.7127281,-74.0060152
Odessa,16,2019-08-05,46.4873195,30.7392776
Oklahoma City OK,8,2019-08-05,35.4729886,-97.5170536
Omaha NE,10,2019-08-05,41.2587459,-95.9383758
Orlando,4,2019-08-05,28.5421109,-81.3790304
Ottumwa IA,87,2019-08-05,41.0200145,-92.4112963
Palm Springs CA,19,2019-08-05,33.8246269,-116.540303
Philadelphia PA,5,2019-08-05,39.9527237,-75.1635262
Phoenix AZ,5,2019-08-05,33.4484367,-112.0741417
Pittsburgh PA,6,2019-08-05,40.4416941,-79.9900861
Portland OR,5,2019-08-05,45.5202471,-122.6741949
Providence RI,8,2019-08-05,51.4325409,-2.6642358
Raleigh,2,2019-08-05,35.7803977,-78.6390989
Rapid City SD,29,2019-08-05,44.081176,-103.228006
Reno NV,9,2019-08-05,39.5261206,-119.8126581
Richmond,7,2019-08-05,37.5385087,-77.43428
Roanoke,7,2019-08-05,37.270973,-79.9414313
Rochester MN,20,2019-08-05,44.0234387,-92.4630182
Rochester NY,7,2019-08-05,43.157285,-77.615214
Sacramento,5,2019-08-05,38.5815719,-121.4943996
Salisbury MD,13,2019-08-05,38.3662114,-75.6008881
Salt Lake City UT,11,2019-08-05,40.7596198,-111.8867975
San Antonio TX,8,2019-08-05,29.4246002,-98.4951405
San Diego CA,5,2019-08-05,32.7174209,-117.1627714
San Francisco,4,2019-08-05,37.7790262,-122.4199061
Santa Barbara,15,2019-08-05,34.4221319,-119.7026673
Savannah GA,8,2019-08-05,43.4129206,-79.7028276
Seattle,7,2019-08-05,47.6038321,-122.3300624
Shreveport LA,10,2019-08-05,32.5221828,-93.7651944
Sioux City IA,47,2019-08-05,42.4966815,-96.4058782
Sioux Fall,13,2019-08-05,46.737158,-90.8801835
South Bend,9,2019-08-05,41.6833813,-86.2500066
Spokane WA,13,2019-08-05,47.6579425,-117.4212265
Springfield MO,8,2019-08-05,37.2166779,-93.2920373
St. Louis MO,2,2019-08-05,38.6529545,-90.24111656024635
Syracuse NY,8,2019-08-05,43.0481221,-76.1474244
Tallahassee FL,11,2019-08-05,30.4380832,-84.2809332
Tampa,7,2019-08-05,27.9477595,-82.458444
Terre Haute IN,29,2019-08-05,39.4667025,-87.4139119
Toledo OH,7,2019-08-05,41.6786754,-83.5127283
Topeka KS,19,2019-08-05,39.049011,-95.677556
Traverse City,12,2019-08-05,44.7606441,-85.6165301
Tri,12,2019-08-05,35.875259,-78.7751271
Tucson,6,2019-08-05,32.2228765,-110.9748477
Tulsa OK,8,2019-08-05,36.1556805,-95.9929113
Victoria TX,100,2019-08-05,28.8026443,-96.9766308
Waco,11,2019-08-05,31.549333,-97.1466695
Washington DC,7,2019-08-05,38.8948932,-77.0365529
Watertown NY,35,2019-08-05,43.9747838,-75.9107565
West Palm Beach,3,2019-08-05,26.7153425,-80.0533746
Wichita,7,2019-08-05,37.6922361,-97.3375448
Wilkes Barre,6,2019-08-05,41.2464824,-75.8817316
Wilmington NC,13,2019-08-05,34.2257282,-77.9447107
Yakima,12,2019-08-05,46.601557,-120.5108421
Yuma AZ,52,2019-08-05,32.6926588,-114.6276157
Abilene,41,2019-08-12,32.44645,-99.7475905
Albany GA,32,2019-08-12,51.7468576,-0.3383107
Albany,8,2019-08-12,42.6511674,-73.754968
Albuquerque,8,2019-08-12,35.0841034,-106.6509851
Anchorage AK,20,2019-08-12,61.2163129,-149.8948523
Atlanta GA,7,2019-08-12,33.7490987,-84.3901849
Augusta GA,15,2019-08-12,33.4709714,-81.9748429
Austin TX,7,2019-08-12,30.2711286,-97.7436995
Bakersfield CA,15,2019-08-12,35.3738712,-119.0194639
Baltimore MD,6,2019-08-12,39.2908816,-76.610759
Bangor ME,27,2019-08-12,29.0659229,-110.97133
Baton Rouge LA,29,2019-08-12,30.4459596,-91.18738
Beaumont,27,2019-08-12,30.0860459,-94.1018461
Bend OR,44,2019-08-12,44.0581728,-121.3153096
Biloxi,29,2019-08-12,30.374673,-88.84594333482862
Binghamton NY,34,2019-08-12,42.096968,-75.914341
Birmingham AL,10,2019-08-12,33.570499,-86.765783
Boston MA,5,2019-08-12,42.3602534,-71.0582912
Buffalo NY,5,2019-08-12,42.8867166,-78.8783922
Casper,84,2019-08-12,42.866632,-106.313081
Cedar Rapids,12,2019-08-12,41.9758872,-91.6704053
Champaign,24,2019-08-12,40.1164205,-88.2433829
Charleston SC,9,2019-08-12,32.7876012,-79.9402728
Charleston,25,2019-08-12,32.7876012,-79.9402728
Charlotte NC,9,2019-08-12,35.2270869,-80.8431268
Charlottesville VA,41,2019-08-12,38.029306,-78.4766781
Chicago IL,6,2019-08-12,41.8755616,-87.6244212
Cincinnati OH,9,2019-08-12,39.1014537,-84.5124602
Cleveland,7,2019-08-12,41.5051613,-81.6934446
Colorado Springs,15,2019-08-12,38.8339578,-104.8253485
Columbia SC,14,2019-08-12,34.0007493,-81.0343313
Columbia,23,2019-08-12,2.8894434,-73.783892
Columbus GA,18,2019-08-12,43.1830762,-79.8147518
Columbus OH,8,2019-08-12,39.9622601,-83.0007065
Dallas,6,2019-08-12,32.7762719,-96.7968559
Davenport IA,60,2019-08-12,41.5236436,-90.5776368
Denver CO,8,2019-08-12,39.7348381,-104.9653271
Des Moines,12,2019-08-12,41.5910641,-93.6037149
Detroit MI,6,2019-08-12,42.3315509,-83.0466403
El Paso TX,9,2019-08-12,31.7754152,-106.4646348
Elmira NY,48,2019-08-12,42.0897965,-76.8077338
Evansville IN,16,2019-08-12,4.5777639,-7.6472486
Fargo,17,2019-08-12,46.877229,-96.789821
Flint,10,2019-08-12,43.0161693,-83.6900211
Florence,12,2019-08-12,43.7698712,11.2555757
Fresno,10,2019-08-12,36.7295295,-119.70886126075588
Ft. Smith,31,2019-08-12,35.3872218,-94.4248983
Ft. Wayne IN,31,2019-08-12,41.0799898,-85.1386015
Gainesville FL,24,2019-08-12,29.67357765,-82.32337460192167
Grand Rapids,8,2019-08-12,42.9632405,-85.6678639
Great Falls MT,80,2019-08-12,47.5048851,-111.2918908
Green Bay,14,2019-08-12,44.5126379,-88.0125794
Greensboro,17,2019-08-12,36.0726355,-79.7919754
Greenville,12,2019-08-12,34.851354,-82.3984882
Greenville,9,2019-08-12,34.851354,-82.3984882
Harlingen,14,2019-08-12,26.1908241,-97.6959794
Harrisburg,10,2019-08-12,40.2663107,-76.8861122
Hartford,5,2019-08-12,41.764582,-72.6908547
Hattiesburg,49,2019-08-12,31.3271189,-89.2903392
Houston TX,7,2019-08-12,29.7589382,-95.3676974
Idaho Falls,28,2019-08-12,43.4935245,-112.0400919
Indianapolis IN,14,2019-08-12,39.7683331,-86.1583502
Jackson MS,12,2019-08-12,28.530801699999998,-81.30324431076107
Jacksonville FL,8,2019-08-12,30.3321838,-81.655651
Johnstown,15,2019-08-12,40.3267407,-78.9219698
Joplin MO,33,2019-08-12,37.08418,-94.51323
Kansas City MO,9,2019-08-12,39.100105,-94.5781416
Knoxville TN,11,2019-08-12,35.9603948,-83.9210261
La Crosse,61,2019-08-12,43.8014053,-91.2395429
Lafayette LA,42,2019-08-12,30.2240897,-92.0198427
Lansing MI,16,2019-08-12,42.7338147,-84.5207088
Laredo TX,85,2019-08-12,27.5199841,-99.4953764
Las Vegas NV,21,2019-08-12,36.1672559,-115.1485163
Lexington KY,9,2019-08-12,38.0464066,-84.4970393
Lima OH,79,2019-08-12,40.7399785,-84.105006
Little Rock,15,2019-08-12,34.7464809,-92.2895948
Los Angeles CA,9,2019-08-12,34.0536909,-118.2427666
Louisville KY,13,2019-08-12,38.2542376,-85.759407
Lubbock TX,25,2019-08-12,33.5635206,-101.879336
Madison WI,9,2019-08-12,43.074761,-89.3837613
Medford,23,2019-08-12,42.4184296,-71.1061639
Memphis TN,6,2019-08-12,35.1490215,-90.0516285
Meridian MS,100,2019-08-12,43.61732135,-116.40613112241579
Miami,5,2019-08-12,25.7742658,-80.1936589
Milwaukee WI,11,2019-08-12,43.0349931,-87.922497
Minneapolis,7,2019-08-12,44.9772995,-93.2654692
Minot,26,2019-08-12,47.6698594,4.8786165
Mobile AL,9,2019-08-12,39.092585,-84.853229
Monterey,13,2019-08-12,36.2231079,-121.3877428
Montgomery,19,2019-08-12,32.3669656,-86.3006485
Nashville TN,6,2019-08-12,36.1622296,-86.7743531
New Orleans LA,10,2019-08-12,29.9499323,-90.0701156
New York NY,4,2019-08-12,40.7127281,-74.0060152
Norfolk,9,2019-08-12,52.666667,1.0
Oklahoma City OK,7,2019-08-12,35.4729886,-97.5170536
Omaha NE,11,2019-08-12,41.2587459,-95.9383758
Orlando,7,2019-08-12,28.5421109,-81.3790304
Palm Springs CA,26,2019-08-12,33.8246269,-116.540303
Panama City FL,27,2019-08-12,30.1600827,-85.6545729
Parkersburg WV,85,2019-08-12,39.2699565,-81.5506916
Peoria,15,2019-08-12,40.6938609,-89.5891008
Philadelphia PA,7,2019-08-12,39.9527237,-75.1635262
Phoenix AZ,11,2019-08-12,33.4484367,-112.0741417
Pittsburgh PA,9,2019-08-12,40.4416941,-79.9900861
Portland OR,13,2019-08-12,45.5202471,-122.6741949
Portland,24,2019-08-12,45.5202471,-122.6741949
Providence RI,8,2019-08-12,51.4325409,-2.6642358
Raleigh,8,2019-08-12,35.7803977,-78.6390989
Reno NV,13,2019-08-12,39.5261206,-119.8126581
Richmond,12,2019-08-12,37.5385087,-77.43428
Roanoke,9,2019-08-12,37.270973,-79.9414313
Rochester MN,26,2019-08-12,44.0234387,-92.4630182
Rochester NY,21,2019-08-12,43.157285,-77.615214
Sacramento,9,2019-08-12,38.5815719,-121.4943996
Salisbury MD,18,2019-08-12,38.3662114,-75.6008881
Salt Lake City UT,11,2019-08-12,40.7596198,-111.8867975
San Angelo TX,61,2019-08-12,31.4648357,-100.4398442
San Antonio TX,8,2019-08-12,29.4246002,-98.4951405
San Diego CA,9,2019-08-12,32.7174209,-117.1627714
San Francisco,8,2019-08-12,37.7790262,-122.4199061
Savannah GA,15,2019-08-12,43.4129206,-79.7028276
Seattle,6,2019-08-12,47.6038321,-122.3300624
Sherman TX,39,2019-08-12,36.2452294,-101.8858689
Sioux City IA,63,2019-08-12,42.4966815,-96.4058782
Sioux Fall,33,2019-08-12,46.737158,-90.8801835
South Bend,19,2019-08-12,41.6833813,-86.2500066
Spokane WA,9,2019-08-12,47.6579425,-117.4212265
Springfield MO,17,2019-08-12,37.2166779,-93.2920373
Springfield,28,2019-08-12,39.7990175,-89.6439575
St. Louis MO,5,2019-08-12,38.6529545,-90.24111656024635
Syracuse NY,10,2019-08-12,43.0481221,-76.1474244
Tallahassee FL,15,2019-08-12,30.4380832,-84.2809332
Tampa,10,2019-08-12,27.9477595,-82.458444
Terre Haute IN,37,2019-08-12,39.4667025,-87.4139119
Toledo OH,10,2019-08-12,41.6786754,-83.5127283
Topeka KS,24,2019-08-12,39.049011,-95.677556
Traverse City,17,2019-08-12,44.7606441,-85.6165301
Tri,30,2019-08-12,35.875259,-78.7751271
Tucson,14,2019-08-12,32.2228765,-110.9748477
Tulsa OK,7,2019-08-12,36.1556805,-95.9929113
Tyler,34,2019-08-12,32.3512601,-95.3010624
Waco,20,2019-08-12,31.549333,-97.1466695
Washington DC,7,2019-08-12,38.8948932,-77.0365529
Wausau,23,2019-08-12,44.9596017,-89.6298239
West Palm Beach,9,2019-08-12,26.7153425,-80.0533746
Wichita Falls TX,30,2019-08-12,33.9137085,-98.4933873
Wichita,23,2019-08-12,37.6922361,-97.3375448
Wilkes Barre,7,2019-08-12,41.2464824,-75.8817316
Wilmington NC,34,2019-08-12,34.2257282,-77.9447107
Yakima,16,2019-08-12,46.601557,-120.5108421
Youngstown OH,18,2019-08-12,41.1035786,-80.6520161
Abilene,35,2019-08-19,32.44645,-99.7475905
Albany GA,28,2019-08-19,51.7468576,-0.3383107
Albany,10,2019-08-19,42.6511674,-73.754968
Albuquerque,13,2019-08-19,35.0841034,-106.6509851
Amarillo TX,20,2019-08-19,35.2072185,-101.8338246
Anchorage AK,17,2019-08-19,61.2163129,-149.8948523
Atlanta GA,7,2019-08-19,33.7490987,-84.3901849
Augusta GA,13,2019-08-19,33.4709714,-81.9748429
Austin TX,10,2019-08-19,30.2711286,-97.7436995
Bakersfield CA,17,2019-08-19,35.3738712,-119.0194639
Baltimore MD,7,2019-08-19,39.2908816,-76.610759
Baton Rouge LA,10,2019-08-19,30.4459596,-91.18738
"Billings, MT",35,2019-08-19,45.7874957,-108.49607
Biloxi,25,2019-08-19,30.374673,-88.84594333482862
Binghamton NY,29,2019-08-19,42.096968,-75.914341
Birmingham AL,9,2019-08-19,33.570499,-86.765783
Boise ID,10,2019-08-19,43.6166163,-116.200886
Boston MA,4,2019-08-19,42.3602534,-71.0582912
Bowling Green KY,43,2019-08-19,36.9903199,-86.4436018
Buffalo NY,12,2019-08-19,42.8867166,-78.8783922
Cedar Rapids,10,2019-08-19,41.9758872,-91.6704053
Champaign,10,2019-08-19,40.1164205,-88.2433829
Charleston SC,8,2019-08-19,32.7876012,-79.9402728
Charleston,11,2019-08-19,32.7876012,-79.9402728
Charlotte NC,5,2019-08-19,35.2270869,-80.8431268
Chattanooga TN,9,2019-08-19,35.0457219,-85.3094883
Chicago IL,5,2019-08-19,41.8755616,-87.6244212
Chico,18,2019-08-19,39.7284945,-121.8374777
Cincinnati OH,11,2019-08-19,39.1014537,-84.5124602
Cleveland,11,2019-08-19,41.5051613,-81.6934446
Colorado Springs,8,2019-08-19,38.8339578,-104.8253485
Columbia SC,8,2019-08-19,34.0007493,-81.0343313
Columbia,19,2019-08-19,2.8894434,-73.783892
Columbus GA,15,2019-08-19,43.1830762,-79.8147518
Columbus OH,3,2019-08-19,39.9622601,-83.0007065
Corpus Christi TX,16,2019-08-19,27.7477253,-97.4014129
Dallas,7,2019-08-19,32.7762719,-96.7968559
Denver CO,10,2019-08-19,39.7348381,-104.9653271
Des Moines,7,2019-08-19,41.5910641,-93.6037149
Detroit MI,7,2019-08-19,42.3315509,-83.0466403
Dothan AL,41,2019-08-19,31.2237434,-85.3933906
Duluth MN,23,2019-08-19,46.7729322,-92.1251218
El Paso TX,8,2019-08-19,31.7754152,-106.4646348
Elmira NY,43,2019-08-19,42.0897965,-76.8077338
Erie PA,25,2019-08-19,42.1294712,-80.0852695
Eureka CA,56,2019-08-19,45.4985271,-62.6816736
Evansville IN,20,2019-08-19,4.5777639,-7.6472486
Flint,13,2019-08-19,43.0161693,-83.6900211
Florence,10,2019-08-19,43.7698712,11.2555757
Fresno,16,2019-08-19,36.7295295,-119.70886126075588
Ft. Myers,10,2019-08-19,26.640628,-81.8723084
Ft. Smith,15,2019-08-19,35.3872218,-94.4248983
Ft. Wayne IN,23,2019-08-19,41.0799898,-85.1386015
Gainesville FL,18,2019-08-19,29.67357765,-82.32337460192167
Grand Junction,69,2019-08-19,39.063956,-108.5507317
Grand Rapids,8,2019-08-19,42.9632405,-85.6678639
Greensboro,10,2019-08-19,36.0726355,-79.7919754
Greenville,15,2019-08-19,34.851354,-82.3984882
Greenville,8,2019-08-19,34.851354,-82.3984882
Harlingen,14,2019-08-19,26.1908241,-97.6959794
Harrisburg,12,2019-08-19,40.2663107,-76.8861122
Hartford,11,2019-08-19,41.764582,-72.6908547
Hattiesburg,42,2019-08-19,31.3271189,-89.2903392
Honolulu HI,9,2019-08-19,21.304547,-157.8556764
Houston TX,6,2019-08-19,29.7589382,-95.3676974
Huntsville,17,2019-08-19,34.729847,-86.5859011
Indianapolis IN,12,2019-08-19,39.7683331,-86.1583502
Jackson MS,10,2019-08-19,28.530801699999998,-81.30324431076107
Jacksonville FL,12,2019-08-19,30.3321838,-81.655651
Johnstown,12,2019-08-19,40.3267407,-78.9219698
Kansas City MO,12,2019-08-19,39.100105,-94.5781416
Knoxville TN,12,2019-08-19,35.9603948,-83.9210261
Lafayette LA,17,2019-08-19,30.2240897,-92.0198427
Lake Charles LA,37,2019-08-19,30.2265949,-93.2173759
Lansing MI,27,2019-08-19,42.7338147,-84.5207088
Las Vegas NV,18,2019-08-19,36.1672559,-115.1485163
Lexington KY,7,2019-08-19,38.0464066,-84.4970393
Lincoln,20,2019-08-19,47.8299069,-118.414727
Little Rock,17,2019-08-19,34.7464809,-92.2895948
Los Angeles CA,11,2019-08-19,34.0536909,-118.2427666
Louisville KY,7,2019-08-19,38.2542376,-85.759407
Lubbock TX,20,2019-08-19,33.5635206,-101.879336
Macon GA,15,2019-08-19,32.8406946,-83.6324022
Medford,20,2019-08-19,42.4184296,-71.1061639
Memphis TN,8,2019-08-19,35.1490215,-90.0516285
Miami,6,2019-08-19,25.7742658,-80.1936589
Milwaukee WI,9,2019-08-19,43.0349931,-87.922497
Minneapolis,7,2019-08-19,44.9772995,-93.2654692
Missoula MT,28,2019-08-19,46.8701049,-113.9952672
Mobile AL,9,2019-08-19,39.092585,-84.853229
Monterey,12,2019-08-19,36.2231079,-121.3877428
Montgomery,17,2019-08-19,32.3669656,-86.3006485
Nashville TN,7,2019-08-19,36.1622296,-86.7743531
New Orleans LA,6,2019-08-19,29.9499323,-90.0701156
New York NY,5,2019-08-19,40.7127281,-74.0060152
Norfolk,11,2019-08-19,52.666667,1.0
Odessa,19,2019-08-19,46.4873195,30.7392776
Oklahoma City OK,7,2019-08-19,35.4729886,-97.5170536
Omaha NE,8,2019-08-19,41.2587459,-95.9383758
Orlando,11,2019-08-19,28.5421109,-81.3790304
Paducah KY,35,2019-08-19,37.0833893,-88.6000478
Palm Springs CA,23,2019-08-19,33.8246269,-116.540303
Panama City FL,24,2019-08-19,30.1600827,-85.6545729
Peoria,12,2019-08-19,40.6938609,-89.5891008
Philadelphia PA,8,2019-08-19,39.9527237,-75.1635262
Phoenix AZ,12,2019-08-19,33.4484367,-112.0741417
Pittsburgh PA,8,2019-08-19,40.4416941,-79.9900861
Portland OR,6,2019-08-19,45.5202471,-122.6741949
Portland,18,2019-08-19,45.5202471,-122.6741949
Providence RI,9,2019-08-19,51.4325409,-2.6642358
Raleigh,8,2019-08-19,35.7803977,-78.6390989
Rapid City SD,37,2019-08-19,44.081176,-103.228006
Reno NV,22,2019-08-19,39.5261206,-119.8126581
Roanoke,7,2019-08-19,37.270973,-79.9414313
Rochester MN,23,2019-08-19,44.0234387,-92.4630182
Rochester NY,13,2019-08-19,43.157285,-77.615214
Rockford IL,20,2019-08-19,42.2713945,-89.093966
Sacramento,13,2019-08-19,38.5815719,-121.4943996
Salisbury MD,16,2019-08-19,38.3662114,-75.6008881
Salt Lake City UT,13,2019-08-19,40.7596198,-111.8867975
San Antonio TX,6,2019-08-19,29.4246002,-98.4951405
San Diego CA,11,2019-08-19,32.7174209,-117.1627714
San Francisco,7,2019-08-19,37.7790262,-122.4199061
Santa Barbara,11,2019-08-19,34.4221319,-119.7026673
Savannah GA,11,2019-08-19,43.4129206,-79.7028276
Seattle,9,2019-08-19,47.6038321,-122.3300624
Sherman TX,100,2019-08-19,36.2452294,-101.8858689
Shreveport LA,18,2019-08-19,32.5221828,-93.7651944
Sioux City IA,26,2019-08-19,42.4966815,-96.4058782
Sioux Fall,14,2019-08-19,46.737158,-90.8801835
South Bend,14,2019-08-19,41.6833813,-86.2500066
Spokane WA,15,2019-08-19,47.6579425,-117.4212265
Springfield MO,14,2019-08-19,37.2166779,-93.2920373
Springfield,18,2019-08-19,39.7990175,-89.6439575
St. Louis MO,5,2019-08-19,38.6529545,-90.24111656024635
Syracuse NY,9,2019-08-19,43.0481221,-76.1474244
Tallahassee FL,12,2019-08-19,30.4380832,-84.2809332
Tampa,8,2019-08-19,27.9477595,-82.458444
Toledo OH,17,2019-08-19,41.6786754,-83.5127283
Topeka KS,19,2019-08-19,39.049011,-95.677556
Traverse City,38,2019-08-19,44.7606441,-85.6165301
Tri,13,2019-08-19,35.875259,-78.7751271
Tucson,7,2019-08-19,32.2228765,-110.9748477
Tulsa OK,13,2019-08-19,36.1556805,-95.9929113
Twin Falls ID,55,2019-08-19,42.5704219,-114.4603171
Tyler,14,2019-08-19,32.3512601,-95.3010624
Utica NY,38,2019-08-19,43.1009031,-75.2326641
Waco,12,2019-08-19,31.549333,-97.1466695
Washington DC,5,2019-08-19,38.8948932,-77.0365529
Wausau,32,2019-08-19,44.9596017,-89.6298239
West Palm Beach,8,2019-08-19,26.7153425,-80.0533746
Wheeling WV,36,2019-08-19,40.0639616,-80.7209149
Wichita Falls TX,25,2019-08-19,33.9137085,-98.4933873
Wichita,13,2019-08-19,37.6922361,-97.3375448
Wilkes Barre,19,2019-08-19,41.2464824,-75.8817316
Wilmington NC,16,2019-08-19,34.2257282,-77.9447107
Yakima,28,2019-08-19,46.601557,-120.5108421
Youngstown OH,21,2019-08-19,41.1035786,-80.6520161
Yuma AZ,44,2019-08-19,32.6926588,-114.6276157
Albany GA,23,2019-08-26,51.7468576,-0.3383107
Albany,4,2019-08-26,42.6511674,-73.754968
Albuquerque,6,2019-08-26,35.0841034,-106.6509851
Atlanta GA,7,2019-08-26,33.7490987,-84.3901849
Augusta GA,11,2019-08-26,33.4709714,-81.9748429
Austin TX,6,2019-08-26,30.2711286,-97.7436995
Bakersfield CA,28,2019-08-26,35.3738712,-119.0194639
Baltimore MD,7,2019-08-26,39.2908816,-76.610759
Baton Rouge LA,8,2019-08-26,30.4459596,-91.18738
Beaumont,20,2019-08-26,30.0860459,-94.1018461
Biloxi,22,2019-08-26,30.374673,-88.84594333482862
Binghamton NY,24,2019-08-26,42.096968,-75.914341
Birmingham AL,7,2019-08-26,33.570499,-86.765783
Bluefield,34,2019-08-26,37.2698395,-81.2223195
Boise ID,8,2019-08-26,43.6166163,-116.200886
Boston MA,7,2019-08-26,42.3602534,-71.0582912
Buffalo NY,8,2019-08-26,42.8867166,-78.8783922
Burlington VT,9,2019-08-26,44.4762975,-73.2135472
Cedar Rapids,8,2019-08-26,41.9758872,-91.6704053
Champaign,8,2019-08-26,40.1164205,-88.2433829
Charleston SC,7,2019-08-26,32.7876012,-79.9402728
Charleston,9,2019-08-26,32.7876012,-79.9402728
Charlotte NC,6,2019-08-26,35.2270869,-80.8431268
Charlottesville VA,24,2019-08-26,38.029306,-78.4766781
Chattanooga TN,8,2019-08-26,35.0457219,-85.3094883
Cheyenne WY,55,2019-08-26,45.2519491,-75.7306849
Chicago IL,7,2019-08-26,41.8755616,-87.6244212
Chico,16,2019-08-26,39.7284945,-121.8374777
Cincinnati OH,6,2019-08-26,39.1014537,-84.5124602
Cleveland,8,2019-08-26,41.5051613,-81.6934446
Colorado Springs,7,2019-08-26,38.8339578,-104.8253485
Columbia SC,7,2019-08-26,34.0007493,-81.0343313
Columbus GA,13,2019-08-26,43.1830762,-79.8147518
Columbus OH,8,2019-08-26,39.9622601,-83.0007065
Columbus,24,2019-08-26,39.9622601,-83.0007065
Corpus Christi TX,14,2019-08-26,27.7477253,-97.4014129
Dallas,7,2019-08-26,32.7762719,-96.7968559
Davenport IA,11,2019-08-26,41.5236436,-90.5776368
Dayton OH,13,2019-08-26,39.7589478,-84.1916069
Denver CO,8,2019-08-26,39.7348381,-104.9653271
Des Moines,12,2019-08-26,41.5910641,-93.6037149
Detroit MI,6,2019-08-26,42.3315509,-83.0466403
Dothan AL,34,2019-08-26,31.2237434,-85.3933906
Duluth MN,26,2019-08-26,46.7729322,-92.1251218
El Paso TX,7,2019-08-26,31.7754152,-106.4646348
Erie PA,21,2019-08-26,42.1294712,-80.0852695
Eugene OR,12,2019-08-26,44.0505054,-123.0950506
Eureka CA,48,2019-08-26,45.4985271,-62.6816736
Evansville IN,12,2019-08-26,4.5777639,-7.6472486
Fargo,25,2019-08-26,46.877229,-96.789821
Florence,9,2019-08-26,43.7698712,11.2555757
Fresno,10,2019-08-26,36.7295295,-119.70886126075588
Ft. Myers,7,2019-08-26,26.640628,-81.8723084
Ft. Smith,17,2019-08-26,35.3872218,-94.4248983
Ft. Wayne IN,11,2019-08-26,41.0799898,-85.1386015
Gainesville FL,15,2019-08-26,29.67357765,-82.32337460192167
Grand Junction,40,2019-08-26,39.063956,-108.5507317
Grand Rapids,8,2019-08-26,42.9632405,-85.6678639
Great Falls MT,61,2019-08-26,47.5048851,-111.2918908
Green Bay,14,2019-08-26,44.5126379,-88.0125794
Greensboro,6,2019-08-26,36.0726355,-79.7919754
Greenville,9,2019-08-26,34.851354,-82.3984882
Greenville,9,2019-08-26,34.851354,-82.3984882
Harlingen,9,2019-08-26,26.1908241,-97.6959794
Harrisburg,11,2019-08-26,40.2663107,-76.8861122
Hartford,6,2019-08-26,41.764582,-72.6908547
Hattiesburg,36,2019-08-26,31.3271189,-89.2903392
Honolulu HI,8,2019-08-26,21.304547,-157.8556764
Houston TX,8,2019-08-26,29.7589382,-95.3676974
Huntsville,15,2019-08-26,34.729847,-86.5859011
Indianapolis IN,11,2019-08-26,39.7683331,-86.1583502
Jackson MS,9,2019-08-26,28.530801699999998,-81.30324431076107
Jacksonville FL,5,2019-08-26,30.3321838,-81.655651
Johnstown,9,2019-08-26,40.3267407,-78.9219698
Joplin MO,48,2019-08-26,37.08418,-94.51323
Juneau AK,97,2019-08-26,58.3019496,-134.419734
Kansas City MO,7,2019-08-26,39.100105,-94.5781416
Knoxville TN,9,2019-08-26,35.9603948,-83.9210261
Lafayette IN,38,2019-08-26,40.4167022,-86.8752869
Lafayette LA,15,2019-08-26,30.2240897,-92.0198427
Lansing MI,11,2019-08-26,42.7338147,-84.5207088
Laredo TX,62,2019-08-26,27.5199841,-99.4953764
Las Vegas NV,11,2019-08-26,36.1672559,-115.1485163
Lexington KY,12,2019-08-26,38.0464066,-84.4970393
Lincoln,10,2019-08-26,47.8299069,-118.414727
Little Rock,5,2019-08-26,34.7464809,-92.2895948
Los Angeles CA,8,2019-08-26,34.0536909,-118.2427666
Louisville KY,7,2019-08-26,38.2542376,-85.759407
Lubbock TX,17,2019-08-26,33.5635206,-101.879336
Macon GA,13,2019-08-26,32.8406946,-83.6324022
Madison WI,7,2019-08-26,43.074761,-89.3837613
Medford,17,2019-08-26,42.4184296,-71.1061639
Memphis TN,5,2019-08-26,35.1490215,-90.0516285
Miami,5,2019-08-26,25.7742658,-80.1936589
Milwaukee WI,7,2019-08-26,43.0349931,-87.922497
Minneapolis,7,2019-08-26,44.9772995,-93.2654692
Minot,20,2019-08-26,47.6698594,4.8786165
Missoula MT,25,2019-08-26,46.8701049,-113.9952672
Mobile AL,12,2019-08-26,39.092585,-84.853229
Monroe LA,26,2019-08-26,38.2722313,-90.1792484
Monterey,10,2019-08-26,36.2231079,-121.3877428
Montgomery,28,2019-08-26,32.3669656,-86.3006485
Nashville TN,5,2019-08-26,36.1622296,-86.7743531
New Orleans LA,5,2019-08-26,29.9499323,-90.0701156
New York NY,4,2019-08-26,40.7127281,-74.0060152
Norfolk,7,2019-08-26,52.666667,1.0
Odessa,16,2019-08-26,46.4873195,30.7392776
Oklahoma City OK,4,2019-08-26,35.4729886,-97.5170536
Omaha NE,8,2019-08-26,41.2587459,-95.9383758
Orlando,5,2019-08-26,28.5421109,-81.3790304
Paducah KY,20,2019-08-26,37.0833893,-88.6000478
Panama City FL,19,2019-08-26,30.1600827,-85.6545729
Parkersburg WV,64,2019-08-26,39.2699565,-81.5506916
Peoria,11,2019-08-26,40.6938609,-89.5891008
Philadelphia PA,4,2019-08-26,39.9527237,-75.1635262
Phoenix AZ,9,2019-08-26,33.4484367,-112.0741417
Pittsburgh PA,7,2019-08-26,40.4416941,-79.9900861
Portland OR,5,2019-08-26,45.5202471,-122.6741949
Portland,7,2019-08-26,45.5202471,-122.6741949
Providence RI,4,2019-08-26,51.4325409,-2.6642358
Quincy IL,37,2019-08-26,39.9368363,-120.9471764
Raleigh,8,2019-08-26,35.7803977,-78.6390989
Reno NV,33,2019-08-26,39.5261206,-119.8126581
Richmond,6,2019-08-26,37.5385087,-77.43428
Roanoke,9,2019-08-26,37.270973,-79.9414313
Rochester MN,20,2019-08-26,44.0234387,-92.4630182
Rochester NY,7,2019-08-26,43.157285,-77.615214
Rockford IL,17,2019-08-26,42.2713945,-89.093966
Sacramento,11,2019-08-26,38.5815719,-121.4943996
Salisbury MD,14,2019-08-26,38.3662114,-75.6008881
Salt Lake City UT,9,2019-08-26,40.7596198,-111.8867975
San Angelo TX,45,2019-08-26,31.4648357,-100.4398442
San Antonio TX,7,2019-08-26,29.4246002,-98.4951405
San Diego CA,7,2019-08-26,32.7174209,-117.1627714
San Francisco,6,2019-08-26,37.7790262,-122.4199061
Santa Barbara,24,2019-08-26,34.4221319,-119.7026673
Savannah GA,7,2019-08-26,43.4129206,-79.7028276
Seattle,7,2019-08-26,47.6038321,-122.3300624
Shreveport LA,10,2019-08-26,32.5221828,-93.7651944
Sioux Fall,12,2019-08-26,46.737158,-90.8801835
South Bend,13,2019-08-26,41.6833813,-86.2500066
Spokane WA,7,2019-08-26,47.6579425,-117.4212265
Springfield MO,15,2019-08-26,37.2166779,-93.2920373
Springfield,10,2019-08-26,39.7990175,-89.6439575
St. Louis MO,10,2019-08-26,38.6529545,-90.24111656024635
Syracuse NY,7,2019-08-26,43.0481221,-76.1474244
Tallahassee FL,10,2019-08-26,30.4380832,-84.2809332
Tampa,4,2019-08-26,27.9477595,-82.458444
Terre Haute IN,27,2019-08-26,39.4667025,-87.4139119
Topeka KS,22,2019-08-26,39.049011,-95.677556
Traverse City,13,2019-08-26,44.7606441,-85.6165301
Tri,17,2019-08-26,35.875259,-78.7751271
Tucson,6,2019-08-26,32.2228765,-110.9748477
Tulsa OK,8,2019-08-26,36.1556805,-95.9929113
Tyler,12,2019-08-26,32.3512601,-95.3010624
Victoria TX,100,2019-08-26,28.8026443,-96.9766308
Waco,9,2019-08-26,31.549333,-97.1466695
Washington DC,4,2019-08-26,38.8948932,-77.0365529
Watertown NY,34,2019-08-26,43.9747838,-75.9107565
West Palm Beach,3,2019-08-26,26.7153425,-80.0533746
Wheeling WV,30,2019-08-26,40.0639616,-80.7209149
Wichita,7,2019-08-26,37.6922361,-97.3375448
Wilkes Barre,6,2019-08-26,41.2464824,-75.8817316
Wilmington NC,13,2019-08-26,34.2257282,-77.9447107
Yakima,12,2019-08-26,46.601557,-120.5108421
Youngstown OH,13,2019-08-26,41.1035786,-80.6520161
Yuma AZ,38,2019-08-26,32.6926588,-114.6276157
Albany GA,43,2019-09-02,51.7468576,-0.3383107
Albany,8,2019-09-02,42.6511674,-73.754968
Albuquerque,17,2019-09-02,35.0841034,-106.6509851
Amarillo TX,15,2019-09-02,35.2072185,-101.8338246
Anchorage AK,15,2019-09-02,61.2163129,-149.8948523
Atlanta GA,10,2019-09-02,33.7490987,-84.3901849
Augusta GA,13,2019-09-02,33.4709714,-81.9748429
Austin TX,16,2019-09-02,30.2711286,-97.7436995
Bakersfield CA,24,2019-09-02,35.3738712,-119.0194639
Baltimore MD,5,2019-09-02,39.2908816,-76.610759
Bangor ME,19,2019-09-02,29.0659229,-110.97133
Baton Rouge LA,12,2019-09-02,30.4459596,-91.18738
Beaumont,19,2019-09-02,30.0860459,-94.1018461
Biloxi,20,2019-09-02,30.374673,-88.84594333482862
Binghamton NY,22,2019-09-02,42.096968,-75.914341
Birmingham AL,8,2019-09-02,33.570499,-86.765783
Bluefield,31,2019-09-02,37.2698395,-81.2223195
Boise ID,15,2019-09-02,43.6166163,-116.200886
Boston MA,9,2019-09-02,42.3602534,-71.0582912
Bowling Green KY,65,2019-09-02,36.9903199,-86.4436018
Buffalo NY,6,2019-09-02,42.8867166,-78.8783922
Burlington VT,8,2019-09-02,44.4762975,-73.2135472
Butte,31,2019-09-02,39.6519275,-121.5858444
Casper,58,2019-09-02,42.866632,-106.313081
Cedar Rapids,7,2019-09-02,41.9758872,-91.6704053
Champaign,15,2019-09-02,40.1164205,-88.2433829
Charleston SC,15,2019-09-02,32.7876012,-79.9402728
Charleston,8,2019-09-02,32.7876012,-79.9402728
Charlotte NC,8,2019-09-02,35.2270869,-80.8431268
Charlottesville VA,22,2019-09-02,38.029306,-78.4766781
Chattanooga TN,10,2019-09-02,35.0457219,-85.3094883
Cheyenne WY,51,2019-09-02,45.2519491,-75.7306849
Chicago IL,9,2019-09-02,41.8755616,-87.6244212
Cincinnati OH,9,2019-09-02,39.1014537,-84.5124602
Clarksburg,36,2019-09-02,39.2806451,-80.3445341
Cleveland,9,2019-09-02,41.5051613,-81.6934446
Colorado Springs,16,2019-09-02,38.8339578,-104.8253485
Columbia SC,12,2019-09-02,34.0007493,-81.0343313
Columbia,23,2019-09-02,2.8894434,-73.783892
Columbus GA,24,2019-09-02,43.1830762,-79.8147518
Columbus OH,11,2019-09-02,39.9622601,-83.0007065
Columbus,22,2019-09-02,39.9622601,-83.0007065
Corpus Christi TX,25,2019-09-02,27.7477253,-97.4014129
Dallas,12,2019-09-02,32.7762719,-96.7968559
Davenport IA,15,2019-09-02,41.5236436,-90.5776368
Dayton OH,18,2019-09-02,39.7589478,-84.1916069
Denver CO,14,2019-09-02,39.7348381,-104.9653271
Des Moines,13,2019-09-02,41.5910641,-93.6037149
Detroit MI,10,2019-09-02,42.3315509,-83.0466403
Duluth MN,18,2019-09-02,46.7729322,-92.1251218
El Paso TX,21,2019-09-02,31.7754152,-106.4646348
Eugene OR,11,2019-09-02,44.0505054,-123.0950506
Evansville IN,17,2019-09-02,4.5777639,-7.6472486
Fargo,11,2019-09-02,46.877229,-96.789821
Flint,7,2019-09-02,43.0161693,-83.6900211
Fresno,20,2019-09-02,36.7295295,-119.70886126075588
Ft. Myers,15,2019-09-02,26.640628,-81.8723084
Ft. Smith,11,2019-09-02,35.3872218,-94.4248983
Ft. Wayne IN,14,2019-09-02,41.0799898,-85.1386015
Gainesville FL,14,2019-09-02,29.67357765,-82.32337460192167
Grand Junction,36,2019-09-02,39.063956,-108.5507317
Grand Rapids,15,2019-09-02,42.9632405,-85.6678639
Green Bay,13,2019-09-02,44.5126379,-88.0125794
Greensboro,10,2019-09-02,36.0726355,-79.7919754
Greenville,16,2019-09-02,34.851354,-82.3984882
Greenville,10,2019-09-02,34.851354,-82.3984882
Greenwood,68,2019-09-02,37.8709542,-96.2471338
Harlingen,11,2019-09-02,26.1908241,-97.6959794
Harrisburg,13,2019-09-02,40.2663107,-76.8861122
Harrisonburg VA,26,2019-09-02,38.4493315,-78.8688833
Hartford,8,2019-09-02,41.764582,-72.6908547
Honolulu HI,13,2019-09-02,21.304547,-157.8556764
Houston TX,11,2019-09-02,29.7589382,-95.3676974
Huntsville,12,2019-09-02,34.729847,-86.5859011
Idaho Falls,20,2019-09-02,43.4935245,-112.0400919
Indianapolis IN,11,2019-09-02,39.7683331,-86.1583502
Jackson MS,11,2019-09-02,28.530801699999998,-81.30324431076107
Jacksonville FL,14,2019-09-02,30.3321838,-81.655651
Johnstown,9,2019-09-02,40.3267407,-78.9219698
Jonesboro AR,40,2019-09-02,35.8428646,-90.7034522
Juneau AK,90,2019-09-02,58.3019496,-134.419734
Kansas City MO,12,2019-09-02,39.100105,-94.5781416
Knoxville TN,16,2019-09-02,35.9603948,-83.9210261
La Crosse,13,2019-09-02,43.8014053,-91.2395429
Lafayette LA,14,2019-09-02,30.2240897,-92.0198427
Lansing MI,19,2019-09-02,42.7338147,-84.5207088
Laredo TX,29,2019-09-02,27.5199841,-99.4953764
Las Vegas NV,18,2019-09-02,36.1672559,-115.1485163
Lexington KY,11,2019-09-02,38.0464066,-84.4970393
Lima OH,52,2019-09-02,40.7399785,-84.105006
Lincoln,10,2019-09-02,47.8299069,-118.414727
Little Rock,12,2019-09-02,34.7464809,-92.2895948
Los Angeles CA,13,2019-09-02,34.0536909,-118.2427666
Louisville KY,12,2019-09-02,38.2542376,-85.759407
Lubbock TX,15,2019-09-02,33.5635206,-101.879336
Macon GA,12,2019-09-02,32.8406946,-83.6324022
Madison WI,5,2019-09-02,43.074761,-89.3837613
Mankato MN,48,2019-09-02,44.1634663,-93.9993505
Marquette MI,36,2019-09-02,46.4481521,-87.6305899
Medford,16,2019-09-02,42.4184296,-71.1061639
Memphis TN,10,2019-09-02,35.1490215,-90.0516285
Miami,7,2019-09-02,25.7742658,-80.1936589
Milwaukee WI,9,2019-09-02,43.0349931,-87.922497
Minneapolis,8,2019-09-02,44.9772995,-93.2654692
Minot,27,2019-09-02,47.6698594,4.8786165
Missoula MT,23,2019-09-02,46.8701049,-113.9952672
Mobile AL,12,2019-09-02,39.092585,-84.853229
Monterey,24,2019-09-02,36.2231079,-121.3877428
Montgomery,26,2019-09-02,32.3669656,-86.3006485
Nashville TN,17,2019-09-02,36.1622296,-86.7743531
New Orleans LA,14,2019-09-02,29.9499323,-90.0701156
New York NY,5,2019-09-02,40.7127281,-74.0060152
Norfolk,9,2019-09-02,52.666667,1.0
Odessa,15,2019-09-02,46.4873195,30.7392776
Oklahoma City OK,9,2019-09-02,35.4729886,-97.5170536
Omaha NE,13,2019-09-02,41.2587459,-95.9383758
Orlando,6,2019-09-02,28.5421109,-81.3790304
Paducah KY,14,2019-09-02,37.0833893,-88.6000478
Palm Springs CA,18,2019-09-02,33.8246269,-116.540303
Panama City FL,38,2019-09-02,30.1600827,-85.6545729
Peoria,29,2019-09-02,40.6938609,-89.5891008
Philadelphia PA,7,2019-09-02,39.9527237,-75.1635262
Phoenix AZ,12,2019-09-02,33.4484367,-112.0741417
Pittsburgh PA,12,2019-09-02,40.4416941,-79.9900861
Portland OR,15,2019-09-02,45.5202471,-122.6741949
Portland,22,2019-09-02,45.5202471,-122.6741949
Providence RI,11,2019-09-02,51.4325409,-2.6642358
Quincy IL,35,2019-09-02,39.9368363,-120.9471764
Raleigh,7,2019-09-02,35.7803977,-78.6390989
Rapid City SD,30,2019-09-02,44.081176,-103.228006
Reno NV,21,2019-09-02,39.5261206,-119.8126581
Richmond,17,2019-09-02,37.5385087,-77.43428
Roanoke,11,2019-09-02,37.270973,-79.9414313
Rochester MN,18,2019-09-02,44.0234387,-92.4630182
Rochester NY,10,2019-09-02,43.157285,-77.615214
Rockford IL,31,2019-09-02,42.2713945,-89.093966
Sacramento,18,2019-09-02,38.5815719,-121.4943996
Salt Lake City UT,20,2019-09-02,40.7596198,-111.8867975
San Angelo TX,41,2019-09-02,31.4648357,-100.4398442
San Antonio TX,16,2019-09-02,29.4246002,-98.4951405
San Diego CA,14,2019-09-02,32.7174209,-117.1627714
San Francisco,9,2019-09-02,37.7790262,-122.4199061
Santa Barbara,9,2019-09-02,34.4221319,-119.7026673
Savannah GA,8,2019-09-02,43.4129206,-79.7028276
Seattle,11,2019-09-02,47.6038321,-122.3300624
Sherman TX,27,2019-09-02,36.2452294,-101.8858689
Shreveport LA,19,2019-09-02,32.5221828,-93.7651944
Sioux City IA,27,2019-09-02,42.4966815,-96.4058782
Sioux Fall,11,2019-09-02,46.737158,-90.8801835
South Bend,22,2019-09-02,41.6833813,-86.2500066
Spokane WA,10,2019-09-02,47.6579425,-117.4212265
Springfield MO,19,2019-09-02,37.2166779,-93.2920373
Springfield,13,2019-09-02,39.7990175,-89.6439575
St. Louis MO,14,2019-09-02,38.6529545,-90.24111656024635
Syracuse NY,8,2019-09-02,43.0481221,-76.1474244
Tallahassee FL,9,2019-09-02,30.4380832,-84.2809332
Tampa,9,2019-09-02,27.9477595,-82.458444
Terre Haute IN,25,2019-09-02,39.4667025,-87.4139119
Toledo OH,6,2019-09-02,41.6786754,-83.5127283
Topeka KS,39,2019-09-02,39.049011,-95.677556
Traverse City,20,2019-09-02,44.7606441,-85.6165301
Tri,20,2019-09-02,35.875259,-78.7751271
Tucson,15,2019-09-02,32.2228765,-110.9748477
Tulsa OK,14,2019-09-02,36.1556805,-95.9929113
Twin Falls ID,43,2019-09-02,42.5704219,-114.4603171
Tyler,11,2019-09-02,32.3512601,-95.3010624
Utica NY,57,2019-09-02,43.1009031,-75.2326641
Waco,8,2019-09-02,31.549333,-97.1466695
Washington DC,8,2019-09-02,38.8948932,-77.0365529
Watertown NY,31,2019-09-02,43.9747838,-75.9107565
Wausau,50,2019-09-02,44.9596017,-89.6298239
West Palm Beach,3,2019-09-02,26.7153425,-80.0533746
Wheeling WV,28,2019-09-02,40.0639616,-80.7209149
Wichita Falls TX,20,2019-09-02,33.9137085,-98.4933873
Wichita,13,2019-09-02,37.6922361,-97.3375448
Wilkes Barre,22,2019-09-02,41.2464824,-75.8817316
Wilmington NC,13,2019-09-02,34.2257282,-77.9447107
Yakima,15,2019-09-02,46.601557,-120.5108421
Youngstown OH,18,2019-09-02,41.1035786,-80.6520161
Zanesville OH,100,2019-09-02,39.9403453,-82.0131924
Abilene,39,2019-09-09,32.44645,-99.7475905
Albany GA,16,2019-09-09,51.7468576,-0.3383107
Albany,8,2019-09-09,42.6511674,-73.754968
Albuquerque,11,2019-09-09,35.0841034,-106.6509851
Alexandria LA,30,2019-09-09,31.199004,29.894378
Amarillo TX,17,2019-09-09,35.2072185,-101.8338246
Anchorage AK,21,2019-09-09,61.2163129,-149.8948523
Atlanta GA,13,2019-09-09,33.7490987,-84.3901849
Austin TX,10,2019-09-09,30.2711286,-97.7436995
Bakersfield CA,25,2019-09-09,35.3738712,-119.0194639
Baltimore MD,8,2019-09-09,39.2908816,-76.610759
Bangor ME,28,2019-09-09,29.0659229,-110.97133
Baton Rouge LA,11,2019-09-09,30.4459596,-91.18738
Beaumont,27,2019-09-09,30.0860459,-94.1018461
Biloxi,20,2019-09-09,30.374673,-88.84594333482862
Binghamton NY,15,2019-09-09,42.096968,-75.914341
Birmingham AL,13,2019-09-09,33.570499,-86.765783
Bluefield,33,2019-09-09,37.2698395,-81.2223195
Boise ID,13,2019-09-09,43.6166163,-116.200886
Boston MA,10,2019-09-09,42.3602534,-71.0582912
Bowling Green KY,24,2019-09-09,36.9903199,-86.4436018
Buffalo NY,13,2019-09-09,42.8867166,-78.8783922
Burlington VT,13,2019-09-09,44.4762975,-73.2135472
Butte,29,2019-09-09,39.6519275,-121.5858444
Cedar Rapids,12,2019-09-09,41.9758872,-91.6704053
Champaign,16,2019-09-09,40.1164205,-88.2433829
Charleston SC,10,2019-09-09,32.7876012,-79.9402728
Charleston,16,2019-09-09,32.7876012,-79.9402728
Charlotte NC,14,2019-09-09,35.2270869,-80.8431268
Charlottesville VA,16,2019-09-09,38.029306,-78.4766781
Chattanooga TN,17,2019-09-09,35.0457219,-85.3094883
Chicago IL,11,2019-09-09,41.8755616,-87.6244212
Chico,28,2019-09-09,39.7284945,-121.8374777
Cincinnati OH,13,2019-09-09,39.1014537,-84.5124602
Clarksburg,51,2019-09-09,39.2806451,-80.3445341
Cleveland,12,2019-09-09,41.5051613,-81.6934446
Colorado Springs,18,2019-09-09,38.8339578,-104.8253485
Columbia SC,10,2019-09-09,34.0007493,-81.0343313
Columbia,16,2019-09-09,2.8894434,-73.783892
Columbus GA,14,2019-09-09,43.1830762,-79.8147518
Columbus OH,16,2019-09-09,39.9622601,-83.0007065
Columbus,15,2019-09-09,39.9622601,-83.0007065
Corpus Christi TX,14,2019-09-09,27.7477253,-97.4014129
Dallas,13,2019-09-09,32.7762719,-96.7968559
Davenport IA,17,2019-09-09,41.5236436,-90.5776368
Dayton OH,13,2019-09-09,39.7589478,-84.1916069
Denver CO,13,2019-09-09,39.7348381,-104.9653271
Des Moines,11,2019-09-09,41.5910641,-93.6037149
Detroit MI,11,2019-09-09,42.3315509,-83.0466403
Duluth MN,29,2019-09-09,46.7729322,-92.1251218
El Paso TX,9,2019-09-09,31.7754152,-106.4646348
Elmira NY,24,2019-09-09,42.0897965,-76.8077338
Eugene OR,21,2019-09-09,44.0505054,-123.0950506
Eureka CA,61,2019-09-09,45.4985271,-62.6816736
Evansville IN,13,2019-09-09,4.5777639,-7.6472486
Fairbanks AK,57,2019-09-09,64.837845,-147.716675
Fargo,12,2019-09-09,46.877229,-96.789821
Flint,16,2019-09-09,43.0161693,-83.6900211
Florence,14,2019-09-09,43.7698712,11.2555757
Fresno,10,2019-09-09,36.7295295,-119.70886126075588
Ft. Myers,14,2019-09-09,26.640628,-81.8723084
Ft. Smith,19,2019-09-09,35.3872218,-94.4248983
Ft. Wayne IN,11,2019-09-09,41.0799898,-85.1386015
Gainesville FL,10,2019-09-09,29.67357765,-82.32337460192167
Grand Junction,27,2019-09-09,39.063956,-108.5507317
Grand Rapids,8,2019-09-09,42.9632405,-85.6678639
Green Bay,7,2019-09-09,44.5126379,-88.0125794
Greensboro,12,2019-09-09,36.0726355,-79.7919754
Greenville,17,2019-09-09,34.851354,-82.3984882
Greenville,14,2019-09-09,34.851354,-82.3984882
Harlingen,9,2019-09-09,26.1908241,-97.6959794
Harrisburg,11,2019-09-09,40.2663107,-76.8861122
Hartford,9,2019-09-09,41.764582,-72.6908547
Hattiesburg,23,2019-09-09,31.3271189,-89.2903392
Helena MT,68,2019-09-09,46.5927425,-112.0362771
Honolulu HI,9,2019-09-09,21.304547,-157.8556764
Houston TX,12,2019-09-09,29.7589382,-95.3676974
Huntsville,15,2019-09-09,34.729847,-86.5859011
Idaho Falls,20,2019-09-09,43.4935245,-112.0400919
Indianapolis IN,13,2019-09-09,39.7683331,-86.1583502
Jackson MS,10,2019-09-09,28.530801699999998,-81.30324431076107
Jackson TN,26,2019-09-09,35.6144446,-88.8177418
Jacksonville FL,6,2019-09-09,30.3321838,-81.655651
Johnstown,8,2019-09-09,40.3267407,-78.9219698
Jonesboro AR,28,2019-09-09,35.8428646,-90.7034522
Kansas City MO,11,2019-09-09,39.100105,-94.5781416
Knoxville TN,12,2019-09-09,35.9603948,-83.9210261
La Crosse,18,2019-09-09,43.8014053,-91.2395429
Lafayette IN,24,2019-09-09,40.4167022,-86.8752869
Lafayette LA,15,2019-09-09,30.2240897,-92.0198427
Lake Charles LA,44,2019-09-09,30.2265949,-93.2173759
Lansing MI,11,2019-09-09,42.7338147,-84.5207088
Laredo TX,20,2019-09-09,27.5199841,-99.4953764
Las Vegas NV,29,2019-09-09,36.1672559,-115.1485163
Lexington KY,8,2019-09-09,38.0464066,-84.4970393
Lima OH,38,2019-09-09,40.7399785,-84.105006
Lincoln,20,2019-09-09,47.8299069,-118.414727
Little Rock,15,2019-09-09,34.7464809,-92.2895948
Los Angeles CA,15,2019-09-09,34.0536909,-118.2427666
Louisville KY,7,2019-09-09,38.2542376,-85.759407
Macon GA,17,2019-09-09,32.8406946,-83.6324022
Madison WI,17,2019-09-09,43.074761,-89.3837613
Mankato MN,64,2019-09-09,44.1634663,-93.9993505
Marquette MI,25,2019-09-09,46.4481521,-87.6305899
Medford,29,2019-09-09,42.4184296,-71.1061639
Memphis TN,10,2019-09-09,35.1490215,-90.0516285
Miami,6,2019-09-09,25.7742658,-80.1936589
Milwaukee WI,6,2019-09-09,43.0349931,-87.922497
Minneapolis,11,2019-09-09,44.9772995,-93.2654692
Minot,25,2019-09-09,47.6698594,4.8786165
Missoula MT,16,2019-09-09,46.8701049,-113.9952672
Mobile AL,24,2019-09-09,39.092585,-84.853229
Monroe LA,16,2019-09-09,38.2722313,-90.1792484
Monterey,11,2019-09-09,36.2231079,-121.3877428
Montgomery,9,2019-09-09,32.3669656,-86.3006485
Nashville TN,9,2019-09-09,36.1622296,-86.7743531
New Orleans LA,8,2019-09-09,29.9499323,-90.0701156
New York NY,9,2019-09-09,40.7127281,-74.0060152
Norfolk,10,2019-09-09,52.666667,1.0
Odessa,16,2019-09-09,46.4873195,30.7392776
Oklahoma City OK,11,2019-09-09,35.4729886,-97.5170536
Omaha NE,10,2019-09-09,41.2587459,-95.9383758
Orlando,9,2019-09-09,28.5421109,-81.3790304
Ottumwa IA,49,2019-09-09,41.0200145,-92.4112963
Paducah KY,9,2019-09-09,37.0833893,-88.6000478
Palm Springs CA,19,2019-09-09,33.8246269,-116.540303
Panama City FL,14,2019-09-09,30.1600827,-85.6545729
Peoria,14,2019-09-09,40.6938609,-89.5891008
Philadelphia PA,11,2019-09-09,39.9527237,-75.1635262
Phoenix AZ,11,2019-09-09,33.4484367,-112.0741417
Pittsburgh PA,10,2019-09-09,40.4416941,-79.9900861
Portland OR,11,2019-09-09,45.5202471,-122.6741949
Portland,10,2019-09-09,45.5202471,-122.6741949
Presque Isle ME,100,2019-09-09,46.681479,-68.016357
Providence RI,12,2019-09-09,51.4325409,-2.6642358
Quincy IL,25,2019-09-09,39.9368363,-120.9471764
Raleigh,14,2019-09-09,35.7803977,-78.6390989
Rapid City SD,20,2019-09-09,44.081176,-103.228006
Reno NV,19,2019-09-09,39.5261206,-119.8126581
Richmond,14,2019-09-09,37.5385087,-77.43428
Roanoke,18,2019-09-09,37.270973,-79.9414313
Rochester MN,17,2019-09-09,44.0234387,-92.4630182
Rochester NY,11,2019-09-09,43.157285,-77.615214
Rockford IL,11,2019-09-09,42.2713945,-89.093966
Sacramento,18,2019-09-09,38.5815719,-121.4943996
Salisbury MD,16,2019-09-09,38.3662114,-75.6008881
Salt Lake City UT,21,2019-09-09,40.7596198,-111.8867975
San Angelo TX,29,2019-09-09,31.4648357,-100.4398442
San Antonio TX,13,2019-09-09,29.4246002,-98.4951405
San Diego CA,17,2019-09-09,32.7174209,-117.1627714
San Francisco,9,2019-09-09,37.7790262,-122.4199061
Santa Barbara,13,2019-09-09,34.4221319,-119.7026673
Savannah GA,13,2019-09-09,43.4129206,-79.7028276
Seattle,12,2019-09-09,47.6038321,-122.3300624
Sherman TX,25,2019-09-09,36.2452294,-101.8858689
Shreveport LA,7,2019-09-09,32.5221828,-93.7651944
Sioux City IA,14,2019-09-09,42.4966815,-96.4058782
Sioux Fall,30,2019-09-09,46.737158,-90.8801835
South Bend,10,2019-09-09,41.6833813,-86.2500066
Spokane WA,21,2019-09-09,47.6579425,-117.4212265
Springfield MO,19,2019-09-09,37.2166779,-93.2920373
Springfield,27,2019-09-09,39.7990175,-89.6439575
St. Joseph MO,49,2019-09-09,39.7686055,-94.8466322
St. Louis MO,18,2019-09-09,38.6529545,-90.24111656024635
Syracuse NY,9,2019-09-09,43.0481221,-76.1474244
Tallahassee FL,9,2019-09-09,30.4380832,-84.2809332
Tampa,7,2019-09-09,27.9477595,-82.458444
Terre Haute IN,27,2019-09-09,39.4667025,-87.4139119
Toledo OH,11,2019-09-09,41.6786754,-83.5127283
Topeka KS,33,2019-09-09,39.049011,-95.677556
Traverse City,18,2019-09-09,44.7606441,-85.6165301
Tri,18,2019-09-09,35.875259,-78.7751271
Tucson,14,2019-09-09,32.2228765,-110.9748477
Tulsa OK,17,2019-09-09,36.1556805,-95.9929113
Twin Falls ID,31,2019-09-09,42.5704219,-114.4603171
Tyler,8,2019-09-09,32.3512601,-95.3010624
Utica NY,30,2019-09-09,43.1009031,-75.2326641
Waco,7,2019-09-09,31.549333,-97.1466695
Washington DC,10,2019-09-09,38.8948932,-77.0365529
Watertown NY,44,2019-09-09,43.9747838,-75.9107565
West Palm Beach,7,2019-09-09,26.7153425,-80.0533746
Wheeling WV,20,2019-09-09,40.0639616,-80.7209149
Wichita Falls TX,14,2019-09-09,33.9137085,-98.4933873
Wichita,9,2019-09-09,37.6922361,-97.3375448
Wilkes Barre,12,2019-09-09,41.2464824,-75.8817316
Wilmington NC,9,2019-09-09,34.2257282,-77.9447107
Yakima,24,2019-09-09,46.601557,-120.5108421
Youngstown OH,17,2019-09-09,41.1035786,-80.6520161
Yuma AZ,16,2019-09-09,32.6926588,-114.6276157
Abilene,21,2019-09-16,32.44645,-99.7475905
Albany GA,9,2019-09-16,51.7468576,-0.3383107
Albany,16,2019-09-16,42.6511674,-73.754968
Albuquerque,17,2019-09-16,35.0841034,-106.6509851
Alexandria LA,19,2019-09-16,31.199004,29.894378
Alpena MI,24,2019-09-16,45.0176181,-83.6670019
Amarillo TX,20,2019-09-16,35.2072185,-101.8338246
Anchorage AK,16,2019-09-16,61.2163129,-149.8948523
Atlanta GA,13,2019-09-16,33.7490987,-84.3901849
Augusta GA,16,2019-09-16,33.4709714,-81.9748429
Austin TX,16,2019-09-16,30.2711286,-97.7436995
Bakersfield CA,19,2019-09-16,35.3738712,-119.0194639
Baltimore MD,13,2019-09-16,39.2908816,-76.610759
Bangor ME,21,2019-09-16,29.0659229,-110.97133
Baton Rouge LA,11,2019-09-16,30.4459596,-91.18738
Beaumont,10,2019-09-16,30.0860459,-94.1018461
Bend OR,17,2019-09-16,44.0581728,-121.3153096
"Billings, MT",26,2019-09-16,45.7874957,-108.49607
Biloxi,15,2019-09-16,30.374673,-88.84594333482862
Binghamton NY,18,2019-09-16,42.096968,-75.914341
Birmingham AL,14,2019-09-16,33.570499,-86.765783
Bluefield,20,2019-09-16,37.2698395,-81.2223195
Boise ID,24,2019-09-16,43.6166163,-116.200886
Boston MA,16,2019-09-16,42.3602534,-71.0582912
Bowling Green KY,15,2019-09-16,36.9903199,-86.4436018
Buffalo NY,18,2019-09-16,42.8867166,-78.8783922
Burlington VT,18,2019-09-16,44.4762975,-73.2135472
Butte,21,2019-09-16,39.6519275,-121.5858444
Casper,23,2019-09-16,42.866632,-106.313081
Cedar Rapids,18,2019-09-16,41.9758872,-91.6704053
Champaign,19,2019-09-16,40.1164205,-88.2433829
Charleston SC,13,2019-09-16,32.7876012,-79.9402728
Charleston,18,2019-09-16,32.7876012,-79.9402728
Charlotte NC,15,2019-09-16,35.2270869,-80.8431268
Charlottesville VA,17,2019-09-16,38.029306,-78.4766781
Chattanooga TN,16,2019-09-16,35.0457219,-85.3094883
Cheyenne WY,25,2019-09-16,45.2519491,-75.7306849
Chicago IL,15,2019-09-16,41.8755616,-87.6244212
Chico,20,2019-09-16,39.7284945,-121.8374777
Cincinnati OH,19,2019-09-16,39.1014537,-84.5124602
Clarksburg,12,2019-09-16,39.2806451,-80.3445341
Cleveland,18,2019-09-16,41.5051613,-81.6934446
Colorado Springs,22,2019-09-16,38.8339578,-104.8253485
Columbia SC,13,2019-09-16,34.0007493,-81.0343313
Columbia,17,2019-09-16,2.8894434,-73.783892
Columbus GA,14,2019-09-16,43.1830762,-79.8147518
Columbus OH,18,2019-09-16,39.9622601,-83.0007065
Columbus,14,2019-09-16,39.9622601,-83.0007065
Corpus Christi TX,10,2019-09-16,27.7477253,-97.4014129
Dallas,15,2019-09-16,32.7762719,-96.7968559
Davenport IA,18,2019-09-16,41.5236436,-90.5776368
Dayton OH,17,2019-09-16,39.7589478,-84.1916069
Denver CO,20,2019-09-16,39.7348381,-104.9653271
Des Moines,20,2019-09-16,41.5910641,-93.6037149
Detroit MI,15,2019-09-16,42.3315509,-83.0466403
Dothan AL,19,2019-09-16,31.2237434,-85.3933906
Duluth MN,22,2019-09-16,46.7729322,-92.1251218
El Paso TX,15,2019-09-16,31.7754152,-106.4646348
Elmira NY,22,2019-09-16,42.0897965,-76.8077338
Erie PA,23,2019-09-16,42.1294712,-80.0852695
Eugene OR,21,2019-09-16,44.0505054,-123.0950506
Eureka CA,17,2019-09-16,45.4985271,-62.6816736
Evansville IN,20,2019-09-16,4.5777639,-7.6472486
Fairbanks AK,17,2019-09-16,64.837845,-147.716675
Fargo,23,2019-09-16,46.877229,-96.789821
Flint,19,2019-09-16,43.0161693,-83.6900211
Florence,10,2019-09-16,43.7698712,11.2555757
Fresno,20,2019-09-16,36.7295295,-119.70886126075588
Ft. Myers,11,2019-09-16,26.640628,-81.8723084
Ft. Smith,18,2019-09-16,35.3872218,-94.4248983
Ft. Wayne IN,24,2019-09-16,41.0799898,-85.1386015
Gainesville FL,14,2019-09-16,29.67357765,-82.32337460192167
Glendive MT,100,2019-09-16,47.10529,-104.71246
Grand Junction,28,2019-09-16,39.063956,-108.5507317
Grand Rapids,20,2019-09-16,42.9632405,-85.6678639
Great Falls MT,22,2019-09-16,47.5048851,-111.2918908
Green Bay,20,2019-09-16,44.5126379,-88.0125794
Greensboro,11,2019-09-16,36.0726355,-79.7919754
Greenville,13,2019-09-16,34.851354,-82.3984882
Greenville,15,2019-09-16,34.851354,-82.3984882
Greenwood,9,2019-09-16,37.8709542,-96.2471338
Harlingen,12,2019-09-16,26.1908241,-97.6959794
Harrisburg,19,2019-09-16,40.2663107,-76.8861122
Harrisonburg VA,15,2019-09-16,38.4493315,-78.8688833
Hartford,15,2019-09-16,41.764582,-72.6908547
Hattiesburg,10,2019-09-16,31.3271189,-89.2903392
Helena MT,16,2019-09-16,46.5927425,-112.0362771
Honolulu HI,11,2019-09-16,21.304547,-157.8556764
Houston TX,11,2019-09-16,29.7589382,-95.3676974
Huntsville,18,2019-09-16,34.729847,-86.5859011
Idaho Falls,27,2019-09-16,43.4935245,-112.0400919
Indianapolis IN,21,2019-09-16,39.7683331,-86.1583502
Jackson MS,10,2019-09-16,28.530801699999998,-81.30324431076107
Jackson TN,13,2019-09-16,35.6144446,-88.8177418
Jacksonville FL,11,2019-09-16,30.3321838,-81.655651
Johnstown,21,2019-09-16,40.3267407,-78.9219698
Jonesboro AR,16,2019-09-16,35.8428646,-90.7034522
Joplin MO,21,2019-09-16,37.08418,-94.51323
Juneau AK,19,2019-09-16,58.3019496,-134.419734
Kansas City MO,18,2019-09-16,39.100105,-94.5781416
Knoxville TN,18,2019-09-16,35.9603948,-83.9210261
La Crosse,22,2019-09-16,43.8014053,-91.2395429
Lafayette IN,24,2019-09-16,40.4167022,-86.8752869
Lafayette LA,10,2019-09-16,30.2240897,-92.0198427
Lake Charles LA,11,2019-09-16,30.2265949,-93.2173759
Lansing MI,20,2019-09-16,42.7338147,-84.5207088
Laredo TX,13,2019-09-16,27.5199841,-99.4953764
Las Vegas NV,22,2019-09-16,36.1672559,-115.1485163
Lexington KY,15,2019-09-16,38.0464066,-84.4970393
Lima OH,18,2019-09-16,40.7399785,-84.105006
Lincoln,22,2019-09-16,47.8299069,-118.414727
Little Rock,16,2019-09-16,34.7464809,-92.2895948
Los Angeles CA,15,2019-09-16,34.0536909,-118.2427666
Louisville KY,17,2019-09-16,38.2542376,-85.759407
Lubbock TX,17,2019-09-16,33.5635206,-101.879336
Macon GA,12,2019-09-16,32.8406946,-83.6324022
Madison WI,16,2019-09-16,43.074761,-89.3837613
Mankato MN,20,2019-09-16,44.1634663,-93.9993505
Marquette MI,26,2019-09-16,46.4481521,-87.6305899
Medford,18,2019-09-16,42.4184296,-71.1061639
Memphis TN,12,2019-09-16,35.1490215,-90.0516285
Meridian MS,8,2019-09-16,43.61732135,-116.40613112241579
Miami,9,2019-09-16,25.7742658,-80.1936589
Milwaukee WI,18,2019-09-16,43.0349931,-87.922497
Minneapolis,17,2019-09-16,44.9772995,-93.2654692
Minot,22,2019-09-16,47.6698594,4.8786165
Missoula MT,19,2019-09-16,46.8701049,-113.9952672
Mobile AL,17,2019-09-16,39.092585,-84.853229
Monroe LA,10,2019-09-16,38.2722313,-90.1792484
Monterey,18,2019-09-16,36.2231079,-121.3877428
Montgomery,8,2019-09-16,32.3669656,-86.3006485
Nashville TN,16,2019-09-16,36.1622296,-86.7743531
New Orleans LA,10,2019-09-16,29.9499323,-90.0701156
New York NY,10,2019-09-16,40.7127281,-74.0060152
Norfolk,14,2019-09-16,52.666667,1.0
North Platte NE,18,2019-09-16,41.1238873,-100.7654232
Odessa,10,2019-09-16,46.4873195,30.7392776
Oklahoma City OK,19,2019-09-16,35.4729886,-97.5170536
Omaha NE,19,2019-09-16,41.2587459,-95.9383758
Orlando,14,2019-09-16,28.5421109,-81.3790304
Ottumwa IA,17,2019-09-16,41.0200145,-92.4112963
Paducah KY,19,2019-09-16,37.0833893,-88.6000478
Palm Springs CA,16,2019-09-16,33.8246269,-116.540303
Panama City FL,14,2019-09-16,30.1600827,-85.6545729
Parkersburg WV,21,2019-09-16,39.2699565,-81.5506916
Peoria,16,2019-09-16,40.6938609,-89.5891008
Philadelphia PA,15,2019-09-16,39.9527237,-75.1635262
Phoenix AZ,18,2019-09-16,33.4484367,-112.0741417
Pittsburgh PA,17,2019-09-16,40.4416941,-79.9900861
Portland OR,17,2019-09-16,45.5202471,-122.6741949
Portland,16,2019-09-16,45.5202471,-122.6741949
Presque Isle ME,21,2019-09-16,46.681479,-68.016357
Providence RI,17,2019-09-16,51.4325409,-2.6642358
Quincy IL,18,2019-09-16,39.9368363,-120.9471764
Raleigh,15,2019-09-16,35.7803977,-78.6390989
Rapid City SD,32,2019-09-16,44.081176,-103.228006
Reno NV,24,2019-09-16,39.5261206,-119.8126581
Richmond,15,2019-09-16,37.5385087,-77.43428
Roanoke,20,2019-09-16,37.270973,-79.9414313
Rochester MN,18,2019-09-16,44.0234387,-92.4630182
Rochester NY,14,2019-09-16,43.157285,-77.615214
Rockford IL,21,2019-09-16,42.2713945,-89.093966
Sacramento,17,2019-09-16,38.5815719,-121.4943996
Salisbury MD,11,2019-09-16,38.3662114,-75.6008881
Salt Lake City UT,29,2019-09-16,40.7596198,-111.8867975
San Angelo TX,21,2019-09-16,31.4648357,-100.4398442
San Antonio TX,15,2019-09-16,29.4246002,-98.4951405
San Diego CA,17,2019-09-16,32.7174209,-117.1627714
San Francisco,12,2019-09-16,37.7790262,-122.4199061
Santa Barbara,19,2019-09-16,34.4221319,-119.7026673
Savannah GA,15,2019-09-16,43.4129206,-79.7028276
Seattle,18,2019-09-16,47.6038321,-122.3300624
Sherman TX,17,2019-09-16,36.2452294,-101.8858689
Shreveport LA,12,2019-09-16,32.5221828,-93.7651944
Sioux City IA,30,2019-09-16,42.4966815,-96.4058782
Sioux Fall,21,2019-09-16,46.737158,-90.8801835
South Bend,18,2019-09-16,41.6833813,-86.2500066
Spokane WA,22,2019-09-16,47.6579425,-117.4212265
Springfield MO,21,2019-09-16,37.2166779,-93.2920373
Springfield,14,2019-09-16,39.7990175,-89.6439575
St. Joseph MO,18,2019-09-16,39.7686055,-94.8466322
St. Louis MO,17,2019-09-16,38.6529545,-90.24111656024635
Syracuse NY,19,2019-09-16,43.0481221,-76.1474244
Tallahassee FL,11,2019-09-16,30.4380832,-84.2809332
Tampa,13,2019-09-16,27.9477595,-82.458444
Terre Haute IN,22,2019-09-16,39.4667025,-87.4139119
Toledo OH,17,2019-09-16,41.6786754,-83.5127283
Topeka KS,25,2019-09-16,39.049011,-95.677556
Traverse City,23,2019-09-16,44.7606441,-85.6165301
Tri,18,2019-09-16,35.875259,-78.7751271
Tucson,19,2019-09-16,32.2228765,-110.9748477
Tulsa OK,18,2019-09-16,36.1556805,-95.9929113
Twin Falls ID,23,2019-09-16,42.5704219,-114.4603171
Tyler,17,2019-09-16,32.3512601,-95.3010624
Utica NY,16,2019-09-16,43.1009031,-75.2326641
Victoria TX,9,2019-09-16,28.8026443,-96.9766308
Waco,17,2019-09-16,31.549333,-97.1466695
Washington DC,14,2019-09-16,38.8948932,-77.0365529
Watertown NY,17,2019-09-16,43.9747838,-75.9107565
Wausau,15,2019-09-16,44.9596017,-89.6298239
West Palm Beach,11,2019-09-16,26.7153425,-80.0533746
Wheeling WV,17,2019-09-16,40.0639616,-80.7209149
Wichita Falls TX,13,2019-09-16,33.9137085,-98.4933873
Wichita,22,2019-09-16,37.6922361,-97.3375448
Wilkes Barre,18,2019-09-16,41.2464824,-75.8817316
Wilmington NC,15,2019-09-16,34.2257282,-77.9447107
Yakima,20,2019-09-16,46.601557,-120.5108421
Youngstown OH,22,2019-09-16,41.1035786,-80.6520161
Yuma AZ,20,2019-09-16,32.6926588,-114.6276157
Zanesville OH,18,2019-09-16,39.9403453,-82.0131924
Abilene,14,2019-09-23,32.44645,-99.7475905
Albany GA,28,2019-09-23,51.7468576,-0.3383107
Albany,9,2019-09-23,42.6511674,-73.754968
Albuquerque,12,2019-09-23,35.0841034,-106.6509851
Alexandria LA,24,2019-09-23,31.199004,29.894378
Amarillo TX,21,2019-09-23,35.2072185,-101.8338246
Anchorage AK,16,2019-09-23,61.2163129,-149.8948523
Atlanta GA,8,2019-09-23,33.7490987,-84.3901849
Augusta GA,10,2019-09-23,33.4709714,-81.9748429
Austin TX,10,2019-09-23,30.2711286,-97.7436995
Bakersfield CA,19,2019-09-23,35.3738712,-119.0194639
Baltimore MD,7,2019-09-23,39.2908816,-76.610759
Bangor ME,16,2019-09-23,29.0659229,-110.97133
Baton Rouge LA,17,2019-09-23,30.4459596,-91.18738
Beaumont,10,2019-09-23,30.0860459,-94.1018461
Bend OR,17,2019-09-23,44.0581728,-121.3153096
"Billings, MT",30,2019-09-23,45.7874957,-108.49607
Binghamton NY,29,2019-09-23,42.096968,-75.914341
Birmingham AL,8,2019-09-23,33.570499,-86.765783
Bluefield,16,2019-09-23,37.2698395,-81.2223195
Boise ID,13,2019-09-23,43.6166163,-116.200886
Boston MA,11,2019-09-23,42.3602534,-71.0582912
Bowling Green KY,18,2019-09-23,36.9903199,-86.4436018
Buffalo NY,9,2019-09-23,42.8867166,-78.8783922
Burlington VT,12,2019-09-23,44.4762975,-73.2135472
Butte,16,2019-09-23,39.6519275,-121.5858444
Casper,61,2019-09-23,42.866632,-106.313081
Cedar Rapids,14,2019-09-23,41.9758872,-91.6704053
Champaign,14,2019-09-23,40.1164205,-88.2433829
Charleston SC,7,2019-09-23,32.7876012,-79.9402728
Charleston,10,2019-09-23,32.7876012,-79.9402728
Charlotte NC,12,2019-09-23,35.2270869,-80.8431268
Charlottesville VA,24,2019-09-23,38.029306,-78.4766781
Chattanooga TN,12,2019-09-23,35.0457219,-85.3094883
Cheyenne WY,27,2019-09-23,45.2519491,-75.7306849
Chicago IL,10,2019-09-23,41.8755616,-87.6244212
Chico,24,2019-09-23,39.7284945,-121.8374777
Cincinnati OH,10,2019-09-23,39.1014537,-84.5124602
Clarksburg,19,2019-09-23,39.2806451,-80.3445341
Cleveland,9,2019-09-23,41.5051613,-81.6934446
Colorado Springs,12,2019-09-23,38.8339578,-104.8253485
Columbia SC,15,2019-09-23,34.0007493,-81.0343313
Columbia,13,2019-09-23,2.8894434,-73.783892
Columbus GA,22,2019-09-23,43.1830762,-79.8147518
Columbus OH,11,2019-09-23,39.9622601,-83.0007065
Corpus Christi TX,9,2019-09-23,27.7477253,-97.4014129
Dallas,9,2019-09-23,32.7762719,-96.7968559
Davenport IA,23,2019-09-23,41.5236436,-90.5776368
Dayton OH,7,2019-09-23,39.7589478,-84.1916069
Denver CO,14,2019-09-23,39.7348381,-104.9653271
Des Moines,11,2019-09-23,41.5910641,-93.6037149
Detroit MI,8,2019-09-23,42.3315509,-83.0466403
Dothan AL,52,2019-09-23,31.2237434,-85.3933906
Duluth MN,19,2019-09-23,46.7729322,-92.1251218
El Paso TX,9,2019-09-23,31.7754152,-106.4646348
Elmira NY,27,2019-09-23,42.0897965,-76.8077338
Erie PA,13,2019-09-23,42.1294712,-80.0852695
Eugene OR,13,2019-09-23,44.0505054,-123.0950506
Evansville IN,24,2019-09-23,4.5777639,-7.6472486
Fargo,8,2019-09-23,46.877229,-96.789821
Flint,15,2019-09-23,43.0161693,-83.6900211
Florence,6,2019-09-23,43.7698712,11.2555757
Fresno,14,2019-09-23,36.7295295,-119.70886126075588
Ft. Myers,10,2019-09-23,26.640628,-81.8723084
Ft. Smith,16,2019-09-23,35.3872218,-94.4248983
Ft. Wayne IN,13,2019-09-23,41.0799898,-85.1386015
Gainesville FL,20,2019-09-23,29.67357765,-82.32337460192167
Grand Junction,40,2019-09-23,39.063956,-108.5507317
Grand Rapids,9,2019-09-23,42.9632405,-85.6678639
Green Bay,10,2019-09-23,44.5126379,-88.0125794
Greensboro,7,2019-09-23,36.0726355,-79.7919754
Greenville,10,2019-09-23,34.851354,-82.3984882
Greenville,12,2019-09-23,34.851354,-82.3984882
Harlingen,11,2019-09-23,26.1908241,-97.6959794
Harrisburg,13,2019-09-23,40.2663107,-76.8861122
Harrisonburg VA,14,2019-09-23,38.4493315,-78.8688833
Hartford,8,2019-09-23,41.764582,-72.6908547
Hattiesburg,26,2019-09-23,31.3271189,-89.2903392
Honolulu HI,9,2019-09-23,21.304547,-157.8556764
Houston TX,9,2019-09-23,29.7589382,-95.3676974
Huntsville,8,2019-09-23,34.729847,-86.5859011
Idaho Falls,13,2019-09-23,43.4935245,-112.0400919
Indianapolis IN,14,2019-09-23,39.7683331,-86.1583502
Jackson MS,11,2019-09-23,28.530801699999998,-81.30324431076107
Jackson TN,19,2019-09-23,35.6144446,-88.8177418
Jacksonville FL,8,2019-09-23,30.3321838,-81.655651
Johnstown,15,2019-09-23,40.3267407,-78.9219698
Jonesboro AR,31,2019-09-23,35.8428646,-90.7034522
Joplin MO,24,2019-09-23,37.08418,-94.51323
Kansas City MO,14,2019-09-23,39.100105,-94.5781416
Knoxville TN,12,2019-09-23,35.9603948,-83.9210261
La Crosse,18,2019-09-23,43.8014053,-91.2395429
Lafayette IN,18,2019-09-23,40.4167022,-86.8752869
Lafayette LA,19,2019-09-23,30.2240897,-92.0198427
Lake Charles LA,17,2019-09-23,30.2265949,-93.2173759
Lansing MI,10,2019-09-23,42.7338147,-84.5207088
Las Vegas NV,9,2019-09-23,36.1672559,-115.1485163
Lexington KY,10,2019-09-23,38.0464066,-84.4970393
Lima OH,38,2019-09-23,40.7399785,-84.105006
Lincoln,15,2019-09-23,47.8299069,-118.414727
Little Rock,16,2019-09-23,34.7464809,-92.2895948
Los Angeles CA,11,2019-09-23,34.0536909,-118.2427666
Louisville KY,15,2019-09-23,38.2542376,-85.759407
Lubbock TX,24,2019-09-23,33.5635206,-101.879336
Macon GA,7,2019-09-23,32.8406946,-83.6324022
Madison WI,4,2019-09-23,43.074761,-89.3837613
Mankato MN,61,2019-09-23,44.1634663,-93.9993505
Marquette MI,31,2019-09-23,46.4481521,-87.6305899
Memphis TN,9,2019-09-23,35.1490215,-90.0516285
