geoName,interest,date,lat,long
Albany NY USA,7,2019-01-01,42.6511674,-73.754968
Albuquerque NM USA,12,2019-01-01,35.0841034,-106.6509851
Amarillo TX USA,23,2019-01-01,35.2072185,-101.8338246
Atlanta GA USA,3,2019-01-01,33.7490987,-84.3901849
Augusta GA USA,15,2019-01-01,33.4709714,-81.9748429
Austin TX USA,5,2019-01-01,30.2711286,-97.7436995
Bakersfield CA USA,15,2019-01-01,35.3738712,-119.0194639
Baltimore MD USA,5,2019-01-01,39.284749399999995,-76.62047463969989
Bangor ME USA,29,2019-01-01,44.8011821,-68.7778138
Birmingham AL USA,7,2019-01-01,33.570499,-86.765783
Boston MA USA,5,2019-01-01,42.3602534,-71.0582912
Buffalo NY USA,7,2019-01-01,42.8867166,-78.8783922
Butte MT USA,45,2019-01-01,46.0131505,-112.5365089
Champaign IL USA,12,2019-01-01,40.1164205,-88.2433829
Charleston SC USA,19,2019-01-01,32.7876012,-79.9402728
Charleston WV USA,22,2019-01-01,38.3505995,-81.6332812
Charlotte NC USA,4,2019-01-01,35.2270869,-80.8431268
Chattanooga TN USA,10,2019-01-01,35.0457219,-85.3094883
Chicago IL USA,6,2019-01-01,41.8755616,-87.6244212
Cincinnati OH USA,14,2019-01-01,39.1014537,-84.5124602
Clarksburg WV USA,47,2019-01-01,39.2806451,-80.3445341
Cleveland OH USA,7,2019-01-01,41.5051613,-81.6934446
Colorado Springs CO USA,9,2019-01-01,38.8339578,-104.8253485
Columbia MO USA,23,2019-01-01,38.951883,-92.3337366
Columbus OH USA,8,2019-01-01,39.9622601,-83.0007065
Dallas TX USA,3,2019-01-01,32.7762719,-96.7968559
Dayton OH USA,8,2019-01-01,39.7589478,-84.1916069
Denver CO USA,5,2019-01-01,39.7348381,-104.9653271
Des Moines IA USA,20,2019-01-01,41.5910641,-93.6037149
Detroit MI USA,7,2019-01-01,42.3315509,-83.0466403
El Paso TX USA,10,2019-01-01,31.7754152,-106.4646348
Eugene OR USA,15,2019-01-01,44.0505054,-123.0950506
Flint MI USA,9,2019-01-01,43.0161693,-83.6900211
Fresno CA USA,6,2019-01-01,36.7295295,-119.70886126075588
Ft. Wayne IN USA,15,2019-01-01,41.0799898,-85.1386015
Gainesville FL USA,25,2019-01-01,29.67357765,-82.32337460192167
Grand Junction CO USA,55,2019-01-01,39.063956,-108.5507317
Grand Rapids MI USA,13,2019-01-01,42.9142413,-85.533004
Great Falls MT USA,74,2019-01-01,47.5048851,-111.2918908
Green Bay WI USA,16,2019-01-01,44.5126379,-88.0125794
Greensboro NC USA,5,2019-01-01,36.0726355,-79.7919754
Greenville SC USA,6,2019-01-01,34.851354,-82.3984882
Harlingen TX USA,8,2019-01-01,26.1908241,-97.6959794
Harrisburg PA USA,5,2019-01-01,40.2663107,-76.8861122
Hartford CT USA,8,2019-01-01,43.648048,-70.241416
Honolulu HI USA,6,2019-01-01,21.304547,-157.8556764
Houston TX USA,1,2019-01-01,29.7589382,-95.3676974
Huntsville AL USA,20,2019-01-01,33.554113,-86.804219
Indianapolis IN USA,5,2019-01-01,39.7683331,-86.1583502
Johnstown PA USA,13,2019-01-01,40.3267407,-78.9219698
Kansas City MO USA,11,2019-01-01,39.100105,-94.5781416
Knoxville TN USA,14,2019-01-01,35.9603948,-83.9210261
La Crosse WI USA,28,2019-01-01,43.8014053,-91.2395429
Lansing MI USA,6,2019-01-01,42.7338147,-84.5207088
Las Vegas NV USA,7,2019-01-01,36.1672559,-115.1485163
Lexington KY USA,16,2019-01-01,38.0464066,-84.4970393
Los Angeles CA USA,4,2019-01-01,34.0536909,-118.2427666
Louisville KY USA,5,2019-01-01,38.2542376,-85.759407
Lubbock TX USA,24,2019-01-01,33.5635206,-101.879336
Madison WI USA,17,2019-01-01,43.074761,-89.3837613
Mankato MN USA,70,2019-01-01,44.1634663,-93.9993505
Medford OR USA,21,2019-01-01,42.3264181,-122.8718605
Memphis TN USA,9,2019-01-01,35.1490215,-90.0516285
Milwaukee WI USA,12,2019-01-01,43.0349931,-87.922497
Minneapolis MN USA,10,2019-01-01,44.9772995,-93.2654692
Monterey CA USA,14,2019-01-01,36.2231079,-121.3877428
Nashville TN USA,5,2019-01-01,36.1622296,-86.7743531
New York NY USA,3,2019-01-01,40.7127281,-74.0060152
Norfolk VA USA,4,2019-01-01,36.8889933,-76.2481624
Oklahoma City OK USA,7,2019-01-01,35.4729886,-97.5170536
Omaha NE USA,19,2019-01-01,41.2587459,-95.9383758
Orlando FL USA,3,2019-01-01,28.5479786,-81.41278418563017
Panama City FL USA,27,2019-01-01,30.1600827,-85.6545729
Peoria IL USA,30,2019-01-01,40.6938609,-89.5891008
Philadelphia PA USA,5,2019-01-01,39.9527237,-75.1635262
Phoenix AZ USA,5,2019-01-01,33.4484367,-112.0741417
Pittsburgh PA USA,9,2019-01-01,40.4416941,-79.9900861
Portland OR USA,4,2019-01-01,45.5202471,-122.6741949
Portland ME USA,8,2019-01-01,43.6610277,-70.2548596
Providence RI USA,5,2019-01-01,41.8239891,-71.4128343
Raleigh NC USA,5,2019-01-01,35.7803977,-78.6390989
Reno NV USA,17,2019-01-01,39.5261206,-119.8126581
Rochester MN USA,24,2019-01-01,44.0234387,-92.4630182
Rochester NY USA,8,2019-01-01,43.157285,-77.615214
Sacramento CA USA,5,2019-01-01,38.5815719,-121.4943996
Salt Lake City UT USA,5,2019-01-01,40.7596198,-111.8867975
San Antonio TX USA,3,2019-01-01,29.4246002,-98.4951405
San Diego CA USA,6,2019-01-01,32.7174209,-117.1627714
San Francisco CA USA,4,2019-01-01,37.7790262,-122.4199061
Seattle WA USA,4,2019-01-01,47.6038321,-122.3300624
Sherman TX USA,37,2019-01-01,36.2452294,-101.8858689
Shreveport LA USA,13,2019-01-01,32.5221828,-93.7651944
Sioux Falls SD USA,30,2019-01-01,43.5499749,-96.700327
South Bend IN USA,12,2019-01-01,41.6833813,-86.2500066
Spokane WA USA,9,2019-01-01,47.6579425,-117.4212265
Springfield MA USA,12,2019-01-01,42.1014831,-72.589811
St. Joseph MO USA,100,2019-01-01,39.7686055,-94.8466322
St. Louis MO USA,8,2019-01-01,38.6268039,-90.1994097
Syracuse NY USA,10,2019-01-01,43.0481221,-76.1474244
Tampa FL USA,2,2019-01-01,27.9518491,-82.4563972
Terre Haute IN USA,72,2019-01-01,39.4667025,-87.4139119
Toledo OH USA,9,2019-01-01,41.6786754,-83.5127283
Topeka KS USA,46,2019-01-01,39.049011,-95.677556
Traverse City MI USA,19,2019-01-01,44.7606441,-85.6165301
Tri VA USA,14,2019-01-01,38.5467876,-77.3366491
Tucson AZ USA,8,2019-01-01,32.2228765,-110.9748477
Tulsa OK USA,7,2019-01-01,36.1556805,-95.9929113
Washington DC USA,4,2019-01-01,38.8948932,-77.0365529
Wausau WI USA,22,2019-01-01,44.9596017,-89.6298239
West Palm Beach FL USA,4,2019-01-01,26.7153425,-80.0533746
Wichita KS USA,9,2019-01-01,37.6922361,-97.3375448
Yakima WA USA,15,2019-01-01,46.601557,-120.5108421
Abilene TX USA,29,2019-01-07,32.44645,-99.7475905
Albany NY USA,7,2019-01-07,42.6511674,-73.754968
Albuquerque NM USA,7,2019-01-07,35.0841034,-106.6509851
Atlanta GA USA,4,2019-01-07,33.7490987,-84.3901849
Augusta GA USA,11,2019-01-07,33.4709714,-81.9748429
Austin TX USA,4,2019-01-07,30.2711286,-97.7436995
Bakersfield CA USA,10,2019-01-07,35.3738712,-119.0194639
Baltimore MD USA,3,2019-01-07,39.284749399999995,-76.62047463969989
Bangor ME USA,21,2019-01-07,44.8011821,-68.7778138
Baton Rouge LA USA,12,2019-01-07,30.4459596,-91.18738
Bend OR USA,31,2019-01-07,44.0581728,-121.3153096
"Billings, MT USA",29,2019-01-07,45.7874957,-108.49607
Birmingham AL USA,3,2019-01-07,33.570499,-86.765783
Boise ID USA,8,2019-01-07,43.6166163,-116.200886
Boston MA USA,5,2019-01-07,42.3602534,-71.0582912
Buffalo NY USA,10,2019-01-07,42.8867166,-78.8783922
Burlington VT USA,12,2019-01-07,44.4762975,-73.2135472
Cedar Rapids IA USA,19,2019-01-07,41.9758872,-91.6704053
Champaign IL USA,17,2019-01-07,40.1164205,-88.2433829
Charleston SC USA,7,2019-01-07,32.7876012,-79.9402728
Charlotte NC USA,3,2019-01-07,35.2270869,-80.8431268
Chattanooga TN USA,7,2019-01-07,35.0457219,-85.3094883
Cheyenne WY USA,49,2019-01-07,40.640361,-74.367318
Chicago IL USA,7,2019-01-07,41.8755616,-87.6244212
Cincinnati OH USA,8,2019-01-07,39.1014537,-84.5124602
Cleveland OH USA,7,2019-01-07,41.5051613,-81.6934446
Colorado Springs CO USA,7,2019-01-07,38.8339578,-104.8253485
Columbia SC USA,12,2019-01-07,34.0007493,-81.0343313
Columbus GA USA,13,2019-01-07,32.4609764,-84.9877094
Columbus OH USA,8,2019-01-07,39.9622601,-83.0007065
Dallas TX USA,2,2019-01-07,32.7762719,-96.7968559
Davenport IA USA,14,2019-01-07,41.5236436,-90.5776368
Dayton OH USA,6,2019-01-07,39.7589478,-84.1916069
Denver CO USA,7,2019-01-07,39.7348381,-104.9653271
Des Moines IA USA,11,2019-01-07,41.5910641,-93.6037149
Detroit MI USA,7,2019-01-07,42.3315509,-83.0466403
Elmira NY USA,34,2019-01-07,42.0897965,-76.8077338
Eugene OR USA,20,2019-01-07,44.0505054,-123.0950506
Evansville IN USA,18,2019-01-07,37.9747645,-87.5558483
Fairbanks AK USA,61,2019-01-07,64.837845,-147.716675
Fargo ND USA,17,2019-01-07,46.877229,-96.789821
Flint MI USA,11,2019-01-07,43.0161693,-83.6900211
Fresno CA USA,4,2019-01-07,36.7295295,-119.70886126075588
Ft. Myers FL USA,5,2019-01-07,26.640628,-81.8723084
Ft. Smith AR USA,8,2019-01-07,35.3872218,-94.4248983
Ft. Wayne IN USA,16,2019-01-07,41.0799898,-85.1386015
Grand Rapids MI USA,8,2019-01-07,42.9142413,-85.533004
Great Falls MT USA,57,2019-01-07,47.5048851,-111.2918908
Green Bay WI USA,12,2019-01-07,44.5126379,-88.0125794
Greensboro NC USA,4,2019-01-07,36.0726355,-79.7919754
Greenville SC USA,7,2019-01-07,34.851354,-82.3984882
Harlingen TX USA,6,2019-01-07,26.1908241,-97.6959794
Harrisburg PA USA,5,2019-01-07,40.2663107,-76.8861122
Hartford CT USA,5,2019-01-07,43.648048,-70.241416
Hattiesburg MS USA,35,2019-01-07,31.3271189,-89.2903392
Honolulu HI USA,9,2019-01-07,21.304547,-157.8556764
Houston TX USA,5,2019-01-07,29.7589382,-95.3676974
Huntsville AL USA,7,2019-01-07,33.554113,-86.804219
Idaho Falls ID USA,19,2019-01-07,43.4935245,-112.0400919
Indianapolis IN USA,7,2019-01-07,39.7683331,-86.1583502
Jackson MS USA,8,2019-01-07,28.530801699999998,-81.30324431076107
Jacksonville FL USA,6,2019-01-07,30.3321838,-81.655651
Johnstown PA USA,9,2019-01-07,40.3267407,-78.9219698
Joplin MO USA,22,2019-01-07,37.08418,-94.51323
Kansas City MO USA,7,2019-01-07,39.100105,-94.5781416
Knoxville TN USA,5,2019-01-07,35.9603948,-83.9210261
Lafayette IN USA,37,2019-01-07,40.4167022,-86.8752869
Lafayette LA USA,14,2019-01-07,30.2240897,-92.0198427
Lansing MI USA,12,2019-01-07,42.7338147,-84.5207088
Las Vegas NV USA,14,2019-01-07,36.1672559,-115.1485163
Lexington KY USA,12,2019-01-07,38.0464066,-84.4970393
Lincoln NE USA,10,2019-01-07,40.8088861,-96.7077751
Little Rock AR USA,10,2019-01-07,34.7464809,-92.2895948
Los Angeles CA USA,4,2019-01-07,34.0536909,-118.2427666
Louisville KY USA,6,2019-01-07,38.2542376,-85.759407
Lubbock TX USA,17,2019-01-07,33.5635206,-101.879336
Madison WI USA,10,2019-01-07,43.074761,-89.3837613
Mankato MN USA,50,2019-01-07,44.1634663,-93.9993505
Medford OR USA,16,2019-01-07,42.3264181,-122.8718605
Memphis TN USA,5,2019-01-07,35.1490215,-90.0516285
Miami FL USA,3,2019-01-07,25.7742658,-80.1936589
Milwaukee WI USA,7,2019-01-07,43.0349931,-87.922497
Minneapolis MN USA,6,2019-01-07,44.9772995,-93.2654692
Minot ND USA,36,2019-01-07,48.23251,-101.296273
Monterey CA USA,9,2019-01-07,36.2231079,-121.3877428
Nashville TN USA,3,2019-01-07,36.1622296,-86.7743531
New Orleans LA USA,4,2019-01-07,29.9499323,-90.0701156
New York NY USA,5,2019-01-07,40.7127281,-74.0060152
Norfolk VA USA,6,2019-01-07,36.8889933,-76.2481624
Oklahoma City OK USA,10,2019-01-07,35.4729886,-97.5170536
Omaha NE USA,5,2019-01-07,41.2587459,-95.9383758
Orlando FL USA,3,2019-01-07,28.5479786,-81.41278418563017
Ottumwa IA USA,77,2019-01-07,41.0200145,-92.4112963
Peoria IL USA,15,2019-01-07,40.6938609,-89.5891008
Philadelphia PA USA,5,2019-01-07,39.9527237,-75.1635262
Phoenix AZ USA,7,2019-01-07,33.4484367,-112.0741417
Pittsburgh PA USA,4,2019-01-07,40.4416941,-79.9900861
Portland OR USA,3,2019-01-07,45.5202471,-122.6741949
Portland ME USA,6,2019-01-07,43.6610277,-70.2548596
Providence RI USA,4,2019-01-07,41.8239891,-71.4128343
Raleigh NC USA,5,2019-01-07,35.7803977,-78.6390989
Rapid City SD USA,32,2019-01-07,44.081176,-103.228006
Richmond VA USA,4,2019-01-07,37.5385087,-77.43428
Roanoke VA USA,6,2019-01-07,37.270973,-79.9414313
Rochester MN USA,35,2019-01-07,44.0234387,-92.4630182
Rochester NY USA,14,2019-01-07,43.157285,-77.615214
Rockford IL USA,31,2019-01-07,42.2713945,-89.093966
Sacramento CA USA,5,2019-01-07,38.5815719,-121.4943996
Salisbury MD USA,19,2019-01-07,38.3662114,-75.6008881
Salt Lake City UT USA,8,2019-01-07,40.7596198,-111.8867975
San Antonio TX USA,3,2019-01-07,29.4246002,-98.4951405
San Diego CA USA,6,2019-01-07,32.7174209,-117.1627714
San Francisco CA USA,4,2019-01-07,37.7790262,-122.4199061
Seattle WA USA,7,2019-01-07,47.6038321,-122.3300624
Shreveport LA USA,9,2019-01-07,32.5221828,-93.7651944
Sioux City IA USA,20,2019-01-07,42.4966815,-96.4058782
Sioux Falls SD USA,18,2019-01-07,43.5499749,-96.700327
South Bend IN USA,9,2019-01-07,41.6833813,-86.2500066
Spokane WA USA,8,2019-01-07,47.6579425,-117.4212265
Springfield MO USA,7,2019-01-07,37.2166779,-93.2920373
St. Louis MO USA,6,2019-01-07,38.6268039,-90.1994097
Tallahassee FL USA,9,2019-01-07,30.4380832,-84.2809332
Tampa FL USA,2,2019-01-07,27.9518491,-82.4563972
Toledo OH USA,13,2019-01-07,41.6786754,-83.5127283
Topeka KS USA,16,2019-01-07,39.049011,-95.677556
Traverse City MI USA,14,2019-01-07,44.7606441,-85.6165301
Tucson AZ USA,10,2019-01-07,32.2228765,-110.9748477
Tulsa OK USA,5,2019-01-07,36.1556805,-95.9929113
Tyler TX USA,12,2019-01-07,32.3512601,-95.3010624
Waco TX USA,7,2019-01-07,31.549333,-97.1466695
Washington DC USA,7,2019-01-07,38.8948932,-77.0365529
Watertown NY USA,32,2019-01-07,43.9747838,-75.9107565
Wausau WI USA,17,2019-01-07,44.9596017,-89.6298239
West Palm Beach FL USA,5,2019-01-07,26.7153425,-80.0533746
Wichita Falls TX USA,20,2019-01-07,33.9137085,-98.4933873
Wichita KS USA,12,2019-01-07,37.6922361,-97.3375448
Wilkes Barre PA USA,8,2019-01-07,41.2464824,-75.8817316
Wilmington NC USA,13,2019-01-07,34.2257282,-77.9447107
Yakima WA USA,18,2019-01-07,46.601557,-120.5108421
Youngstown OH USA,18,2019-01-07,41.1035786,-80.6520161
Zanesville OH USA,100,2019-01-07,39.9403453,-82.0131924
Albany GA USA,32,2019-01-14,40.0555158,-82.8457691
Albany NY USA,9,2019-01-14,42.6511674,-73.754968
Albuquerque NM USA,5,2019-01-14,35.0841034,-106.6509851
Anchorage AK USA,21,2019-01-14,61.2163129,-149.8948523
Atlanta GA USA,7,2019-01-14,33.7490987,-84.3901849
Augusta GA USA,16,2019-01-14,33.4709714,-81.9748429
Austin TX USA,9,2019-01-14,30.2711286,-97.7436995
Baltimore MD USA,8,2019-01-14,39.284749399999995,-76.62047463969989
Baton Rouge LA USA,11,2019-01-14,30.4459596,-91.18738
Beaumont TX USA,27,2019-01-14,30.0860459,-94.1018461
Binghamton NY USA,33,2019-01-14,42.096968,-75.914341
Birmingham AL USA,4,2019-01-14,33.570499,-86.765783
Bluefield WV USA,43,2019-01-14,37.2698395,-81.2223195
Boise ID USA,11,2019-01-14,43.6166163,-116.200886
Boston MA USA,8,2019-01-14,42.3602534,-71.0582912
Burlington VT USA,11,2019-01-14,44.4762975,-73.2135472
Butte MT USA,45,2019-01-14,46.0131505,-112.5365089
Cedar Rapids IA USA,10,2019-01-14,41.9758872,-91.6704053
Champaign IL USA,21,2019-01-14,40.1164205,-88.2433829
Charleston SC USA,10,2019-01-14,32.7876012,-79.9402728
Charlotte NC USA,6,2019-01-14,35.2270869,-80.8431268
Charlottesville VA USA,31,2019-01-14,38.029306,-78.4766781
Chicago IL USA,14,2019-01-14,41.8755616,-87.6244212
Cincinnati OH USA,16,2019-01-14,39.1014537,-84.5124602
Cleveland OH USA,16,2019-01-14,41.5051613,-81.6934446
Columbia SC USA,21,2019-01-14,34.0007493,-81.0343313
Columbus GA USA,17,2019-01-14,32.4609764,-84.9877094
Columbus OH USA,12,2019-01-14,39.9622601,-83.0007065
Dallas TX USA,4,2019-01-14,32.7762719,-96.7968559
Davenport IA USA,14,2019-01-14,41.5236436,-90.5776368
Dayton OH USA,16,2019-01-14,39.7589478,-84.1916069
Denver CO USA,6,2019-01-14,39.7348381,-104.9653271
Des Moines IA USA,20,2019-01-14,41.5910641,-93.6037149
Detroit MI USA,12,2019-01-14,42.3315509,-83.0466403
El Paso TX USA,10,2019-01-14,31.7754152,-106.4646348
Elmira NY USA,47,2019-01-14,42.0897965,-76.8077338
Erie PA USA,27,2019-01-14,42.1294712,-80.0852695
Eureka CA USA,64,2019-01-14,40.8020712,-124.1636729
Evansville IN USA,31,2019-01-14,37.9747645,-87.5558483
Fargo ND USA,24,2019-01-14,46.877229,-96.789821
Flint MI USA,19,2019-01-14,43.0161693,-83.6900211
Fresno CA USA,6,2019-01-14,36.7295295,-119.70886126075588
Ft. Myers FL USA,6,2019-01-14,26.640628,-81.8723084
Ft. Smith AR USA,33,2019-01-14,35.3872218,-94.4248983
Grand Rapids MI USA,17,2019-01-14,42.9142413,-85.533004
Green Bay WI USA,26,2019-01-14,44.5126379,-88.0125794
Greensboro NC USA,11,2019-01-14,36.0726355,-79.7919754
Greenville NC USA,11,2019-01-14,35.612661,-77.3663538
Greenville SC USA,12,2019-01-14,34.851354,-82.3984882
Harrisburg PA USA,5,2019-01-14,40.2663107,-76.8861122
Harrisonburg VA USA,36,2019-01-14,38.4493315,-78.8688833
Hartford CT USA,10,2019-01-14,43.648048,-70.241416
Houston TX USA,4,2019-01-14,29.7589382,-95.3676974
Huntsville AL USA,10,2019-01-14,33.554113,-86.804219
Idaho Falls ID USA,26,2019-01-14,43.4935245,-112.0400919
Indianapolis IN USA,18,2019-01-14,39.7683331,-86.1583502
Jacksonville FL USA,5,2019-01-14,30.3321838,-81.655651
Johnstown PA USA,25,2019-01-14,40.3267407,-78.9219698
Jonesboro AR USA,56,2019-01-14,35.8428646,-90.7034522
Kansas City MO USA,9,2019-01-14,39.100105,-94.5781416
Knoxville TN USA,14,2019-01-14,35.9603948,-83.9210261
La Crosse WI USA,19,2019-01-14,43.8014053,-91.2395429
Lafayette IN USA,100,2019-01-14,40.4167022,-86.8752869
Lafayette LA USA,20,2019-01-14,30.2240897,-92.0198427
Lansing MI USA,14,2019-01-14,42.7338147,-84.5207088
Las Vegas NV USA,7,2019-01-14,36.1672559,-115.1485163
Lexington KY USA,8,2019-01-14,38.0464066,-84.4970393
Los Angeles CA USA,5,2019-01-14,34.0536909,-118.2427666
Louisville KY USA,12,2019-01-14,38.2542376,-85.759407
Lubbock TX USA,22,2019-01-14,33.5635206,-101.879336
Macon GA USA,18,2019-01-14,32.8406946,-83.6324022
Madison WI USA,17,2019-01-14,43.074761,-89.3837613
Memphis TN USA,18,2019-01-14,35.1490215,-90.0516285
Miami FL USA,2,2019-01-14,25.7742658,-80.1936589
Milwaukee WI USA,13,2019-01-14,43.0349931,-87.922497
Minneapolis MN USA,10,2019-01-14,44.9772995,-93.2654692
Mobile AL USA,7,2019-01-14,39.092585,-84.853229
Nashville TN USA,5,2019-01-14,36.1622296,-86.7743531
New Orleans LA USA,5,2019-01-14,29.9499323,-90.0701156
New York NY USA,9,2019-01-14,40.7127281,-74.0060152
Norfolk VA USA,8,2019-01-14,36.8889933,-76.2481624
Oklahoma City OK USA,5,2019-01-14,35.4729886,-97.5170536
Omaha NE USA,25,2019-01-14,41.2587459,-95.9383758
Orlando FL USA,6,2019-01-14,28.5479786,-81.41278418563017
Ottumwa IA USA,100,2019-01-14,41.0200145,-92.4112963
Paducah KY USA,13,2019-01-14,37.0833893,-88.6000478
Palm Springs CA USA,21,2019-01-14,33.8246269,-116.540303
Peoria IL USA,14,2019-01-14,40.6938609,-89.5891008
Philadelphia PA USA,9,2019-01-14,39.9527237,-75.1635262
Phoenix AZ USA,8,2019-01-14,33.4484367,-112.0741417
Pittsburgh PA USA,13,2019-01-14,40.4416941,-79.9900861
Portland OR USA,7,2019-01-14,45.5202471,-122.6741949
Portland ME USA,9,2019-01-14,43.6610277,-70.2548596
Providence RI USA,5,2019-01-14,41.8239891,-71.4128343
Raleigh NC USA,8,2019-01-14,35.7803977,-78.6390989
Rapid City SD USA,45,2019-01-14,44.081176,-103.228006
Reno NV USA,12,2019-01-14,39.5261206,-119.8126581
Richmond VA USA,11,2019-01-14,37.5385087,-77.43428
Roanoke VA USA,12,2019-01-14,37.270973,-79.9414313
Rochester MN USA,50,2019-01-14,44.0234387,-92.4630182
Rochester NY USA,13,2019-01-14,43.157285,-77.615214
Sacramento CA USA,4,2019-01-14,38.5815719,-121.4943996
Salt Lake City UT USA,8,2019-01-14,40.7596198,-111.8867975
San Antonio TX USA,3,2019-01-14,29.4246002,-98.4951405
San Diego CA USA,4,2019-01-14,32.7174209,-117.1627714
San Francisco CA USA,7,2019-01-14,37.7790262,-122.4199061
Seattle WA USA,7,2019-01-14,47.6038321,-122.3300624
South Bend IN USA,12,2019-01-14,41.6833813,-86.2500066
Spokane WA USA,26,2019-01-14,47.6579425,-117.4212265
St. Louis MO USA,13,2019-01-14,38.6268039,-90.1994097
Syracuse NY USA,29,2019-01-14,43.0481221,-76.1474244
Tallahassee FL USA,20,2019-01-14,30.4380832,-84.2809332
Tampa FL USA,5,2019-01-14,27.9518491,-82.4563972
Terre Haute IN USA,35,2019-01-14,39.4667025,-87.4139119
Toledo OH USA,9,2019-01-14,41.6786754,-83.5127283
Topeka KS USA,21,2019-01-14,39.049011,-95.677556
Tri VA USA,14,2019-01-14,38.5467876,-77.3366491
Tucson AZ USA,8,2019-01-14,32.2228765,-110.9748477
Tulsa OK USA,7,2019-01-14,36.1556805,-95.9929113
Waco TX USA,9,2019-01-14,31.549333,-97.1466695
Washington DC USA,8,2019-01-14,38.8948932,-77.0365529
Wausau WI USA,23,2019-01-14,44.9596017,-89.6298239
West Palm Beach FL USA,4,2019-01-14,26.7153425,-80.0533746
Wheeling WV USA,38,2019-01-14,40.0639616,-80.7209149
Wichita KS USA,9,2019-01-14,37.6922361,-97.3375448
Wilkes Barre PA USA,15,2019-01-14,41.2464824,-75.8817316
Youngstown OH USA,17,2019-01-14,41.1035786,-80.6520161
Albany NY USA,4,2019-01-21,42.6511674,-73.754968
Albuquerque NM USA,6,2019-01-21,35.0841034,-106.6509851
Atlanta GA USA,6,2019-01-21,33.7490987,-84.3901849
Augusta GA USA,23,2019-01-21,33.4709714,-81.9748429
Austin TX USA,6,2019-01-21,30.2711286,-97.7436995
Baltimore MD USA,6,2019-01-21,39.284749399999995,-76.62047463969989
Bangor ME USA,22,2019-01-21,44.8011821,-68.7778138
Baton Rouge LA USA,17,2019-01-21,30.4459596,-91.18738
Beaumont TX USA,20,2019-01-21,30.0860459,-94.1018461
Bend OR USA,33,2019-01-21,44.0581728,-121.3153096
"Billings, MT USA",30,2019-01-21,45.7874957,-108.49607
Birmingham AL USA,5,2019-01-21,33.570499,-86.765783
Bluefield WV USA,32,2019-01-21,37.2698395,-81.2223195
Boise ID USA,8,2019-01-21,43.6166163,-116.200886
Boston MA USA,5,2019-01-21,42.3602534,-71.0582912
Buffalo NY USA,8,2019-01-21,42.8867166,-78.8783922
Cedar Rapids IA USA,20,2019-01-21,41.9758872,-91.6704053
Champaign IL USA,15,2019-01-21,40.1164205,-88.2433829
Charleston SC USA,10,2019-01-21,32.7876012,-79.9402728
Charleston WV USA,9,2019-01-21,38.3505995,-81.6332812
Charlotte NC USA,3,2019-01-21,35.2270869,-80.8431268
Charlottesville VA USA,23,2019-01-21,38.029306,-78.4766781
Chattanooga TN USA,8,2019-01-21,35.0457219,-85.3094883
Chicago IL USA,9,2019-01-21,41.8755616,-87.6244212
Cincinnati OH USA,12,2019-01-21,39.1014537,-84.5124602
Cleveland OH USA,8,2019-01-21,41.5051613,-81.6934446
Colorado Springs CO USA,7,2019-01-21,38.8339578,-104.8253485
Columbia SC USA,13,2019-01-21,34.0007493,-81.0343313
Columbus GA USA,39,2019-01-21,32.4609764,-84.9877094
Columbus OH USA,11,2019-01-21,39.9622601,-83.0007065
Columbus MS USA,24,2019-01-21,43.336875649999996,-89.0196532340367
Dallas TX USA,5,2019-01-21,32.7762719,-96.7968559
Davenport IA USA,16,2019-01-21,41.5236436,-90.5776368
Dayton OH USA,14,2019-01-21,39.7589478,-84.1916069
Denver CO USA,9,2019-01-21,39.7348381,-104.9653271
Des Moines IA USA,27,2019-01-21,41.5910641,-93.6037149
Detroit MI USA,10,2019-01-21,42.3315509,-83.0466403
Elmira NY USA,35,2019-01-21,42.0897965,-76.8077338
Erie PA USA,20,2019-01-21,42.1294712,-80.0852695
Eugene OR USA,21,2019-01-21,44.0505054,-123.0950506
Evansville IN USA,12,2019-01-21,37.9747645,-87.5558483
Fairbanks AK USA,65,2019-01-21,64.837845,-147.716675
Fargo ND USA,29,2019-01-21,46.877229,-96.789821
Flint MI USA,21,2019-01-21,43.0161693,-83.6900211
Florence SC USA,10,2019-01-21,34.1984435,-79.7671658
Fresno CA USA,4,2019-01-21,36.7295295,-119.70886126075588
Ft. Smith AR USA,8,2019-01-21,35.3872218,-94.4248983
Ft. Wayne IN USA,11,2019-01-21,41.0799898,-85.1386015
Grand Rapids MI USA,13,2019-01-21,42.9142413,-85.533004
Great Falls MT USA,59,2019-01-21,47.5048851,-111.2918908
Green Bay WI USA,13,2019-01-21,44.5126379,-88.0125794
Greensboro NC USA,5,2019-01-21,36.0726355,-79.7919754
Greenville NC USA,8,2019-01-21,35.612661,-77.3663538
Greenville SC USA,9,2019-01-21,34.851354,-82.3984882
Harrisburg PA USA,12,2019-01-21,40.2663107,-76.8861122
Harrisonburg VA USA,41,2019-01-21,38.4493315,-78.8688833
Hartford CT USA,10,2019-01-21,43.648048,-70.241416
Honolulu HI USA,11,2019-01-21,21.304547,-157.8556764
Houston TX USA,4,2019-01-21,29.7589382,-95.3676974
Huntsville AL USA,8,2019-01-21,33.554113,-86.804219
Indianapolis IN USA,8,2019-01-21,39.7683331,-86.1583502
Jackson TN USA,39,2019-01-21,35.6144446,-88.8177418
Jacksonville FL USA,9,2019-01-21,30.3321838,-81.655651
Kansas City MO USA,9,2019-01-21,39.100105,-94.5781416
Knoxville TN USA,12,2019-01-21,35.9603948,-83.9210261
Lafayette IN USA,36,2019-01-21,40.4167022,-86.8752869
Lafayette LA USA,15,2019-01-21,30.2240897,-92.0198427
Lansing MI USA,10,2019-01-21,42.7338147,-84.5207088
Las Vegas NV USA,11,2019-01-21,36.1672559,-115.1485163
Lexington KY USA,9,2019-01-21,38.0464066,-84.4970393
Lincoln NE USA,10,2019-01-21,40.8088861,-96.7077751
Los Angeles CA USA,4,2019-01-21,34.0536909,-118.2427666
Louisville KY USA,13,2019-01-21,38.2542376,-85.759407
Lubbock TX USA,16,2019-01-21,33.5635206,-101.879336
Macon GA USA,13,2019-01-21,32.8406946,-83.6324022
Madison WI USA,12,2019-01-21,43.074761,-89.3837613
Mankato MN USA,49,2019-01-21,44.1634663,-93.9993505
Medford OR USA,34,2019-01-21,42.3264181,-122.8718605
Memphis TN USA,4,2019-01-21,35.1490215,-90.0516285
Miami FL USA,3,2019-01-21,25.7742658,-80.1936589
Milwaukee WI USA,16,2019-01-21,43.0349931,-87.922497
Minneapolis MN USA,10,2019-01-21,44.9772995,-93.2654692
Missoula MT USA,39,2019-01-21,46.8701049,-113.9952672
Mobile AL USA,5,2019-01-21,39.092585,-84.853229
Monterey CA USA,10,2019-01-21,36.2231079,-121.3877428
Nashville TN USA,5,2019-01-21,36.1622296,-86.7743531
New Orleans LA USA,5,2019-01-21,29.9499323,-90.0701156
New York NY USA,6,2019-01-21,40.7127281,-74.0060152
Norfolk VA USA,3,2019-01-21,36.8889933,-76.2481624
Odessa TX USA,15,2019-01-21,31.8457149,-102.367687
Oklahoma City OK USA,9,2019-01-21,35.4729886,-97.5170536
Omaha NE USA,9,2019-01-21,41.2587459,-95.9383758
Orlando FL USA,5,2019-01-21,28.5479786,-81.41278418563017
Paducah KY USA,10,2019-01-21,37.0833893,-88.6000478
Palm Springs CA USA,17,2019-01-21,33.8246269,-116.540303
Panama City FL USA,21,2019-01-21,30.1600827,-85.6545729
Parkersburg WV USA,59,2019-01-21,39.2699565,-81.5506916
Peoria IL USA,10,2019-01-21,40.6938609,-89.5891008
Philadelphia PA USA,6,2019-01-21,39.9527237,-75.1635262
Phoenix AZ USA,7,2019-01-21,33.4484367,-112.0741417
Pittsburgh PA USA,6,2019-01-21,40.4416941,-79.9900861
Portland OR USA,7,2019-01-21,45.5202471,-122.6741949
Portland ME USA,7,2019-01-21,43.6610277,-70.2548596
Providence RI USA,4,2019-01-21,41.8239891,-71.4128343
Raleigh NC USA,6,2019-01-21,35.7803977,-78.6390989
Reno NV USA,9,2019-01-21,39.5261206,-119.8126581
Richmond VA USA,8,2019-01-21,37.5385087,-77.43428
Roanoke VA USA,8,2019-01-21,37.270973,-79.9414313
Rochester MN USA,18,2019-01-21,44.0234387,-92.4630182
Rochester NY USA,10,2019-01-21,43.157285,-77.615214
Sacramento CA USA,3,2019-01-21,38.5815719,-121.4943996
Salisbury MD USA,19,2019-01-21,38.3662114,-75.6008881
Salt Lake City UT USA,8,2019-01-21,40.7596198,-111.8867975
San Antonio TX USA,7,2019-01-21,29.4246002,-98.4951405
San Diego CA USA,6,2019-01-21,32.7174209,-117.1627714
San Francisco CA USA,7,2019-01-21,37.7790262,-122.4199061
Santa Barbara CA USA,18,2019-01-21,34.4221319,-119.7026673
Savannah GA USA,7,2019-01-21,32.0809263,-81.0911768
Seattle WA USA,6,2019-01-21,47.6038321,-122.3300624
Shreveport LA USA,10,2019-01-21,32.5221828,-93.7651944
Sioux Falls SD USA,11,2019-01-21,43.5499749,-96.700327
South Bend IN USA,9,2019-01-21,41.6833813,-86.2500066
Spokane WA USA,6,2019-01-21,47.6579425,-117.4212265
Springfield MO USA,10,2019-01-21,37.2166779,-93.2920373
Springfield MA USA,15,2019-01-21,42.1014831,-72.589811
St. Louis MO USA,10,2019-01-21,38.6268039,-90.1994097
Syracuse NY USA,9,2019-01-21,43.0481221,-76.1474244
Tallahassee FL USA,10,2019-01-21,30.4380832,-84.2809332
Tampa FL USA,5,2019-01-21,27.9518491,-82.4563972
Terre Haute IN USA,40,2019-01-21,39.4667025,-87.4139119
Toledo OH USA,7,2019-01-21,41.6786754,-83.5127283
Topeka KS USA,16,2019-01-21,39.049011,-95.677556
Tucson AZ USA,8,2019-01-21,32.2228765,-110.9748477
Tulsa OK USA,9,2019-01-21,36.1556805,-95.9929113
Utica NY USA,30,2019-01-21,43.1009031,-75.2326641
Victoria TX USA,100,2019-01-21,28.8026443,-96.9766308
Waco TX USA,10,2019-01-21,31.549333,-97.1466695
Washington DC USA,8,2019-01-21,38.8948932,-77.0365529
Wausau WI USA,35,2019-01-21,44.9596017,-89.6298239
West Palm Beach FL USA,3,2019-01-21,26.7153425,-80.0533746
Wichita KS USA,10,2019-01-21,37.6922361,-97.3375448
Wilkes Barre PA USA,5,2019-01-21,41.2464824,-75.8817316
Wilmington NC USA,14,2019-01-21,34.2257282,-77.9447107
Yakima WA USA,17,2019-01-21,46.601557,-120.5108421
Youngstown OH USA,12,2019-01-21,41.1035786,-80.6520161
Albany NY USA,3,2019-01-28,42.6511674,-73.754968
Albuquerque NM USA,3,2019-01-28,35.0841034,-106.6509851
Amarillo TX USA,12,2019-01-28,35.2072185,-101.8338246
Atlanta GA USA,4,2019-01-28,33.7490987,-84.3901849
Augusta GA USA,8,2019-01-28,33.4709714,-81.9748429
Austin TX USA,4,2019-01-28,30.2711286,-97.7436995
Bakersfield CA USA,7,2019-01-28,35.3738712,-119.0194639
Baltimore MD USA,5,2019-01-28,39.284749399999995,-76.62047463969989
Bangor ME USA,15,2019-01-28,44.8011821,-68.7778138
Baton Rouge LA USA,6,2019-01-28,30.4459596,-91.18738
Biloxi MS USA,16,2019-01-28,30.374673,-88.84594333482862
Binghamton NY USA,15,2019-01-28,42.096968,-75.914341
Birmingham AL USA,4,2019-01-28,33.570499,-86.765783
Bluefield WV USA,22,2019-01-28,37.2698395,-81.2223195
Boise ID USA,6,2019-01-28,43.6166163,-116.200886
Boston MA USA,6,2019-01-28,42.3602534,-71.0582912
Buffalo NY USA,4,2019-01-28,42.8867166,-78.8783922
Burlington VT USA,6,2019-01-28,44.4762975,-73.2135472
Butte MT USA,24,2019-01-28,46.0131505,-112.5365089
Cedar Rapids IA USA,11,2019-01-28,41.9758872,-91.6704053
Champaign IL USA,7,2019-01-28,40.1164205,-88.2433829
Charleston SC USA,10,2019-01-28,32.7876012,-79.9402728
Charleston WV USA,6,2019-01-28,38.3505995,-81.6332812
Charlotte NC USA,4,2019-01-28,35.2270869,-80.8431268
Charlottesville VA USA,26,2019-01-28,38.029306,-78.4766781
Chattanooga TN USA,5,2019-01-28,35.0457219,-85.3094883
Chicago IL USA,7,2019-01-28,41.8755616,-87.6244212
Cincinnati OH USA,11,2019-01-28,39.1014537,-84.5124602
Cleveland OH USA,7,2019-01-28,41.5051613,-81.6934446
Colorado Springs CO USA,5,2019-01-28,38.8339578,-104.8253485
Columbia SC USA,7,2019-01-28,34.0007493,-81.0343313
Columbia MO USA,11,2019-01-28,38.951883,-92.3337366
Columbus GA USA,18,2019-01-28,32.4609764,-84.9877094
Columbus OH USA,12,2019-01-28,39.9622601,-83.0007065
Dallas TX USA,4,2019-01-28,32.7762719,-96.7968559
Davenport IA USA,11,2019-01-28,41.5236436,-90.5776368
Dayton OH USA,18,2019-01-28,39.7589478,-84.1916069
Denver CO USA,7,2019-01-28,39.7348381,-104.9653271
Des Moines IA USA,12,2019-01-28,41.5910641,-93.6037149
Detroit MI USA,7,2019-01-28,42.3315509,-83.0466403
El Paso TX USA,5,2019-01-28,31.7754152,-106.4646348
Erie PA USA,14,2019-01-28,42.1294712,-80.0852695
Eugene OR USA,15,2019-01-28,44.0505054,-123.0950506
Fargo ND USA,8,2019-01-28,46.877229,-96.789821
Flint MI USA,5,2019-01-28,43.0161693,-83.6900211
Florence SC USA,7,2019-01-28,34.1984435,-79.7671658
Fresno CA USA,3,2019-01-28,36.7295295,-119.70886126075588
Ft. Myers FL USA,3,2019-01-28,26.640628,-81.8723084
Ft. Smith AR USA,6,2019-01-28,35.3872218,-94.4248983
Ft. Wayne IN USA,13,2019-01-28,41.0799898,-85.1386015
Gainesville FL USA,11,2019-01-28,29.67357765,-82.32337460192167
Grand Rapids MI USA,4,2019-01-28,42.9142413,-85.533004
Green Bay WI USA,9,2019-01-28,44.5126379,-88.0125794
Greensboro NC USA,4,2019-01-28,36.0726355,-79.7919754
Greenville SC USA,3,2019-01-28,34.851354,-82.3984882
Harrisburg PA USA,7,2019-01-28,40.2663107,-76.8861122
Hartford CT USA,4,2019-01-28,43.648048,-70.241416
Houston TX USA,3,2019-01-28,29.7589382,-95.3676974
Idaho Falls ID USA,14,2019-01-28,43.4935245,-112.0400919
Indianapolis IN USA,8,2019-01-28,39.7683331,-86.1583502
Jacksonville FL USA,7,2019-01-28,30.3321838,-81.655651
Johnstown PA USA,9,2019-01-28,40.3267407,-78.9219698
Joplin MO USA,21,2019-01-28,37.08418,-94.51323
Kansas City MO USA,8,2019-01-28,39.100105,-94.5781416
Knoxville TN USA,7,2019-01-28,35.9603948,-83.9210261
La Crosse WI USA,20,2019-01-28,43.8014053,-91.2395429
Lafayette LA USA,10,2019-01-28,30.2240897,-92.0198427
Lansing MI USA,14,2019-01-28,42.7338147,-84.5207088
Las Vegas NV USA,9,2019-01-28,36.1672559,-115.1485163
Lexington KY USA,6,2019-01-28,38.0464066,-84.4970393
Lincoln NE USA,21,2019-01-28,40.8088861,-96.7077751
Little Rock AR USA,4,2019-01-28,34.7464809,-92.2895948
Los Angeles CA USA,4,2019-01-28,34.0536909,-118.2427666
Louisville KY USA,6,2019-01-28,38.2542376,-85.759407
Madison WI USA,14,2019-01-28,43.074761,-89.3837613
Medford OR USA,12,2019-01-28,42.3264181,-122.8718605
Memphis TN USA,9,2019-01-28,35.1490215,-90.0516285
Miami FL USA,2,2019-01-28,25.7742658,-80.1936589
Milwaukee WI USA,7,2019-01-28,43.0349931,-87.922497
Minneapolis MN USA,6,2019-01-28,44.9772995,-93.2654692
Mobile AL USA,3,2019-01-28,39.092585,-84.853229
Montgomery AL USA,10,2019-01-28,40.85239,-78.266098
Nashville TN USA,6,2019-01-28,36.1622296,-86.7743531
New York NY USA,4,2019-01-28,40.7127281,-74.0060152
Norfolk VA USA,6,2019-01-28,36.8889933,-76.2481624
Oklahoma City OK USA,4,2019-01-28,35.4729886,-97.5170536
Omaha NE USA,7,2019-01-28,41.2587459,-95.9383758
Orlando FL USA,2,2019-01-28,28.5479786,-81.41278418563017
Ottumwa IA USA,51,2019-01-28,41.0200145,-92.4112963
Paducah KY USA,7,2019-01-28,37.0833893,-88.6000478
Peoria IL USA,7,2019-01-28,40.6938609,-89.5891008
Philadelphia PA USA,5,2019-01-28,39.9527237,-75.1635262
Phoenix AZ USA,6,2019-01-28,33.4484367,-112.0741417
Pittsburgh PA USA,4,2019-01-28,40.4416941,-79.9900861
Portland OR USA,3,2019-01-28,45.5202471,-122.6741949
Portland ME USA,7,2019-01-28,43.6610277,-70.2548596
Presque Isle ME USA,100,2019-01-28,46.681479,-68.016357
Providence RI USA,8,2019-01-28,41.8239891,-71.4128343
Raleigh NC USA,7,2019-01-28,35.7803977,-78.6390989
Rapid City SD USA,23,2019-01-28,44.081176,-103.228006
Reno NV USA,19,2019-01-28,39.5261206,-119.8126581
Richmond VA USA,5,2019-01-28,37.5385087,-77.43428
Roanoke VA USA,5,2019-01-28,37.270973,-79.9414313
Rochester MN USA,13,2019-01-28,44.0234387,-92.4630182
Rochester NY USA,6,2019-01-28,43.157285,-77.615214
Rockford IL USA,23,2019-01-28,42.2713945,-89.093966
Sacramento CA USA,4,2019-01-28,38.5815719,-121.4943996
Salisbury MD USA,13,2019-01-28,38.3662114,-75.6008881
Salt Lake City UT USA,10,2019-01-28,40.7596198,-111.8867975
San Angelo TX USA,30,2019-01-28,31.4648357,-100.4398442
San Antonio TX USA,4,2019-01-28,29.4246002,-98.4951405
San Diego CA USA,4,2019-01-28,32.7174209,-117.1627714
San Francisco CA USA,4,2019-01-28,37.7790262,-122.4199061
Santa Barbara CA USA,9,2019-01-28,34.4221319,-119.7026673
Savannah GA USA,8,2019-01-28,32.0809263,-81.0911768
Seattle WA USA,4,2019-01-28,47.6038321,-122.3300624
Sherman TX USA,20,2019-01-28,36.2452294,-101.8858689
Sioux City IA USA,15,2019-01-28,42.4966815,-96.4058782
Sioux Falls SD USA,8,2019-01-28,43.5499749,-96.700327
South Bend IN USA,9,2019-01-28,41.6833813,-86.2500066
Spokane WA USA,9,2019-01-28,47.6579425,-117.4212265
Springfield MO USA,5,2019-01-28,37.2166779,-93.2920373
Springfield MA USA,6,2019-01-28,42.1014831,-72.589811
St. Louis MO USA,4,2019-01-28,38.6268039,-90.1994097
Syracuse NY USA,5,2019-01-28,43.0481221,-76.1474244
Tallahassee FL USA,7,2019-01-28,30.4380832,-84.2809332
Tampa FL USA,3,2019-01-28,27.9518491,-82.4563972
Toledo OH USA,8,2019-01-28,41.6786754,-83.5127283
Topeka KS USA,11,2019-01-28,39.049011,-95.677556
Tri VA USA,15,2019-01-28,38.5467876,-77.3366491
Tucson AZ USA,11,2019-01-28,32.2228765,-110.9748477
Tulsa OK USA,6,2019-01-28,36.1556805,-95.9929113
Twin Falls ID USA,32,2019-01-28,42.5704219,-114.4603171
Utica NY USA,21,2019-01-28,43.1009031,-75.2326641
Waco TX USA,4,2019-01-28,31.549333,-97.1466695
Washington DC USA,6,2019-01-28,38.8948932,-77.0365529
Wausau WI USA,21,2019-01-28,44.9596017,-89.6298239
West Palm Beach FL USA,3,2019-01-28,26.7153425,-80.0533746
Wheeling WV USA,20,2019-01-28,40.0639616,-80.7209149
Wichita Falls TX USA,15,2019-01-28,33.9137085,-98.4933873
Wichita KS USA,6,2019-01-28,37.6922361,-97.3375448
Wilkes Barre PA USA,6,2019-01-28,41.2464824,-75.8817316
Wilmington NC USA,10,2019-01-28,34.2257282,-77.9447107
Yakima WA USA,8,2019-01-28,46.601557,-120.5108421
Youngstown OH USA,9,2019-01-28,41.1035786,-80.6520161
Yuma AZ USA,16,2019-01-28,32.6926588,-114.6276157
Zanesville OH USA,69,2019-01-28,39.9403453,-82.0131924
Albany GA USA,12,2019-02-04,40.0555158,-82.8457691
Albany NY USA,6,2019-02-04,42.6511674,-73.754968
Albuquerque NM USA,3,2019-02-04,35.0841034,-106.6509851
Alexandria LA USA,23,2019-02-04,38.8147596,-77.09024765272724
Amarillo TX USA,17,2019-02-04,35.2072185,-101.8338246
Anchorage AK USA,16,2019-02-04,61.2163129,-149.8948523
Atlanta GA USA,4,2019-02-04,33.7490987,-84.3901849
Augusta GA USA,6,2019-02-04,33.4709714,-81.9748429
Austin TX USA,3,2019-02-04,30.2711286,-97.7436995
Baltimore MD USA,5,2019-02-04,39.284749399999995,-76.62047463969989
Baton Rouge LA USA,4,2019-02-04,30.4459596,-91.18738
Beaumont TX USA,10,2019-02-04,30.0860459,-94.1018461
"Billings, MT USA",15,2019-02-04,45.7874957,-108.49607
Birmingham AL USA,6,2019-02-04,33.570499,-86.765783
Bluefield WV USA,16,2019-02-04,37.2698395,-81.2223195
Boise ID USA,6,2019-02-04,43.6166163,-116.200886
Boston MA USA,5,2019-02-04,42.3602534,-71.0582912
Buffalo NY USA,6,2019-02-04,42.8867166,-78.8783922
Burlington VT USA,4,2019-02-04,44.4762975,-73.2135472
Butte MT USA,17,2019-02-04,46.0131505,-112.5365089
Cedar Rapids IA USA,14,2019-02-04,41.9758872,-91.6704053
Champaign IL USA,4,2019-02-04,40.1164205,-88.2433829
Charleston SC USA,6,2019-02-04,32.7876012,-79.9402728
Charleston WV USA,4,2019-02-04,38.3505995,-81.6332812
Charlotte NC USA,4,2019-02-04,35.2270869,-80.8431268
Charlottesville VA USA,27,2019-02-04,38.029306,-78.4766781
Chattanooga TN USA,4,2019-02-04,35.0457219,-85.3094883
Cheyenne WY USA,27,2019-02-04,40.640361,-74.367318
Chicago IL USA,8,2019-02-04,41.8755616,-87.6244212
Chico CA USA,8,2019-02-04,39.7284945,-121.8374777
Cincinnati OH USA,12,2019-02-04,39.1014537,-84.5124602
Cleveland OH USA,5,2019-02-04,41.5051613,-81.6934446
Colorado Springs CO USA,3,2019-02-04,38.8339578,-104.8253485
Columbia SC USA,4,2019-02-04,34.0007493,-81.0343313
Columbia MO USA,24,2019-02-04,38.951883,-92.3337366
Columbus OH USA,9,2019-02-04,39.9622601,-83.0007065
Corpus Christi TX USA,7,2019-02-04,27.7477253,-97.4014129
Dallas TX USA,4,2019-02-04,32.7762719,-96.7968559
Davenport IA USA,5,2019-02-04,41.5236436,-90.5776368
Dayton OH USA,11,2019-02-04,39.7589478,-84.1916069
Denver CO USA,6,2019-02-04,39.7348381,-104.9653271
Des Moines IA USA,10,2019-02-04,41.5910641,-93.6037149
Detroit MI USA,7,2019-02-04,42.3315509,-83.0466403
El Paso TX USA,7,2019-02-04,31.7754152,-106.4646348
Elmira NY USA,18,2019-02-04,42.0897965,-76.8077338
Erie PA USA,10,2019-02-04,42.1294712,-80.0852695
Eugene OR USA,5,2019-02-04,44.0505054,-123.0950506
Evansville IN USA,11,2019-02-04,37.9747645,-87.5558483
Fargo ND USA,6,2019-02-04,46.877229,-96.789821
Flint MI USA,4,2019-02-04,43.0161693,-83.6900211
Florence SC USA,5,2019-02-04,34.1984435,-79.7671658
Fresno CA USA,5,2019-02-04,36.7295295,-119.70886126075588
Ft. Myers FL USA,8,2019-02-04,26.640628,-81.8723084
Ft. Smith AR USA,6,2019-02-04,35.3872218,-94.4248983
Ft. Wayne IN USA,6,2019-02-04,41.0799898,-85.1386015
Gainesville FL USA,12,2019-02-04,29.67357765,-82.32337460192167
Grand Rapids MI USA,7,2019-02-04,42.9142413,-85.533004
Great Falls MT USA,29,2019-02-04,47.5048851,-111.2918908
Green Bay WI USA,13,2019-02-04,44.5126379,-88.0125794
Greensboro NC USA,4,2019-02-04,36.0726355,-79.7919754
Greenville NC USA,6,2019-02-04,35.612661,-77.3663538
Greenville SC USA,3,2019-02-04,34.851354,-82.3984882
Harlingen TX USA,3,2019-02-04,26.1908241,-97.6959794
Harrisburg PA USA,5,2019-02-04,40.2663107,-76.8861122
Hartford CT USA,8,2019-02-04,43.648048,-70.241416
Honolulu HI USA,2,2019-02-04,21.304547,-157.8556764
Houston TX USA,3,2019-02-04,29.7589382,-95.3676974
Huntsville AL USA,4,2019-02-04,33.554113,-86.804219
Idaho Falls ID USA,20,2019-02-04,43.4935245,-112.0400919
Indianapolis IN USA,6,2019-02-04,39.7683331,-86.1583502
Jackson MS USA,4,2019-02-04,28.530801699999998,-81.30324431076107
Jackson TN USA,19,2019-02-04,35.6144446,-88.8177418
Jacksonville FL USA,6,2019-02-04,30.3321838,-81.655651
Johnstown PA USA,5,2019-02-04,40.3267407,-78.9219698
Kansas City MO USA,8,2019-02-04,39.100105,-94.5781416
Knoxville TN USA,8,2019-02-04,35.9603948,-83.9210261
La Crosse WI USA,12,2019-02-04,43.8014053,-91.2395429
Lafayette LA USA,8,2019-02-04,30.2240897,-92.0198427
Lake Charles LA USA,16,2019-02-04,30.2265949,-93.2173759
Lansing MI USA,5,2019-02-04,42.7338147,-84.5207088
Las Vegas NV USA,10,2019-02-04,36.1672559,-115.1485163
Lexington KY USA,13,2019-02-04,38.0464066,-84.4970393
Lima OH USA,30,2019-02-04,40.7399785,-84.105006
Lincoln NE USA,5,2019-02-04,40.8088861,-96.7077751
Little Rock AR USA,5,2019-02-04,34.7464809,-92.2895948
Los Angeles CA USA,4,2019-02-04,34.0536909,-118.2427666
Louisville KY USA,9,2019-02-04,38.2542376,-85.759407
Lubbock TX USA,8,2019-02-04,33.5635206,-101.879336
Macon GA USA,13,2019-02-04,32.8406946,-83.6324022
Madison WI USA,11,2019-02-04,43.074761,-89.3837613
Medford OR USA,13,2019-02-04,42.3264181,-122.8718605
Memphis TN USA,8,2019-02-04,35.1490215,-90.0516285
Miami FL USA,3,2019-02-04,25.7742658,-80.1936589
Milwaukee WI USA,14,2019-02-04,43.0349931,-87.922497
Minneapolis MN USA,5,2019-02-04,44.9772995,-93.2654692
Minot ND USA,10,2019-02-04,48.23251,-101.296273
Missoula MT USA,13,2019-02-04,46.8701049,-113.9952672
Mobile AL USA,3,2019-02-04,39.092585,-84.853229
Monterey CA USA,5,2019-02-04,36.2231079,-121.3877428
Montgomery AL USA,7,2019-02-04,40.85239,-78.266098
Nashville TN USA,5,2019-02-04,36.1622296,-86.7743531
New Orleans LA USA,3,2019-02-04,29.9499323,-90.0701156
New York NY USA,5,2019-02-04,40.7127281,-74.0060152
Norfolk VA USA,2,2019-02-04,36.8889933,-76.2481624
North Platte NE USA,100,2019-02-04,41.1238873,-100.7654232
Odessa TX USA,8,2019-02-04,31.8457149,-102.367687
Oklahoma City OK USA,4,2019-02-04,35.4729886,-97.5170536
Omaha NE USA,17,2019-02-04,41.2587459,-95.9383758
Orlando FL USA,2,2019-02-04,28.5479786,-81.41278418563017
Paducah KY USA,5,2019-02-04,37.0833893,-88.6000478
Parkersburg WV USA,31,2019-02-04,39.2699565,-81.5506916
Peoria IL USA,11,2019-02-04,40.6938609,-89.5891008
Philadelphia PA USA,6,2019-02-04,39.9527237,-75.1635262
Phoenix AZ USA,7,2019-02-04,33.4484367,-112.0741417
Pittsburgh PA USA,6,2019-02-04,40.4416941,-79.9900861
Portland OR USA,4,2019-02-04,45.5202471,-122.6741949
Portland ME USA,7,2019-02-04,43.6610277,-70.2548596
Providence RI USA,4,2019-02-04,41.8239891,-71.4128343
Quincy IL USA,19,2019-02-04,42.2528772,-71.0022705
Raleigh NC USA,5,2019-02-04,35.7803977,-78.6390989
Rapid City SD USA,17,2019-02-04,44.081176,-103.228006
Reno NV USA,16,2019-02-04,39.5261206,-119.8126581
Richmond VA USA,3,2019-02-04,37.5385087,-77.43428
Roanoke VA USA,6,2019-02-04,37.270973,-79.9414313
Rochester MN USA,9,2019-02-04,44.0234387,-92.4630182
Rochester NY USA,8,2019-02-04,43.157285,-77.615214
Rockford IL USA,12,2019-02-04,42.2713945,-89.093966
Sacramento CA USA,3,2019-02-04,38.5815719,-121.4943996
Salisbury MD USA,10,2019-02-04,38.3662114,-75.6008881
Salt Lake City UT USA,6,2019-02-04,40.7596198,-111.8867975
San Angelo TX USA,21,2019-02-04,31.4648357,-100.4398442
San Antonio TX USA,5,2019-02-04,29.4246002,-98.4951405
San Diego CA USA,3,2019-02-04,32.7174209,-117.1627714
San Francisco CA USA,4,2019-02-04,37.7790262,-122.4199061
Santa Barbara CA USA,4,2019-02-04,34.4221319,-119.7026673
Savannah GA USA,19,2019-02-04,32.0809263,-81.0911768
Seattle WA USA,4,2019-02-04,47.6038321,-122.3300624
Shreveport LA USA,5,2019-02-04,32.5221828,-93.7651944
Sioux City IA USA,27,2019-02-04,42.4966815,-96.4058782
Sioux Falls SD USA,15,2019-02-04,43.5499749,-96.700327
South Bend IN USA,9,2019-02-04,41.6833813,-86.2500066
Spokane WA USA,6,2019-02-04,47.6579425,-117.4212265
Springfield MO USA,11,2019-02-04,37.2166779,-93.2920373
Springfield MA USA,7,2019-02-04,42.1014831,-72.589811
St. Louis MO USA,5,2019-02-04,38.6268039,-90.1994097
Syracuse NY USA,4,2019-02-04,43.0481221,-76.1474244
Tallahassee FL USA,5,2019-02-04,30.4380832,-84.2809332
Tampa FL USA,3,2019-02-04,27.9518491,-82.4563972
Terre Haute IN USA,13,2019-02-04,39.4667025,-87.4139119
Toledo OH USA,3,2019-02-04,41.6786754,-83.5127283
Topeka KS USA,12,2019-02-04,39.049011,-95.677556
Traverse City MI USA,8,2019-02-04,44.7606441,-85.6165301
Tucson AZ USA,6,2019-02-04,32.2228765,-110.9748477
Tulsa OK USA,5,2019-02-04,36.1556805,-95.9929113
Twin Falls ID USA,23,2019-02-04,42.5704219,-114.4603171
Tyler TX USA,12,2019-02-04,32.3512601,-95.3010624
Utica NY USA,15,2019-02-04,43.1009031,-75.2326641
Washington DC USA,5,2019-02-04,38.8948932,-77.0365529
Watertown NY USA,17,2019-02-04,43.9747838,-75.9107565
West Palm Beach FL USA,2,2019-02-04,26.7153425,-80.0533746
Wichita Falls TX USA,11,2019-02-04,33.9137085,-98.4933873
Wichita KS USA,6,2019-02-04,37.6922361,-97.3375448
Wilkes Barre PA USA,5,2019-02-04,41.2464824,-75.8817316
Abilene TX USA,28,2019-02-11,32.44645,-99.7475905
Albany NY USA,11,2019-02-11,42.6511674,-73.754968
Albuquerque NM USA,13,2019-02-11,35.0841034,-106.6509851
Alexandria LA USA,43,2019-02-11,38.8147596,-77.09024765272724
Amarillo TX USA,16,2019-02-11,35.2072185,-101.8338246
Anchorage AK USA,15,2019-02-11,61.2163129,-149.8948523
Atlanta GA USA,12,2019-02-11,33.7490987,-84.3901849
Augusta GA USA,22,2019-02-11,33.4709714,-81.9748429
Austin TX USA,10,2019-02-11,30.2711286,-97.7436995
Bakersfield CA USA,10,2019-02-11,35.3738712,-119.0194639
Baltimore MD USA,9,2019-02-11,39.284749399999995,-76.62047463969989
Baton Rouge LA USA,24,2019-02-11,30.4459596,-91.18738
Beaumont TX USA,19,2019-02-11,30.0860459,-94.1018461
Bend OR USA,31,2019-02-11,44.0581728,-121.3153096
Binghamton NY USA,21,2019-02-11,42.096968,-75.914341
Birmingham AL USA,25,2019-02-11,33.570499,-86.765783
Boise ID USA,8,2019-02-11,43.6166163,-116.200886
Boston MA USA,16,2019-02-11,42.3602534,-71.0582912
Bowling Green KY USA,44,2019-02-11,36.9903199,-86.4436018
Buffalo NY USA,14,2019-02-11,42.8867166,-78.8783922
Burlington VT USA,15,2019-02-11,44.4762975,-73.2135472
Butte MT USA,32,2019-02-11,46.0131505,-112.5365089
Cedar Rapids IA USA,22,2019-02-11,41.9758872,-91.6704053
Champaign IL USA,15,2019-02-11,40.1164205,-88.2433829
Charleston SC USA,24,2019-02-11,32.7876012,-79.9402728
Charleston WV USA,16,2019-02-11,38.3505995,-81.6332812
Charlotte NC USA,20,2019-02-11,35.2270869,-80.8431268
Charlottesville VA USA,22,2019-02-11,38.029306,-78.4766781
Chicago IL USA,19,2019-02-11,41.8755616,-87.6244212
Cincinnati OH USA,36,2019-02-11,39.1014537,-84.5124602
Cleveland OH USA,15,2019-02-11,41.5051613,-81.6934446
Colorado Springs CO USA,7,2019-02-11,38.8339578,-104.8253485
Columbia SC USA,12,2019-02-11,34.0007493,-81.0343313
Columbia MO USA,15,2019-02-11,38.951883,-92.3337366
Columbus GA USA,13,2019-02-11,32.4609764,-84.9877094
Columbus OH USA,22,2019-02-11,39.9622601,-83.0007065
Dallas TX USA,10,2019-02-11,32.7762719,-96.7968559
Davenport IA USA,20,2019-02-11,41.5236436,-90.5776368
Dayton OH USA,26,2019-02-11,39.7589478,-84.1916069
Denver CO USA,11,2019-02-11,39.7348381,-104.9653271
Des Moines IA USA,26,2019-02-11,41.5910641,-93.6037149
Detroit MI USA,13,2019-02-11,42.3315509,-83.0466403
Dothan AL USA,33,2019-02-11,31.2237434,-85.3933906
Duluth MN USA,19,2019-02-11,46.7729322,-92.1251218
El Paso TX USA,7,2019-02-11,31.7754152,-106.4646348
Erie PA USA,38,2019-02-11,42.1294712,-80.0852695
Eugene OR USA,20,2019-02-11,44.0505054,-123.0950506
Evansville IN USA,22,2019-02-11,37.9747645,-87.5558483
Fargo ND USA,18,2019-02-11,46.877229,-96.789821
Flint MI USA,16,2019-02-11,43.0161693,-83.6900211
Florence SC USA,13,2019-02-11,34.1984435,-79.7671658
Fresno CA USA,5,2019-02-11,36.7295295,-119.70886126075588
Ft. Myers FL USA,6,2019-02-11,26.640628,-81.8723084
Ft. Smith AR USA,11,2019-02-11,35.3872218,-94.4248983
Ft. Wayne IN USA,14,2019-02-11,41.0799898,-85.1386015
Grand Junction CO USA,57,2019-02-11,39.063956,-108.5507317
Grand Rapids MI USA,14,2019-02-11,42.9142413,-85.533004
Green Bay WI USA,28,2019-02-11,44.5126379,-88.0125794
Greensboro NC USA,11,2019-02-11,36.0726355,-79.7919754
Greenville NC USA,16,2019-02-11,35.612661,-77.3663538
Greenville SC USA,6,2019-02-11,34.851354,-82.3984882
Harlingen TX USA,6,2019-02-11,26.1908241,-97.6959794
Harrisburg PA USA,9,2019-02-11,40.2663107,-76.8861122
Hartford CT USA,14,2019-02-11,43.648048,-70.241416
Hattiesburg MS USA,34,2019-02-11,31.3271189,-89.2903392
Houston TX USA,9,2019-02-11,29.7589382,-95.3676974
Huntsville AL USA,10,2019-02-11,33.554113,-86.804219
Idaho Falls ID USA,19,2019-02-11,43.4935245,-112.0400919
Indianapolis IN USA,15,2019-02-11,39.7683331,-86.1583502
Jackson MS USA,8,2019-02-11,28.530801699999998,-81.30324431076107
Jacksonville FL USA,12,2019-02-11,30.3321838,-81.655651
Johnstown PA USA,15,2019-02-11,40.3267407,-78.9219698
Joplin MO USA,22,2019-02-11,37.08418,-94.51323
Kansas City MO USA,14,2019-02-11,39.100105,-94.5781416
Knoxville TN USA,20,2019-02-11,35.9603948,-83.9210261
La Crosse WI USA,27,2019-02-11,43.8014053,-91.2395429
Lafayette LA USA,14,2019-02-11,30.2240897,-92.0198427
Lansing MI USA,16,2019-02-11,42.7338147,-84.5207088
Las Vegas NV USA,15,2019-02-11,36.1672559,-115.1485163
Lexington KY USA,13,2019-02-11,38.0464066,-84.4970393
Lincoln NE USA,22,2019-02-11,40.8088861,-96.7077751
Little Rock AR USA,7,2019-02-11,34.7464809,-92.2895948
Los Angeles CA USA,9,2019-02-11,34.0536909,-118.2427666
Louisville KY USA,17,2019-02-11,38.2542376,-85.759407
Lubbock TX USA,15,2019-02-11,33.5635206,-101.879336
Macon GA USA,19,2019-02-11,32.8406946,-83.6324022
Madison WI USA,27,2019-02-11,43.074761,-89.3837613
Marquette MI USA,38,2019-02-11,46.4481521,-87.6305899
Memphis TN USA,8,2019-02-11,35.1490215,-90.0516285
Miami FL USA,8,2019-02-11,25.7742658,-80.1936589
Milwaukee WI USA,27,2019-02-11,43.0349931,-87.922497
Minneapolis MN USA,17,2019-02-11,44.9772995,-93.2654692
Minot ND USA,19,2019-02-11,48.23251,-101.296273
Missoula MT USA,24,2019-02-11,46.8701049,-113.9952672
Mobile AL USA,13,2019-02-11,39.092585,-84.853229
Monterey CA USA,9,2019-02-11,36.2231079,-121.3877428
Montgomery AL USA,14,2019-02-11,40.85239,-78.266098
Nashville TN USA,13,2019-02-11,36.1622296,-86.7743531
New Orleans LA USA,16,2019-02-11,29.9499323,-90.0701156
New York NY USA,10,2019-02-11,40.7127281,-74.0060152
Norfolk VA USA,9,2019-02-11,36.8889933,-76.2481624
Odessa TX USA,15,2019-02-11,31.8457149,-102.367687
Oklahoma City OK USA,8,2019-02-11,35.4729886,-97.5170536
Omaha NE USA,21,2019-02-11,41.2587459,-95.9383758
Orlando FL USA,6,2019-02-11,28.5479786,-81.41278418563017
Ottumwa IA USA,70,2019-02-11,41.0200145,-92.4112963
Paducah KY USA,10,2019-02-11,37.0833893,-88.6000478
Palm Springs CA USA,15,2019-02-11,33.8246269,-116.540303
Peoria IL USA,35,2019-02-11,40.6938609,-89.5891008
Philadelphia PA USA,15,2019-02-11,39.9527237,-75.1635262
Phoenix AZ USA,13,2019-02-11,33.4484367,-112.0741417
Pittsburgh PA USA,19,2019-02-11,40.4416941,-79.9900861
Portland OR USA,6,2019-02-11,45.5202471,-122.6741949
Portland ME USA,6,2019-02-11,43.6610277,-70.2548596
Providence RI USA,9,2019-02-11,41.8239891,-71.4128343
Raleigh NC USA,18,2019-02-11,35.7803977,-78.6390989
Reno NV USA,17,2019-02-11,39.5261206,-119.8126581
Richmond VA USA,12,2019-02-11,37.5385087,-77.43428
Roanoke VA USA,17,2019-02-11,37.270973,-79.9414313
Rochester MN USA,36,2019-02-11,44.0234387,-92.4630182
Rochester NY USA,12,2019-02-11,43.157285,-77.615214
Rockford IL USA,16,2019-02-11,42.2713945,-89.093966
Sacramento CA USA,7,2019-02-11,38.5815719,-121.4943996
Salisbury MD USA,18,2019-02-11,38.3662114,-75.6008881
Salt Lake City UT USA,11,2019-02-11,40.7596198,-111.8867975
San Antonio TX USA,5,2019-02-11,29.4246002,-98.4951405
San Diego CA USA,10,2019-02-11,32.7174209,-117.1627714
San Francisco CA USA,6,2019-02-11,37.7790262,-122.4199061
Santa Barbara CA USA,8,2019-02-11,34.4221319,-119.7026673
Savannah GA USA,13,2019-02-11,32.0809263,-81.0911768
Seattle WA USA,9,2019-02-11,47.6038321,-122.3300624
Shreveport LA USA,14,2019-02-11,32.5221828,-93.7651944
Sioux City IA USA,34,2019-02-11,42.4966815,-96.4058782
Sioux Falls SD USA,15,2019-02-11,43.5499749,-96.700327
South Bend IN USA,20,2019-02-11,41.6833813,-86.2500066
Spokane WA USA,12,2019-02-11,47.6579425,-117.4212265
Springfield MO USA,7,2019-02-11,37.2166779,-93.2920373
Springfield MA USA,14,2019-02-11,42.1014831,-72.589811
St. Louis MO USA,11,2019-02-11,38.6268039,-90.1994097
Syracuse NY USA,15,2019-02-11,43.0481221,-76.1474244
Tallahassee FL USA,14,2019-02-11,30.4380832,-84.2809332
Tampa FL USA,4,2019-02-11,27.9518491,-82.4563972
Terre Haute IN USA,25,2019-02-11,39.4667025,-87.4139119
Toledo OH USA,17,2019-02-11,41.6786754,-83.5127283
Topeka KS USA,46,2019-02-11,39.049011,-95.677556
Traverse City MI USA,21,2019-02-11,44.7606441,-85.6165301
Tri VA USA,10,2019-02-11,38.5467876,-77.3366491
Tucson AZ USA,11,2019-02-11,32.2228765,-110.9748477
Tulsa OK USA,5,2019-02-11,36.1556805,-95.9929113
Tyler TX USA,23,2019-02-11,32.3512601,-95.3010624
Victoria TX USA,99,2019-02-11,28.8026443,-96.9766308
Waco TX USA,12,2019-02-11,31.549333,-97.1466695
Washington DC USA,12,2019-02-11,38.8948932,-77.0365529
Wausau WI USA,54,2019-02-11,44.9596017,-89.6298239
West Palm Beach FL USA,7,2019-02-11,26.7153425,-80.0533746
Wheeling WV USA,28,2019-02-11,40.0639616,-80.7209149
Wichita KS USA,19,2019-02-11,37.6922361,-97.3375448
Wilkes Barre PA USA,8,2019-02-11,41.2464824,-75.8817316
Wilmington NC USA,13,2019-02-11,34.2257282,-77.9447107
Yakima WA USA,21,2019-02-11,46.601557,-120.5108421
Youngstown OH USA,12,2019-02-11,41.1035786,-80.6520161
Yuma AZ USA,22,2019-02-11,32.6926588,-114.6276157
Zanesville OH USA,100,2019-02-11,39.9403453,-82.0131924
Abilene TX USA,15,2019-02-18,32.44645,-99.7475905
Albany GA USA,13,2019-02-18,40.0555158,-82.8457691
Albany NY USA,9,2019-02-18,42.6511674,-73.754968
Albuquerque NM USA,5,2019-02-18,35.0841034,-106.6509851
Alexandria LA USA,23,2019-02-18,38.8147596,-77.09024765272724
Amarillo TX USA,9,2019-02-18,35.2072185,-101.8338246
Anchorage AK USA,8,2019-02-18,61.2163129,-149.8948523
Atlanta GA USA,8,2019-02-18,33.7490987,-84.3901849
Augusta GA USA,9,2019-02-18,33.4709714,-81.9748429
Austin TX USA,6,2019-02-18,30.2711286,-97.7436995
Bakersfield CA USA,6,2019-02-18,35.3738712,-119.0194639
Baltimore MD USA,8,2019-02-18,39.284749399999995,-76.62047463969989
Bangor ME USA,12,2019-02-18,44.8011821,-68.7778138
Baton Rouge LA USA,13,2019-02-18,30.4459596,-91.18738
Beaumont TX USA,10,2019-02-18,30.0860459,-94.1018461
Bend OR USA,17,2019-02-18,44.0581728,-121.3153096
Biloxi MS USA,19,2019-02-18,30.374673,-88.84594333482862
Binghamton NY USA,23,2019-02-18,42.096968,-75.914341
Birmingham AL USA,11,2019-02-18,33.570499,-86.765783
Bluefield WV USA,25,2019-02-18,37.2698395,-81.2223195
Boise ID USA,11,2019-02-18,43.6166163,-116.200886
Boston MA USA,10,2019-02-18,42.3602534,-71.0582912
Bowling Green KY USA,18,2019-02-18,36.9903199,-86.4436018
Buffalo NY USA,9,2019-02-18,42.8867166,-78.8783922
Burlington VT USA,8,2019-02-18,44.4762975,-73.2135472
Butte MT USA,34,2019-02-18,46.0131505,-112.5365089
Cedar Rapids IA USA,8,2019-02-18,41.9758872,-91.6704053
Champaign IL USA,13,2019-02-18,40.1164205,-88.2433829
Charleston SC USA,12,2019-02-18,32.7876012,-79.9402728
Charlotte NC USA,10,2019-02-18,35.2270869,-80.8431268
Charlottesville VA USA,20,2019-02-18,38.029306,-78.4766781
Chattanooga TN USA,10,2019-02-18,35.0457219,-85.3094883
Cheyenne WY USA,27,2019-02-18,40.640361,-74.367318
Chicago IL USA,14,2019-02-18,41.8755616,-87.6244212
Chico CA USA,13,2019-02-18,39.7284945,-121.8374777
Cincinnati OH USA,21,2019-02-18,39.1014537,-84.5124602
Clarksburg WV USA,19,2019-02-18,39.2806451,-80.3445341
Cleveland OH USA,15,2019-02-18,41.5051613,-81.6934446
Colorado Springs CO USA,9,2019-02-18,38.8339578,-104.8253485
Columbia SC USA,16,2019-02-18,34.0007493,-81.0343313
Columbia MO USA,8,2019-02-18,38.951883,-92.3337366
Columbus GA USA,17,2019-02-18,32.4609764,-84.9877094
Columbus OH USA,17,2019-02-18,39.9622601,-83.0007065
Corpus Christi TX USA,7,2019-02-18,27.7477253,-97.4014129
Dallas TX USA,8,2019-02-18,32.7762719,-96.7968559
Davenport IA USA,8,2019-02-18,41.5236436,-90.5776368
Dayton OH USA,16,2019-02-18,39.7589478,-84.1916069
Denver CO USA,13,2019-02-18,39.7348381,-104.9653271
Des Moines IA USA,21,2019-02-18,41.5910641,-93.6037149
Detroit MI USA,13,2019-02-18,42.3315509,-83.0466403
El Paso TX USA,6,2019-02-18,31.7754152,-106.4646348
Erie PA USA,14,2019-02-18,42.1294712,-80.0852695
Eugene OR USA,13,2019-02-18,44.0505054,-123.0950506
Evansville IN USA,12,2019-02-18,37.9747645,-87.5558483
Fairbanks AK USA,35,2019-02-18,64.837845,-147.716675
Fargo ND USA,25,2019-02-18,46.877229,-96.789821
Flint MI USA,11,2019-02-18,43.0161693,-83.6900211
Florence SC USA,6,2019-02-18,34.1984435,-79.7671658
Fresno CA USA,6,2019-02-18,36.7295295,-119.70886126075588
Ft. Myers FL USA,8,2019-02-18,26.640628,-81.8723084
Ft. Smith AR USA,7,2019-02-18,35.3872218,-94.4248983
Ft. Wayne IN USA,25,2019-02-18,41.0799898,-85.1386015
Gainesville FL USA,8,2019-02-18,29.67357765,-82.32337460192167
Grand Junction CO USA,62,2019-02-18,39.063956,-108.5507317
Grand Rapids MI USA,19,2019-02-18,42.9142413,-85.533004
Great Falls MT USA,31,2019-02-18,47.5048851,-111.2918908
Green Bay WI USA,22,2019-02-18,44.5126379,-88.0125794
Greensboro NC USA,7,2019-02-18,36.0726355,-79.7919754
Greenville NC USA,10,2019-02-18,35.612661,-77.3663538
Greenville SC USA,7,2019-02-18,34.851354,-82.3984882
Greenwood MS USA,37,2019-02-18,39.59493885,-86.12237861696312
Harlingen TX USA,3,2019-02-18,26.1908241,-97.6959794
Harrisburg PA USA,9,2019-02-18,40.2663107,-76.8861122
Harrisonburg VA USA,14,2019-02-18,38.4493315,-78.8688833
Hartford CT USA,16,2019-02-18,43.648048,-70.241416
Helena MT USA,77,2019-02-18,46.5927425,-112.0362771
Honolulu HI USA,5,2019-02-18,21.304547,-157.8556764
Houston TX USA,5,2019-02-18,29.7589382,-95.3676974
Huntsville AL USA,6,2019-02-18,33.554113,-86.804219
Idaho Falls ID USA,17,2019-02-18,43.4935245,-112.0400919
Indianapolis IN USA,12,2019-02-18,39.7683331,-86.1583502
Jackson MS USA,9,2019-02-18,28.530801699999998,-81.30324431076107
Jackson TN USA,19,2019-02-18,35.6144446,-88.8177418
Jacksonville FL USA,8,2019-02-18,30.3321838,-81.655651
Johnstown PA USA,10,2019-02-18,40.3267407,-78.9219698
Jonesboro AR USA,28,2019-02-18,35.8428646,-90.7034522
Joplin MO USA,16,2019-02-18,37.08418,-94.51323
Kansas City MO USA,9,2019-02-18,39.100105,-94.5781416
Knoxville TN USA,7,2019-02-18,35.9603948,-83.9210261
La Crosse WI USA,19,2019-02-18,43.8014053,-91.2395429
Lafayette IN USA,40,2019-02-18,40.4167022,-86.8752869
Lansing MI USA,14,2019-02-18,42.7338147,-84.5207088
Las Vegas NV USA,17,2019-02-18,36.1672559,-115.1485163
Lexington KY USA,14,2019-02-18,38.0464066,-84.4970393
Lima OH USA,30,2019-02-18,40.7399785,-84.105006
Lincoln NE USA,12,2019-02-18,40.8088861,-96.7077751
Little Rock AR USA,7,2019-02-18,34.7464809,-92.2895948
Los Angeles CA USA,7,2019-02-18,34.0536909,-118.2427666
Louisville KY USA,14,2019-02-18,38.2542376,-85.759407
Lubbock TX USA,14,2019-02-18,33.5635206,-101.879336
Macon GA USA,13,2019-02-18,32.8406946,-83.6324022
Madison WI USA,15,2019-02-18,43.074761,-89.3837613
Medford OR USA,18,2019-02-18,42.3264181,-122.8718605
Memphis TN USA,7,2019-02-18,35.1490215,-90.0516285
Miami FL USA,3,2019-02-18,25.7742658,-80.1936589
Milwaukee WI USA,19,2019-02-18,43.0349931,-87.922497
Minneapolis MN USA,13,2019-02-18,44.9772995,-93.2654692
Minot ND USA,15,2019-02-18,48.23251,-101.296273
Missoula MT USA,27,2019-02-18,46.8701049,-113.9952672
Mobile AL USA,6,2019-02-18,39.092585,-84.853229
Monroe LA USA,12,2019-02-18,38.2722313,-90.1792484
Monterey CA USA,5,2019-02-18,36.2231079,-121.3877428
Montgomery AL USA,7,2019-02-18,40.85239,-78.266098
Nashville TN USA,10,2019-02-18,36.1622296,-86.7743531
New Orleans LA USA,4,2019-02-18,29.9499323,-90.0701156
New York NY USA,8,2019-02-18,40.7127281,-74.0060152
Norfolk VA USA,9,2019-02-18,36.8889933,-76.2481624
North Platte NE USA,100,2019-02-18,41.1238873,-100.7654232
Oklahoma City OK USA,8,2019-02-18,35.4729886,-97.5170536
Omaha NE USA,19,2019-02-18,41.2587459,-95.9383758
Orlando FL USA,5,2019-02-18,28.5479786,-81.41278418563017
Ottumwa IA USA,37,2019-02-18,41.0200145,-92.4112963
Paducah KY USA,10,2019-02-18,37.0833893,-88.6000478
Palm Springs CA USA,8,2019-02-18,33.8246269,-116.540303
Peoria IL USA,9,2019-02-18,40.6938609,-89.5891008
Philadelphia PA USA,13,2019-02-18,39.9527237,-75.1635262
Phoenix AZ USA,11,2019-02-18,33.4484367,-112.0741417
Pittsburgh PA USA,12,2019-02-18,40.4416941,-79.9900861
Portland OR USA,9,2019-02-18,45.5202471,-122.6741949
Portland ME USA,7,2019-02-18,43.6610277,-70.2548596
Providence RI USA,10,2019-02-18,41.8239891,-71.4128343
Quincy IL USA,19,2019-02-18,42.2528772,-71.0022705
Raleigh NC USA,9,2019-02-18,35.7803977,-78.6390989
Rapid City SD USA,17,2019-02-18,44.081176,-103.228006
Reno NV USA,9,2019-02-18,39.5261206,-119.8126581
Richmond VA USA,13,2019-02-18,37.5385087,-77.43428
Roanoke VA USA,18,2019-02-18,37.270973,-79.9414313
Rochester MN USA,10,2019-02-18,44.0234387,-92.4630182
Rochester NY USA,10,2019-02-18,43.157285,-77.615214
Rockford IL USA,11,2019-02-18,42.2713945,-89.093966
Sacramento CA USA,8,2019-02-18,38.5815719,-121.4943996
Salisbury MD USA,10,2019-02-18,38.3662114,-75.6008881
Salt Lake City UT USA,16,2019-02-18,40.7596198,-111.8867975
San Antonio TX USA,7,2019-02-18,29.4246002,-98.4951405
San Diego CA USA,8,2019-02-18,32.7174209,-117.1627714
San Francisco CA USA,9,2019-02-18,37.7790262,-122.4199061
Santa Barbara CA USA,9,2019-02-18,34.4221319,-119.7026673
Savannah GA USA,13,2019-02-18,32.0809263,-81.0911768
Seattle WA USA,7,2019-02-18,47.6038321,-122.3300624
Sherman TX USA,14,2019-02-18,36.2452294,-101.8858689
Shreveport LA USA,5,2019-02-18,32.5221828,-93.7651944
Sioux City IA USA,15,2019-02-18,42.4966815,-96.4058782
Sioux Falls SD USA,18,2019-02-18,43.5499749,-96.700327
South Bend IN USA,8,2019-02-18,41.6833813,-86.2500066
Spokane WA USA,14,2019-02-18,47.6579425,-117.4212265
Springfield MO USA,7,2019-02-18,37.2166779,-93.2920373
Springfield MA USA,7,2019-02-18,42.1014831,-72.589811
St. Louis MO USA,11,2019-02-18,38.6268039,-90.1994097
Syracuse NY USA,8,2019-02-18,43.0481221,-76.1474244
Tallahassee FL USA,10,2019-02-18,30.4380832,-84.2809332
Tampa FL USA,5,2019-02-18,27.9518491,-82.4563972
Terre Haute IN USA,13,2019-02-18,39.4667025,-87.4139119
Toledo OH USA,8,2019-02-18,41.6786754,-83.5127283
Topeka KS USA,11,2019-02-18,39.049011,-95.677556
Traverse City MI USA,23,2019-02-18,44.7606441,-85.6165301
Tri VA USA,6,2019-02-18,38.5467876,-77.3366491
Tucson AZ USA,9,2019-02-18,32.2228765,-110.9748477
Tulsa OK USA,6,2019-02-18,36.1556805,-95.9929113
Tyler TX USA,6,2019-02-18,32.3512601,-95.3010624
Utica NY USA,16,2019-02-18,43.1009031,-75.2326641
Waco TX USA,6,2019-02-18,31.549333,-97.1466695
Washington DC USA,9,2019-02-18,38.8948932,-77.0365529
Watertown NY USA,19,2019-02-18,43.9747838,-75.9107565
Wausau WI USA,9,2019-02-18,44.9596017,-89.6298239
West Palm Beach FL USA,5,2019-02-18,26.7153425,-80.0533746
Wheeling WV USA,15,2019-02-18,40.0639616,-80.7209149
Wichita Falls TX USA,22,2019-02-18,33.9137085,-98.4933873
Wichita KS USA,11,2019-02-18,37.6922361,-97.3375448
Wilkes Barre PA USA,9,2019-02-18,41.2464824,-75.8817316
Wilmington NC USA,7,2019-02-18,34.2257282,-77.9447107
Yakima WA USA,10,2019-02-18,46.601557,-120.5108421
Youngstown OH USA,7,2019-02-18,41.1035786,-80.6520161
Yuma AZ USA,24,2019-02-18,32.6926588,-114.6276157
Zanesville OH USA,53,2019-02-18,39.9403453,-82.0131924
Albany GA USA,12,2019-02-25,40.0555158,-82.8457691
Albany NY USA,21,2019-02-25,42.6511674,-73.754968
Albuquerque NM USA,13,2019-02-25,35.0841034,-106.6509851
Amarillo TX USA,8,2019-02-25,35.2072185,-101.8338246
Anchorage AK USA,16,2019-02-25,61.2163129,-149.8948523
Atlanta GA USA,15,2019-02-25,33.7490987,-84.3901849
Augusta GA USA,11,2019-02-25,33.4709714,-81.9748429
Austin TX USA,13,2019-02-25,30.2711286,-97.7436995
Bakersfield CA USA,5,2019-02-25,35.3738712,-119.0194639
Baltimore MD USA,14,2019-02-25,39.284749399999995,-76.62047463969989
Bangor ME USA,27,2019-02-25,44.8011821,-68.7778138
Baton Rouge LA USA,8,2019-02-25,30.4459596,-91.18738
Beaumont TX USA,10,2019-02-25,30.0860459,-94.1018461
Bend OR USA,39,2019-02-25,44.0581728,-121.3153096
"Billings, MT USA",22,2019-02-25,45.7874957,-108.49607
Biloxi MS USA,21,2019-02-25,30.374673,-88.84594333482862
Binghamton NY USA,27,2019-02-25,42.096968,-75.914341
Birmingham AL USA,15,2019-02-25,33.570499,-86.765783
Bluefield WV USA,16,2019-02-25,37.2698395,-81.2223195
Boise ID USA,8,2019-02-25,43.6166163,-116.200886
Boston MA USA,21,2019-02-25,42.3602534,-71.0582912
Buffalo NY USA,22,2019-02-25,42.8867166,-78.8783922
Burlington VT USA,8,2019-02-25,44.4762975,-73.2135472
Butte MT USA,17,2019-02-25,46.0131505,-112.5365089
Cedar Rapids IA USA,24,2019-02-25,41.9758872,-91.6704053
Champaign IL USA,19,2019-02-25,40.1164205,-88.2433829
Charleston SC USA,13,2019-02-25,32.7876012,-79.9402728
Charleston WV USA,16,2019-02-25,38.3505995,-81.6332812
Charlotte NC USA,16,2019-02-25,35.2270869,-80.8431268
Charlottesville VA USA,23,2019-02-25,38.029306,-78.4766781
Chattanooga TN USA,11,2019-02-25,35.0457219,-85.3094883
Cheyenne WY USA,26,2019-02-25,40.640361,-74.367318
Chicago IL USA,22,2019-02-25,41.8755616,-87.6244212
Chico CA USA,17,2019-02-25,39.7284945,-121.8374777
Cincinnati OH USA,29,2019-02-25,39.1014537,-84.5124602
Cleveland OH USA,19,2019-02-25,41.5051613,-81.6934446
Colorado Springs CO USA,8,2019-02-25,38.8339578,-104.8253485
Columbia SC USA,15,2019-02-25,34.0007493,-81.0343313
Columbia MO USA,13,2019-02-25,38.951883,-92.3337366
Columbus GA USA,17,2019-02-25,32.4609764,-84.9877094
Columbus OH USA,21,2019-02-25,39.9622601,-83.0007065
Columbus MS USA,11,2019-02-25,43.336875649999996,-89.0196532340367
Corpus Christi TX USA,10,2019-02-25,27.7477253,-97.4014129
Dallas TX USA,13,2019-02-25,32.7762719,-96.7968559
Davenport IA USA,12,2019-02-25,41.5236436,-90.5776368
Dayton OH USA,33,2019-02-25,39.7589478,-84.1916069
Denver CO USA,21,2019-02-25,39.7348381,-104.9653271
Des Moines IA USA,24,2019-02-25,41.5910641,-93.6037149
Detroit MI USA,22,2019-02-25,42.3315509,-83.0466403
Dothan AL USA,17,2019-02-25,31.2237434,-85.3933906
Duluth MN USA,30,2019-02-25,46.7729322,-92.1251218
El Paso TX USA,9,2019-02-25,31.7754152,-106.4646348
Elmira NY USA,26,2019-02-25,42.0897965,-76.8077338
Erie PA USA,20,2019-02-25,42.1294712,-80.0852695
Eugene OR USA,11,2019-02-25,44.0505054,-123.0950506
Eureka CA USA,22,2019-02-25,40.8020712,-124.1636729
Evansville IN USA,26,2019-02-25,37.9747645,-87.5558483
Fargo ND USA,20,2019-02-25,46.877229,-96.789821
Flint MI USA,20,2019-02-25,43.0161693,-83.6900211
Florence SC USA,9,2019-02-25,34.1984435,-79.7671658
Fresno CA USA,10,2019-02-25,36.7295295,-119.70886126075588
Ft. Myers FL USA,10,2019-02-25,26.640628,-81.8723084
Ft. Smith AR USA,20,2019-02-25,35.3872218,-94.4248983
Ft. Wayne IN USA,11,2019-02-25,41.0799898,-85.1386015
Gainesville FL USA,12,2019-02-25,29.67357765,-82.32337460192167
Grand Junction CO USA,20,2019-02-25,39.063956,-108.5507317
Grand Rapids MI USA,22,2019-02-25,42.9142413,-85.533004
Green Bay WI USA,33,2019-02-25,44.5126379,-88.0125794
Greensboro NC USA,8,2019-02-25,36.0726355,-79.7919754
Greenville NC USA,11,2019-02-25,35.612661,-77.3663538
Greenville SC USA,14,2019-02-25,34.851354,-82.3984882
Harlingen TX USA,3,2019-02-25,26.1908241,-97.6959794
Harrisburg PA USA,14,2019-02-25,40.2663107,-76.8861122
Harrisonburg VA USA,14,2019-02-25,38.4493315,-78.8688833
Hartford CT USA,18,2019-02-25,43.648048,-70.241416
Hattiesburg MS USA,34,2019-02-25,31.3271189,-89.2903392
Helena MT USA,48,2019-02-25,46.5927425,-112.0362771
Honolulu HI USA,5,2019-02-25,21.304547,-157.8556764
Houston TX USA,11,2019-02-25,29.7589382,-95.3676974
Huntsville AL USA,13,2019-02-25,33.554113,-86.804219
Idaho Falls ID USA,14,2019-02-25,43.4935245,-112.0400919
Indianapolis IN USA,24,2019-02-25,39.7683331,-86.1583502
Jackson MS USA,6,2019-02-25,28.530801699999998,-81.30324431076107
Jackson TN USA,28,2019-02-25,35.6144446,-88.8177418
Jacksonville FL USA,14,2019-02-25,30.3321838,-81.655651
Johnstown PA USA,18,2019-02-25,40.3267407,-78.9219698
Juneau AK USA,62,2019-02-25,58.3019496,-134.419734
Kansas City MO USA,18,2019-02-25,39.100105,-94.5781416
Knoxville TN USA,20,2019-02-25,35.9603948,-83.9210261
La Crosse WI USA,25,2019-02-25,43.8014053,-91.2395429
Lafayette IN USA,24,2019-02-25,40.4167022,-86.8752869
Lafayette LA USA,11,2019-02-25,30.2240897,-92.0198427
Lansing MI USA,20,2019-02-25,42.7338147,-84.5207088
Laredo TX USA,15,2019-02-25,27.5199841,-99.4953764
Las Vegas NV USA,21,2019-02-25,36.1672559,-115.1485163
Lexington KY USA,15,2019-02-25,38.0464066,-84.4970393
Lima OH USA,83,2019-02-25,40.7399785,-84.105006
Lincoln NE USA,23,2019-02-25,40.8088861,-96.7077751
Little Rock AR USA,15,2019-02-25,34.7464809,-92.2895948
Los Angeles CA USA,12,2019-02-25,34.0536909,-118.2427666
Louisville KY USA,26,2019-02-25,38.2542376,-85.759407
Lubbock TX USA,19,2019-02-25,33.5635206,-101.879336
Macon GA USA,9,2019-02-25,32.8406946,-83.6324022
Madison WI USA,29,2019-02-25,43.074761,-89.3837613
Marquette MI USA,33,2019-02-25,46.4481521,-87.6305899
Medford OR USA,19,2019-02-25,42.3264181,-122.8718605
Memphis TN USA,8,2019-02-25,35.1490215,-90.0516285
Meridian MS USA,35,2019-02-25,43.61732135,-116.40613112241579
Miami FL USA,8,2019-02-25,25.7742658,-80.1936589
Milwaukee WI USA,39,2019-02-25,43.0349931,-87.922497
Minneapolis MN USA,21,2019-02-25,44.9772995,-93.2654692
Minot ND USA,13,2019-02-25,48.23251,-101.296273
Missoula MT USA,25,2019-02-25,46.8701049,-113.9952672
Mobile AL USA,10,2019-02-25,39.092585,-84.853229
Monroe LA USA,12,2019-02-25,38.2722313,-90.1792484
Monterey CA USA,5,2019-02-25,36.2231079,-121.3877428
Montgomery AL USA,7,2019-02-25,40.85239,-78.266098
Nashville TN USA,17,2019-02-25,36.1622296,-86.7743531
New Orleans LA USA,8,2019-02-25,29.9499323,-90.0701156
New York NY USA,14,2019-02-25,40.7127281,-74.0060152
Norfolk VA USA,15,2019-02-25,36.8889933,-76.2481624
North Platte NE USA,100,2019-02-25,41.1238873,-100.7654232
Odessa TX USA,8,2019-02-25,31.8457149,-102.367687
Oklahoma City OK USA,9,2019-02-25,35.4729886,-97.5170536
Omaha NE USA,31,2019-02-25,41.2587459,-95.9383758
Orlando FL USA,10,2019-02-25,28.5479786,-81.41278418563017
Paducah KY USA,20,2019-02-25,37.0833893,-88.6000478
Palm Springs CA USA,16,2019-02-25,33.8246269,-116.540303
Parkersburg WV USA,60,2019-02-25,39.2699565,-81.5506916
Peoria IL USA,31,2019-02-25,40.6938609,-89.5891008
Philadelphia PA USA,18,2019-02-25,39.9527237,-75.1635262
Phoenix AZ USA,14,2019-02-25,33.4484367,-112.0741417
Pittsburgh PA USA,20,2019-02-25,40.4416941,-79.9900861
Portland OR USA,12,2019-02-25,45.5202471,-122.6741949
Portland ME USA,19,2019-02-25,43.6610277,-70.2548596
Providence RI USA,10,2019-02-25,41.8239891,-71.4128343
Quincy IL USA,18,2019-02-25,42.2528772,-71.0022705
Raleigh NC USA,17,2019-02-25,35.7803977,-78.6390989
Rapid City SD USA,41,2019-02-25,44.081176,-103.228006
Reno NV USA,18,2019-02-25,39.5261206,-119.8126581
Richmond VA USA,25,2019-02-25,37.5385087,-77.43428
Roanoke VA USA,20,2019-02-25,37.270973,-79.9414313
Rochester MN USA,19,2019-02-25,44.0234387,-92.4630182
Rochester NY USA,25,2019-02-25,43.157285,-77.615214
Rockford IL USA,16,2019-02-25,42.2713945,-89.093966
Sacramento CA USA,8,2019-02-25,38.5815719,-121.4943996
Salisbury MD USA,18,2019-02-25,38.3662114,-75.6008881
Salt Lake City UT USA,19,2019-02-25,40.7596198,-111.8867975
San Angelo TX USA,43,2019-02-25,31.4648357,-100.4398442
San Antonio TX USA,12,2019-02-25,29.4246002,-98.4951405
San Diego CA USA,12,2019-02-25,32.7174209,-117.1627714
San Francisco CA USA,12,2019-02-25,37.7790262,-122.4199061
Santa Barbara CA USA,13,2019-02-25,34.4221319,-119.7026673
Savannah GA USA,18,2019-02-25,32.0809263,-81.0911768
Seattle WA USA,16,2019-02-25,47.6038321,-122.3300624
Sherman TX USA,18,2019-02-25,36.2452294,-101.8858689
Shreveport LA USA,5,2019-02-25,32.5221828,-93.7651944
Sioux City IA USA,37,2019-02-25,42.4966815,-96.4058782
Sioux Falls SD USA,30,2019-02-25,43.5499749,-96.700327
South Bend IN USA,26,2019-02-25,41.6833813,-86.2500066
Spokane WA USA,29,2019-02-25,47.6579425,-117.4212265
Springfield MO USA,9,2019-02-25,37.2166779,-93.2920373
Springfield MA USA,11,2019-02-25,42.1014831,-72.589811
St. Louis MO USA,25,2019-02-25,38.6268039,-90.1994097
Syracuse NY USA,16,2019-02-25,43.0481221,-76.1474244
Tallahassee FL USA,17,2019-02-25,30.4380832,-84.2809332
Tampa FL USA,15,2019-02-25,27.9518491,-82.4563972
Terre Haute IN USA,26,2019-02-25,39.4667025,-87.4139119
Toledo OH USA,23,2019-02-25,41.6786754,-83.5127283
Topeka KS USA,23,2019-02-25,39.049011,-95.677556
Traverse City MI USA,30,2019-02-25,44.7606441,-85.6165301
Tri VA USA,15,2019-02-25,38.5467876,-77.3366491
Tucson AZ USA,15,2019-02-25,32.2228765,-110.9748477
Tulsa OK USA,17,2019-02-25,36.1556805,-95.9929113
Twin Falls ID USA,22,2019-02-25,42.5704219,-114.4603171
Tyler TX USA,15,2019-02-25,32.3512601,-95.3010624
Utica NY USA,14,2019-02-25,43.1009031,-75.2326641
Waco TX USA,12,2019-02-25,31.549333,-97.1466695
Washington DC USA,20,2019-02-25,38.8948932,-77.0365529
Watertown NY USA,33,2019-02-25,43.9747838,-75.9107565
Wausau WI USA,18,2019-02-25,44.9596017,-89.6298239
West Palm Beach FL USA,6,2019-02-25,26.7153425,-80.0533746
Wheeling WV USA,29,2019-02-25,40.0639616,-80.7209149
Wichita Falls TX USA,21,2019-02-25,33.9137085,-98.4933873
Wichita KS USA,21,2019-02-25,37.6922361,-97.3375448
Wilkes Barre PA USA,12,2019-02-25,41.2464824,-75.8817316
Wilmington NC USA,11,2019-02-25,34.2257282,-77.9447107
Yakima WA USA,20,2019-02-25,46.601557,-120.5108421
Youngstown OH USA,9,2019-02-25,41.1035786,-80.6520161
Yuma AZ USA,11,2019-02-25,32.6926588,-114.6276157
Zanesville OH USA,51,2019-02-25,39.9403453,-82.0131924
Abilene TX USA,7,2019-03-04,32.44645,-99.7475905
Albany GA USA,5,2019-03-04,40.0555158,-82.8457691
Albany NY USA,5,2019-03-04,42.6511674,-73.754968
Albuquerque NM USA,3,2019-03-04,35.0841034,-106.6509851
Alexandria LA USA,7,2019-03-04,38.8147596,-77.09024765272724
Amarillo TX USA,8,2019-03-04,35.2072185,-101.8338246
Anchorage AK USA,6,2019-03-04,61.2163129,-149.8948523
Atlanta GA USA,4,2019-03-04,33.7490987,-84.3901849
Augusta GA USA,7,2019-03-04,33.4709714,-81.9748429
Austin TX USA,4,2019-03-04,30.2711286,-97.7436995
Bakersfield CA USA,2,2019-03-04,35.3738712,-119.0194639
Baltimore MD USA,5,2019-03-04,39.284749399999995,-76.62047463969989
Bangor ME USA,5,2019-03-04,44.8011821,-68.7778138
Baton Rouge LA USA,3,2019-03-04,30.4459596,-91.18738
Beaumont TX USA,2,2019-03-04,30.0860459,-94.1018461
Bend OR USA,6,2019-03-04,44.0581728,-121.3153096
"Billings, MT USA",6,2019-03-04,45.7874957,-108.49607
Biloxi MS USA,2,2019-03-04,30.374673,-88.84594333482862
Binghamton NY USA,4,2019-03-04,42.096968,-75.914341
Birmingham AL USA,4,2019-03-04,33.570499,-86.765783
Bluefield WV USA,4,2019-03-04,37.2698395,-81.2223195
Boise ID USA,3,2019-03-04,43.6166163,-116.200886
Boston MA USA,6,2019-03-04,42.3602534,-71.0582912
Bowling Green KY USA,5,2019-03-04,36.9903199,-86.4436018
Buffalo NY USA,5,2019-03-04,42.8867166,-78.8783922
Burlington VT USA,8,2019-03-04,44.4762975,-73.2135472
Butte MT USA,8,2019-03-04,46.0131505,-112.5365089
Casper WY USA,11,2019-03-04,39.4632037,-75.7079641
Cedar Rapids IA USA,7,2019-03-04,41.9758872,-91.6704053
Champaign IL USA,7,2019-03-04,40.1164205,-88.2433829
Charleston SC USA,6,2019-03-04,32.7876012,-79.9402728
Charleston WV USA,4,2019-03-04,38.3505995,-81.6332812
Charlotte NC USA,4,2019-03-04,35.2270869,-80.8431268
Charlottesville VA USA,6,2019-03-04,38.029306,-78.4766781
Chattanooga TN USA,4,2019-03-04,35.0457219,-85.3094883
Cheyenne WY USA,11,2019-03-04,40.640361,-74.367318
Chicago IL USA,8,2019-03-04,41.8755616,-87.6244212
Chico CA USA,3,2019-03-04,39.7284945,-121.8374777
Cincinnati OH USA,8,2019-03-04,39.1014537,-84.5124602
Clarksburg WV USA,7,2019-03-04,39.2806451,-80.3445341
Cleveland OH USA,6,2019-03-04,41.5051613,-81.6934446
Colorado Springs CO USA,6,2019-03-04,38.8339578,-104.8253485
Columbia SC USA,6,2019-03-04,34.0007493,-81.0343313
Columbia MO USA,5,2019-03-04,38.951883,-92.3337366
Columbus GA USA,5,2019-03-04,32.4609764,-84.9877094
Columbus OH USA,9,2019-03-04,39.9622601,-83.0007065
Columbus MS USA,7,2019-03-04,43.336875649999996,-89.0196532340367
Corpus Christi TX USA,2,2019-03-04,27.7477253,-97.4014129
Dallas TX USA,5,2019-03-04,32.7762719,-96.7968559
Davenport IA USA,5,2019-03-04,41.5236436,-90.5776368
Dayton OH USA,7,2019-03-04,39.7589478,-84.1916069
Denver CO USA,5,2019-03-04,39.7348381,-104.9653271
Des Moines IA USA,7,2019-03-04,41.5910641,-93.6037149
Detroit MI USA,6,2019-03-04,42.3315509,-83.0466403
Dothan AL USA,6,2019-03-04,31.2237434,-85.3933906
Duluth MN USA,5,2019-03-04,46.7729322,-92.1251218
El Paso TX USA,4,2019-03-04,31.7754152,-106.4646348
Elmira NY USA,6,2019-03-04,42.0897965,-76.8077338
Erie PA USA,3,2019-03-04,42.1294712,-80.0852695
Eugene OR USA,4,2019-03-04,44.0505054,-123.0950506
Eureka CA USA,5,2019-03-04,40.8020712,-124.1636729
Evansville IN USA,6,2019-03-04,37.9747645,-87.5558483
Fargo ND USA,6,2019-03-04,46.877229,-96.789821
Flint MI USA,6,2019-03-04,43.0161693,-83.6900211
Florence SC USA,5,2019-03-04,34.1984435,-79.7671658
Fresno CA USA,2,2019-03-04,36.7295295,-119.70886126075588
Ft. Myers FL USA,5,2019-03-04,26.640628,-81.8723084
Ft. Smith AR USA,4,2019-03-04,35.3872218,-94.4248983
Ft. Wayne IN USA,5,2019-03-04,41.0799898,-85.1386015
Gainesville FL USA,3,2019-03-04,29.67357765,-82.32337460192167
Glendive MT USA,100,2019-03-04,47.10529,-104.71246
Grand Junction CO USA,8,2019-03-04,39.063956,-108.5507317
Grand Rapids MI USA,9,2019-03-04,42.9142413,-85.533004
Great Falls MT USA,6,2019-03-04,47.5048851,-111.2918908
Green Bay WI USA,9,2019-03-04,44.5126379,-88.0125794
Greensboro NC USA,4,2019-03-04,36.0726355,-79.7919754
Greenville NC USA,5,2019-03-04,35.612661,-77.3663538
Greenville SC USA,5,2019-03-04,34.851354,-82.3984882
Harlingen TX USA,2,2019-03-04,26.1908241,-97.6959794
Harrisburg PA USA,6,2019-03-04,40.2663107,-76.8861122
Harrisonburg VA USA,3,2019-03-04,38.4493315,-78.8688833
Hartford CT USA,5,2019-03-04,43.648048,-70.241416
Hattiesburg MS USA,3,2019-03-04,31.3271189,-89.2903392
Honolulu HI USA,2,2019-03-04,21.304547,-157.8556764
Houston TX USA,3,2019-03-04,29.7589382,-95.3676974
Huntsville AL USA,3,2019-03-04,33.554113,-86.804219
Idaho Falls ID USA,7,2019-03-04,43.4935245,-112.0400919
Indianapolis IN USA,8,2019-03-04,39.7683331,-86.1583502
Jackson MS USA,3,2019-03-04,28.530801699999998,-81.30324431076107
Jackson TN USA,4,2019-03-04,35.6144446,-88.8177418
Jacksonville FL USA,4,2019-03-04,30.3321838,-81.655651
Johnstown PA USA,5,2019-03-04,40.3267407,-78.9219698
Jonesboro AR USA,6,2019-03-04,35.8428646,-90.7034522
Joplin MO USA,5,2019-03-04,37.08418,-94.51323
Kansas City MO USA,6,2019-03-04,39.100105,-94.5781416
Knoxville TN USA,4,2019-03-04,35.9603948,-83.9210261
La Crosse WI USA,7,2019-03-04,43.8014053,-91.2395429
Lafayette IN USA,10,2019-03-04,40.4167022,-86.8752869
Lafayette LA USA,4,2019-03-04,30.2240897,-92.0198427
Lake Charles LA USA,3,2019-03-04,30.2265949,-93.2173759
Lansing MI USA,6,2019-03-04,42.7338147,-84.5207088
Laredo TX USA,9,2019-03-04,27.5199841,-99.4953764
Las Vegas NV USA,6,2019-03-04,36.1672559,-115.1485163
Lexington KY USA,6,2019-03-04,38.0464066,-84.4970393
Lima OH USA,6,2019-03-04,40.7399785,-84.105006
Lincoln NE USA,6,2019-03-04,40.8088861,-96.7077751
Little Rock AR USA,3,2019-03-04,34.7464809,-92.2895948
Los Angeles CA USA,4,2019-03-04,34.0536909,-118.2427666
Louisville KY USA,6,2019-03-04,38.2542376,-85.759407
Lubbock TX USA,7,2019-03-04,33.5635206,-101.879336
Macon GA USA,3,2019-03-04,32.8406946,-83.6324022
Madison WI USA,8,2019-03-04,43.074761,-89.3837613
Mankato MN USA,8,2019-03-04,44.1634663,-93.9993505
Marquette MI USA,4,2019-03-04,46.4481521,-87.6305899
Medford OR USA,5,2019-03-04,42.3264181,-122.8718605
Memphis TN USA,4,2019-03-04,35.1490215,-90.0516285
Meridian MS USA,14,2019-03-04,43.61732135,-116.40613112241579
Miami FL USA,2,2019-03-04,25.7742658,-80.1936589
Milwaukee WI USA,8,2019-03-04,43.0349931,-87.922497
Minneapolis MN USA,7,2019-03-04,44.9772995,-93.2654692
Minot ND USA,5,2019-03-04,48.23251,-101.296273
Missoula MT USA,12,2019-03-04,46.8701049,-113.9952672
Mobile AL USA,2,2019-03-04,39.092585,-84.853229
Monroe LA USA,4,2019-03-04,38.2722313,-90.1792484
Monterey CA USA,1,2019-03-04,36.2231079,-121.3877428
Montgomery AL USA,2,2019-03-04,40.85239,-78.266098
Nashville TN USA,5,2019-03-04,36.1622296,-86.7743531
New Orleans LA USA,3,2019-03-04,29.9499323,-90.0701156
New York NY USA,4,2019-03-04,40.7127281,-74.0060152
Norfolk VA USA,4,2019-03-04,36.8889933,-76.2481624
Odessa TX USA,4,2019-03-04,31.8457149,-102.367687
Oklahoma City OK USA,5,2019-03-04,35.4729886,-97.5170536
Omaha NE USA,8,2019-03-04,41.2587459,-95.9383758
Orlando FL USA,4,2019-03-04,28.5479786,-81.41278418563017
Ottumwa IA USA,14,2019-03-04,41.0200145,-92.4112963
Paducah KY USA,6,2019-03-04,37.0833893,-88.6000478
Palm Springs CA USA,3,2019-03-04,33.8246269,-116.540303
Panama City FL USA,4,2019-03-04,30.1600827,-85.6545729
Peoria IL USA,14,2019-03-04,40.6938609,-89.5891008
Philadelphia PA USA,6,2019-03-04,39.9527237,-75.1635262
Phoenix AZ USA,5,2019-03-04,33.4484367,-112.0741417
Pittsburgh PA USA,6,2019-03-04,40.4416941,-79.9900861
Portland OR USA,5,2019-03-04,45.5202471,-122.6741949
Portland ME USA,5,2019-03-04,43.6610277,-70.2548596
Presque Isle ME USA,43,2019-03-04,46.681479,-68.016357
Providence RI USA,6,2019-03-04,41.8239891,-71.4128343
Quincy IL USA,6,2019-03-04,42.2528772,-71.0022705
Raleigh NC USA,6,2019-03-04,35.7803977,-78.6390989
Rapid City SD USA,8,2019-03-04,44.081176,-103.228006
Reno NV USA,5,2019-03-04,39.5261206,-119.8126581
Richmond VA USA,6,2019-03-04,37.5385087,-77.43428
Roanoke VA USA,4,2019-03-04,37.270973,-79.9414313
Rochester MN USA,11,2019-03-04,44.0234387,-92.4630182
Rochester NY USA,5,2019-03-04,43.157285,-77.615214
Rockford IL USA,6,2019-03-04,42.2713945,-89.093966
Sacramento CA USA,3,2019-03-04,38.5815719,-121.4943996
Salisbury MD USA,8,2019-03-04,38.3662114,-75.6008881
Salt Lake City UT USA,8,2019-03-04,40.7596198,-111.8867975
San Angelo TX USA,7,2019-03-04,31.4648357,-100.4398442
San Antonio TX USA,2,2019-03-04,29.4246002,-98.4951405
San Diego CA USA,5,2019-03-04,32.7174209,-117.1627714
San Francisco CA USA,4,2019-03-04,37.7790262,-122.4199061
Santa Barbara CA USA,5,2019-03-04,34.4221319,-119.7026673
Savannah GA USA,6,2019-03-04,32.0809263,-81.0911768
Seattle WA USA,5,2019-03-04,47.6038321,-122.3300624
Sherman TX USA,5,2019-03-04,36.2452294,-101.8858689
Shreveport LA USA,2,2019-03-04,32.5221828,-93.7651944
Sioux City IA USA,8,2019-03-04,42.4966815,-96.4058782
Sioux Falls SD USA,7,2019-03-04,43.5499749,-96.700327
South Bend IN USA,9,2019-03-04,41.6833813,-86.2500066
Spokane WA USA,6,2019-03-04,47.6579425,-117.4212265
Springfield MO USA,2,2019-03-04,37.2166779,-93.2920373
Springfield MA USA,5,2019-03-04,42.1014831,-72.589811
St. Joseph MO USA,14,2019-03-04,39.7686055,-94.8466322
St. Louis MO USA,6,2019-03-04,38.6268039,-90.1994097
Syracuse NY USA,5,2019-03-04,43.0481221,-76.1474244
Tallahassee FL USA,4,2019-03-04,30.4380832,-84.2809332
Tampa FL USA,4,2019-03-04,27.9518491,-82.4563972
Terre Haute IN USA,4,2019-03-04,39.4667025,-87.4139119
Toledo OH USA,8,2019-03-04,41.6786754,-83.5127283
Topeka KS USA,3,2019-03-04,39.049011,-95.677556
Traverse City MI USA,6,2019-03-04,44.7606441,-85.6165301
Tri VA USA,5,2019-03-04,38.5467876,-77.3366491
Tucson AZ USA,4,2019-03-04,32.2228765,-110.9748477
Tulsa OK USA,6,2019-03-04,36.1556805,-95.9929113
Twin Falls ID USA,12,2019-03-04,42.5704219,-114.4603171
Tyler TX USA,4,2019-03-04,32.3512601,-95.3010624
Utica NY USA,6,2019-03-04,43.1009031,-75.2326641
Waco TX USA,4,2019-03-04,31.549333,-97.1466695
Washington DC USA,6,2019-03-04,38.8948932,-77.0365529
Watertown NY USA,6,2019-03-04,43.9747838,-75.9107565
Wausau WI USA,9,2019-03-04,44.9596017,-89.6298239
West Palm Beach FL USA,3,2019-03-04,26.7153425,-80.0533746
Wheeling WV USA,9,2019-03-04,40.0639616,-80.7209149
Wichita Falls TX USA,5,2019-03-04,33.9137085,-98.4933873
Wichita KS USA,5,2019-03-04,37.6922361,-97.3375448
Wilkes Barre PA USA,4,2019-03-04,41.2464824,-75.8817316
Wilmington NC USA,5,2019-03-04,34.2257282,-77.9447107
Yakima WA USA,4,2019-03-04,46.601557,-120.5108421
Youngstown OH USA,6,2019-03-04,41.1035786,-80.6520161
Yuma AZ USA,2,2019-03-04,32.6926588,-114.6276157
Abilene TX USA,27,2019-03-11,32.44645,-99.7475905
Albany GA USA,9,2019-03-11,40.0555158,-82.8457691
Albany NY USA,30,2019-03-11,42.6511674,-73.754968
Albuquerque NM USA,24,2019-03-11,35.0841034,-106.6509851
Alexandria LA USA,23,2019-03-11,38.8147596,-77.09024765272724
Alpena MI USA,100,2019-03-11,45.0176181,-83.6670019
Amarillo TX USA,15,2019-03-11,35.2072185,-101.8338246
Anchorage AK USA,23,2019-03-11,61.2163129,-149.8948523
Atlanta GA USA,22,2019-03-11,33.7490987,-84.3901849
Augusta GA USA,14,2019-03-11,33.4709714,-81.9748429
Austin TX USA,21,2019-03-11,30.2711286,-97.7436995
Bakersfield CA USA,16,2019-03-11,35.3738712,-119.0194639
Baltimore MD USA,28,2019-03-11,39.284749399999995,-76.62047463969989
Bangor ME USA,26,2019-03-11,44.8011821,-68.7778138
Baton Rouge LA USA,21,2019-03-11,30.4459596,-91.18738
Beaumont TX USA,11,2019-03-11,30.0860459,-94.1018461
Bend OR USA,30,2019-03-11,44.0581728,-121.3153096
"Billings, MT USA",43,2019-03-11,45.7874957,-108.49607
Biloxi MS USA,9,2019-03-11,30.374673,-88.84594333482862
Binghamton NY USA,48,2019-03-11,42.096968,-75.914341
Birmingham AL USA,25,2019-03-11,33.570499,-86.765783
Bluefield WV USA,11,2019-03-11,37.2698395,-81.2223195
Boise ID USA,35,2019-03-11,43.6166163,-116.200886
Boston MA USA,35,2019-03-11,42.3602534,-71.0582912
Bowling Green KY USA,12,2019-03-11,36.9903199,-86.4436018
Buffalo NY USA,35,2019-03-11,42.8867166,-78.8783922
Burlington VT USA,26,2019-03-11,44.4762975,-73.2135472
Butte MT USA,46,2019-03-11,46.0131505,-112.5365089
Casper WY USA,38,2019-03-11,39.4632037,-75.7079641
Cedar Rapids IA USA,37,2019-03-11,41.9758872,-91.6704053
Champaign IL USA,20,2019-03-11,40.1164205,-88.2433829
Charleston SC USA,32,2019-03-11,32.7876012,-79.9402728
Charleston WV USA,15,2019-03-11,38.3505995,-81.6332812
Charlotte NC USA,30,2019-03-11,35.2270869,-80.8431268
Charlottesville VA USA,62,2019-03-11,38.029306,-78.4766781
Chattanooga TN USA,29,2019-03-11,35.0457219,-85.3094883
Cheyenne WY USA,26,2019-03-11,40.640361,-74.367318
Chicago IL USA,38,2019-03-11,41.8755616,-87.6244212
Chico CA USA,12,2019-03-11,39.7284945,-121.8374777
Cincinnati OH USA,53,2019-03-11,39.1014537,-84.5124602
Clarksburg WV USA,22,2019-03-11,39.2806451,-80.3445341
Cleveland OH USA,37,2019-03-11,41.5051613,-81.6934446
Colorado Springs CO USA,21,2019-03-11,38.8339578,-104.8253485
Columbia SC USA,38,2019-03-11,34.0007493,-81.0343313
Columbia MO USA,19,2019-03-11,38.951883,-92.3337366
Columbus GA USA,22,2019-03-11,32.4609764,-84.9877094
Columbus OH USA,50,2019-03-11,39.9622601,-83.0007065
Columbus MS USA,16,2019-03-11,43.336875649999996,-89.0196532340367
Corpus Christi TX USA,5,2019-03-11,27.7477253,-97.4014129
Dallas TX USA,25,2019-03-11,32.7762719,-96.7968559
Davenport IA USA,30,2019-03-11,41.5236436,-90.5776368
Dayton OH USA,41,2019-03-11,39.7589478,-84.1916069
Denver CO USA,36,2019-03-11,39.7348381,-104.9653271
Des Moines IA USA,49,2019-03-11,41.5910641,-93.6037149
Detroit MI USA,36,2019-03-11,42.3315509,-83.0466403
Dothan AL USA,11,2019-03-11,31.2237434,-85.3933906
Duluth MN USA,37,2019-03-11,46.7729322,-92.1251218
El Paso TX USA,18,2019-03-11,31.7754152,-106.4646348
Elmira NY USA,27,2019-03-11,42.0897965,-76.8077338
Erie PA USA,30,2019-03-11,42.1294712,-80.0852695
Eugene OR USA,32,2019-03-11,44.0505054,-123.0950506
Eureka CA USA,18,2019-03-11,40.8020712,-124.1636729
Evansville IN USA,36,2019-03-11,37.9747645,-87.5558483
Fairbanks AK USA,28,2019-03-11,64.837845,-147.716675
Fargo ND USA,37,2019-03-11,46.877229,-96.789821
Flint MI USA,48,2019-03-11,43.0161693,-83.6900211
Florence SC USA,28,2019-03-11,34.1984435,-79.7671658
Fresno CA USA,10,2019-03-11,36.7295295,-119.70886126075588
Ft. Myers FL USA,25,2019-03-11,26.640628,-81.8723084
Ft. Smith AR USA,24,2019-03-11,35.3872218,-94.4248983
Ft. Wayne IN USA,28,2019-03-11,41.0799898,-85.1386015
Gainesville FL USA,17,2019-03-11,29.67357765,-82.32337460192167
Grand Junction CO USA,25,2019-03-11,39.063956,-108.5507317
Grand Rapids MI USA,55,2019-03-11,42.9142413,-85.533004
Great Falls MT USA,44,2019-03-11,47.5048851,-111.2918908
Green Bay WI USA,44,2019-03-11,44.5126379,-88.0125794
Greensboro NC USA,26,2019-03-11,36.0726355,-79.7919754
Greenville NC USA,27,2019-03-11,35.612661,-77.3663538
Greenville SC USA,34,2019-03-11,34.851354,-82.3984882
Greenwood MS USA,21,2019-03-11,39.59493885,-86.12237861696312
Harlingen TX USA,9,2019-03-11,26.1908241,-97.6959794
Harrisburg PA USA,32,2019-03-11,40.2663107,-76.8861122
Harrisonburg VA USA,39,2019-03-11,38.4493315,-78.8688833
Hartford CT USA,29,2019-03-11,43.648048,-70.241416
Hattiesburg MS USA,20,2019-03-11,31.3271189,-89.2903392
Helena MT USA,35,2019-03-11,46.5927425,-112.0362771
Honolulu HI USA,12,2019-03-11,21.304547,-157.8556764
Houston TX USA,18,2019-03-11,29.7589382,-95.3676974
Huntsville AL USA,27,2019-03-11,33.554113,-86.804219
Idaho Falls ID USA,28,2019-03-11,43.4935245,-112.0400919
Indianapolis IN USA,38,2019-03-11,39.7683331,-86.1583502
Jackson MS USA,14,2019-03-11,28.530801699999998,-81.30324431076107
Jackson TN USA,35,2019-03-11,35.6144446,-88.8177418
Jacksonville FL USA,24,2019-03-11,30.3321838,-81.655651
Johnstown PA USA,34,2019-03-11,40.3267407,-78.9219698
Jonesboro AR USA,21,2019-03-11,35.8428646,-90.7034522
Joplin MO USA,22,2019-03-11,37.08418,-94.51323
Juneau AK USA,30,2019-03-11,58.3019496,-134.419734
Kansas City MO USA,35,2019-03-11,39.100105,-94.5781416
Knoxville TN USA,32,2019-03-11,35.9603948,-83.9210261
La Crosse WI USA,42,2019-03-11,43.8014053,-91.2395429
Lafayette IN USA,47,2019-03-11,40.4167022,-86.8752869
Lafayette LA USA,23,2019-03-11,30.2240897,-92.0198427
Lake Charles LA USA,19,2019-03-11,30.2265949,-93.2173759
Lansing MI USA,53,2019-03-11,42.7338147,-84.5207088
Laredo TX USA,22,2019-03-11,27.5199841,-99.4953764
Las Vegas NV USA,29,2019-03-11,36.1672559,-115.1485163
Lexington KY USA,31,2019-03-11,38.0464066,-84.4970393
Lima OH USA,61,2019-03-11,40.7399785,-84.105006
Lincoln NE USA,26,2019-03-11,40.8088861,-96.7077751
Little Rock AR USA,18,2019-03-11,34.7464809,-92.2895948
Los Angeles CA USA,18,2019-03-11,34.0536909,-118.2427666
Louisville KY USA,37,2019-03-11,38.2542376,-85.759407
Lubbock TX USA,30,2019-03-11,33.5635206,-101.879336
Macon GA USA,19,2019-03-11,32.8406946,-83.6324022
Madison WI USA,43,2019-03-11,43.074761,-89.3837613
Mankato MN USA,46,2019-03-11,44.1634663,-93.9993505
Marquette MI USA,68,2019-03-11,46.4481521,-87.6305899
Medford OR USA,22,2019-03-11,42.3264181,-122.8718605
Memphis TN USA,21,2019-03-11,35.1490215,-90.0516285
Meridian MS USA,19,2019-03-11,43.61732135,-116.40613112241579
Miami FL USA,13,2019-03-11,25.7742658,-80.1936589
Milwaukee WI USA,47,2019-03-11,43.0349931,-87.922497
Minneapolis MN USA,41,2019-03-11,44.9772995,-93.2654692
Minot ND USA,30,2019-03-11,48.23251,-101.296273
Missoula MT USA,59,2019-03-11,46.8701049,-113.9952672
Mobile AL USA,27,2019-03-11,39.092585,-84.853229
Monroe LA USA,12,2019-03-11,38.2722313,-90.1792484
Monterey CA USA,9,2019-03-11,36.2231079,-121.3877428
Montgomery AL USA,18,2019-03-11,40.85239,-78.266098
Nashville TN USA,33,2019-03-11,36.1622296,-86.7743531
New Orleans LA USA,14,2019-03-11,29.9499323,-90.0701156
New York NY USA,21,2019-03-11,40.7127281,-74.0060152
Norfolk VA USA,30,2019-03-11,36.8889933,-76.2481624
North Platte NE USA,50,2019-03-11,41.1238873,-100.7654232
Odessa TX USA,20,2019-03-11,31.8457149,-102.367687
Oklahoma City OK USA,26,2019-03-11,35.4729886,-97.5170536
Omaha NE USA,44,2019-03-11,41.2587459,-95.9383758
Orlando FL USA,22,2019-03-11,28.5479786,-81.41278418563017
Ottumwa IA USA,30,2019-03-11,41.0200145,-92.4112963
Paducah KY USA,32,2019-03-11,37.0833893,-88.6000478
Palm Springs CA USA,14,2019-03-11,33.8246269,-116.540303
Panama City FL USA,26,2019-03-11,30.1600827,-85.6545729
Parkersburg WV USA,26,2019-03-11,39.2699565,-81.5506916
Peoria IL USA,45,2019-03-11,40.6938609,-89.5891008
Philadelphia PA USA,35,2019-03-11,39.9527237,-75.1635262
Phoenix AZ USA,28,2019-03-11,33.4484367,-112.0741417
Pittsburgh PA USA,27,2019-03-11,40.4416941,-79.9900861
Portland OR USA,25,2019-03-11,45.5202471,-122.6741949
Portland ME USA,25,2019-03-11,43.6610277,-70.2548596
Providence RI USA,27,2019-03-11,41.8239891,-71.4128343
Quincy IL USA,29,2019-03-11,42.2528772,-71.0022705
Raleigh NC USA,30,2019-03-11,35.7803977,-78.6390989
Rapid City SD USA,29,2019-03-11,44.081176,-103.228006
Reno NV USA,37,2019-03-11,39.5261206,-119.8126581
Richmond VA USA,35,2019-03-11,37.5385087,-77.43428
Roanoke VA USA,42,2019-03-11,37.270973,-79.9414313
Rochester MN USA,34,2019-03-11,44.0234387,-92.4630182
Rochester NY USA,36,2019-03-11,43.157285,-77.615214
Rockford IL USA,27,2019-03-11,42.2713945,-89.093966
Sacramento CA USA,20,2019-03-11,38.5815719,-121.4943996
Salisbury MD USA,28,2019-03-11,38.3662114,-75.6008881
Salt Lake City UT USA,39,2019-03-11,40.7596198,-111.8867975
San Angelo TX USA,27,2019-03-11,31.4648357,-100.4398442
San Antonio TX USA,19,2019-03-11,29.4246002,-98.4951405
San Diego CA USA,21,2019-03-11,32.7174209,-117.1627714
San Francisco CA USA,19,2019-03-11,37.7790262,-122.4199061
Santa Barbara CA USA,15,2019-03-11,34.4221319,-119.7026673
Savannah GA USA,19,2019-03-11,32.0809263,-81.0911768
Seattle WA USA,28,2019-03-11,47.6038321,-122.3300624
Sherman TX USA,18,2019-03-11,36.2452294,-101.8858689
Shreveport LA USA,16,2019-03-11,32.5221828,-93.7651944
Sioux City IA USA,41,2019-03-11,42.4966815,-96.4058782
Sioux Falls SD USA,37,2019-03-11,43.5499749,-96.700327
South Bend IN USA,32,2019-03-11,41.6833813,-86.2500066
Spokane WA USA,60,2019-03-11,47.6579425,-117.4212265
Springfield MO USA,18,2019-03-11,37.2166779,-93.2920373
Springfield MA USA,26,2019-03-11,42.1014831,-72.589811
St. Joseph MO USA,18,2019-03-11,39.7686055,-94.8466322
St. Louis MO USA,28,2019-03-11,38.6268039,-90.1994097
Syracuse NY USA,38,2019-03-11,43.0481221,-76.1474244
Tallahassee FL USA,18,2019-03-11,30.4380832,-84.2809332
Tampa FL USA,26,2019-03-11,27.9518491,-82.4563972
Terre Haute IN USA,20,2019-03-11,39.4667025,-87.4139119
Toledo OH USA,41,2019-03-11,41.6786754,-83.5127283
Topeka KS USA,52,2019-03-11,39.049011,-95.677556
Traverse City MI USA,46,2019-03-11,44.7606441,-85.6165301
Tri VA USA,27,2019-03-11,38.5467876,-77.3366491
Tucson AZ USA,23,2019-03-11,32.2228765,-110.9748477
Tulsa OK USA,19,2019-03-11,36.1556805,-95.9929113
Twin Falls ID USA,18,2019-03-11,42.5704219,-114.4603171
Tyler TX USA,21,2019-03-11,32.3512601,-95.3010624
Utica NY USA,25,2019-03-11,43.1009031,-75.2326641
Waco TX USA,20,2019-03-11,31.549333,-97.1466695
Washington DC USA,35,2019-03-11,38.8948932,-77.0365529
Watertown NY USA,37,2019-03-11,43.9747838,-75.9107565
Wausau WI USA,40,2019-03-11,44.9596017,-89.6298239
West Palm Beach FL USA,21,2019-03-11,26.7153425,-80.0533746
Wheeling WV USA,24,2019-03-11,40.0639616,-80.7209149
Wichita Falls TX USA,19,2019-03-11,33.9137085,-98.4933873
Wichita KS USA,36,2019-03-11,37.6922361,-97.3375448
Wilkes Barre PA USA,29,2019-03-11,41.2464824,-75.8817316
Wilmington NC USA,23,2019-03-11,34.2257282,-77.9447107
Yakima WA USA,33,2019-03-11,46.601557,-120.5108421
Youngstown OH USA,23,2019-03-11,41.1035786,-80.6520161
Yuma AZ USA,11,2019-03-11,32.6926588,-114.6276157
Zanesville OH USA,70,2019-03-11,39.9403453,-82.0131924
Abilene TX USA,26,2019-03-18,32.44645,-99.7475905
Albany GA USA,11,2019-03-18,40.0555158,-82.8457691
Albany NY USA,27,2019-03-18,42.6511674,-73.754968
Albuquerque NM USA,19,2019-03-18,35.0841034,-106.6509851
Alexandria LA USA,12,2019-03-18,38.8147596,-77.09024765272724
Alpena MI USA,32,2019-03-18,45.0176181,-83.6670019
Amarillo TX USA,21,2019-03-18,35.2072185,-101.8338246
Anchorage AK USA,16,2019-03-18,61.2163129,-149.8948523
Atlanta GA USA,21,2019-03-18,33.7490987,-84.3901849
Augusta GA USA,14,2019-03-18,33.4709714,-81.9748429
Austin TX USA,20,2019-03-18,30.2711286,-97.7436995
Bakersfield CA USA,11,2019-03-18,35.3738712,-119.0194639
Baltimore MD USA,25,2019-03-18,39.284749399999995,-76.62047463969989
Bangor ME USA,25,2019-03-18,44.8011821,-68.7778138
Baton Rouge LA USA,21,2019-03-18,30.4459596,-91.18738
Beaumont TX USA,10,2019-03-18,30.0860459,-94.1018461
Bend OR USA,29,2019-03-18,44.0581728,-121.3153096
"Billings, MT USA",40,2019-03-18,45.7874957,-108.49607
Biloxi MS USA,13,2019-03-18,30.374673,-88.84594333482862
Binghamton NY USA,26,2019-03-18,42.096968,-75.914341
Birmingham AL USA,25,2019-03-18,33.570499,-86.765783
Bluefield WV USA,21,2019-03-18,37.2698395,-81.2223195
Boise ID USA,28,2019-03-18,43.6166163,-116.200886
Boston MA USA,31,2019-03-18,42.3602534,-71.0582912
Bowling Green KY USA,31,2019-03-18,36.9903199,-86.4436018
Buffalo NY USA,29,2019-03-18,42.8867166,-78.8783922
Burlington VT USA,36,2019-03-18,44.4762975,-73.2135472
Butte MT USA,43,2019-03-18,46.0131505,-112.5365089
Casper WY USA,29,2019-03-18,39.4632037,-75.7079641
Cedar Rapids IA USA,47,2019-03-18,41.9758872,-91.6704053
Champaign IL USA,32,2019-03-18,40.1164205,-88.2433829
Charleston SC USA,21,2019-03-18,32.7876012,-79.9402728
Charleston WV USA,25,2019-03-18,38.3505995,-81.6332812
Charlotte NC USA,26,2019-03-18,35.2270869,-80.8431268
Charlottesville VA USA,65,2019-03-18,38.029306,-78.4766781
Chattanooga TN USA,20,2019-03-18,35.0457219,-85.3094883
Cheyenne WY USA,24,2019-03-18,40.640361,-74.367318
Chicago IL USA,35,2019-03-18,41.8755616,-87.6244212
Chico CA USA,15,2019-03-18,39.7284945,-121.8374777
Cincinnati OH USA,46,2019-03-18,39.1014537,-84.5124602
Clarksburg WV USA,26,2019-03-18,39.2806451,-80.3445341
Cleveland OH USA,32,2019-03-18,41.5051613,-81.6934446
Colorado Springs CO USA,21,2019-03-18,38.8339578,-104.8253485
Columbia SC USA,34,2019-03-18,34.0007493,-81.0343313
Columbia MO USA,35,2019-03-18,38.951883,-92.3337366
Columbus GA USA,26,2019-03-18,32.4609764,-84.9877094
Columbus OH USA,45,2019-03-18,39.9622601,-83.0007065
Columbus MS USA,15,2019-03-18,43.336875649999996,-89.0196532340367
Corpus Christi TX USA,10,2019-03-18,27.7477253,-97.4014129
Dallas TX USA,21,2019-03-18,32.7762719,-96.7968559
Davenport IA USA,39,2019-03-18,41.5236436,-90.5776368
Dayton OH USA,36,2019-03-18,39.7589478,-84.1916069
Denver CO USA,32,2019-03-18,39.7348381,-104.9653271
Des Moines IA USA,43,2019-03-18,41.5910641,-93.6037149
Detroit MI USA,34,2019-03-18,42.3315509,-83.0466403
Dothan AL USA,16,2019-03-18,31.2237434,-85.3933906
Duluth MN USA,35,2019-03-18,46.7729322,-92.1251218
El Paso TX USA,14,2019-03-18,31.7754152,-106.4646348
Elmira NY USA,22,2019-03-18,42.0897965,-76.8077338
Erie PA USA,28,2019-03-18,42.1294712,-80.0852695
Eugene OR USA,27,2019-03-18,44.0505054,-123.0950506
Eureka CA USA,16,2019-03-18,40.8020712,-124.1636729
Evansville IN USA,37,2019-03-18,37.9747645,-87.5558483
Fairbanks AK USA,14,2019-03-18,64.837845,-147.716675
Fargo ND USA,51,2019-03-18,46.877229,-96.789821
Flint MI USA,37,2019-03-18,43.0161693,-83.6900211
Florence SC USA,20,2019-03-18,34.1984435,-79.7671658
Fresno CA USA,13,2019-03-18,36.7295295,-119.70886126075588
Ft. Myers FL USA,20,2019-03-18,26.640628,-81.8723084
Ft. Smith AR USA,20,2019-03-18,35.3872218,-94.4248983
Ft. Wayne IN USA,36,2019-03-18,41.0799898,-85.1386015
Gainesville FL USA,29,2019-03-18,29.67357765,-82.32337460192167
Glendive MT USA,100,2019-03-18,47.10529,-104.71246
Grand Junction CO USA,19,2019-03-18,39.063956,-108.5507317
Grand Rapids MI USA,52,2019-03-18,42.9142413,-85.533004
Great Falls MT USA,41,2019-03-18,47.5048851,-111.2918908
Green Bay WI USA,49,2019-03-18,44.5126379,-88.0125794
Greensboro NC USA,21,2019-03-18,36.0726355,-79.7919754
Greenville NC USA,19,2019-03-18,35.612661,-77.3663538
Greenville SC USA,24,2019-03-18,34.851354,-82.3984882
Greenwood MS USA,6,2019-03-18,39.59493885,-86.12237861696312
Harlingen TX USA,5,2019-03-18,26.1908241,-97.6959794
Harrisburg PA USA,28,2019-03-18,40.2663107,-76.8861122
Harrisonburg VA USA,49,2019-03-18,38.4493315,-78.8688833
Hartford CT USA,26,2019-03-18,43.648048,-70.241416
Hattiesburg MS USA,17,2019-03-18,31.3271189,-89.2903392
Helena MT USA,36,2019-03-18,46.5927425,-112.0362771
Honolulu HI USA,12,2019-03-18,21.304547,-157.8556764
Houston TX USA,15,2019-03-18,29.7589382,-95.3676974
